$GPGGA,192321.45,1559.365381,S,04802.612940,W,1,00,    ,1205.88,M,0.0,M,0.0,0000*5A
$GPGSV,3,1,11,2,39,160,40.7,5,44,107,33.7,12,53,063,32.4,15,10,044,31.5*74
$GPGSV,3,2,11,18,52,279,37.8,20,14,136,30.5,23,19,347,33.6,24,12,009,30.1*72
$GPGSV,3,3,11,25,78,163,33.8,29,38,191,38.8,31,16,239,31.6*50
$GPRMC,192321.45,A,1559.365381,S,04802.612940,W,000.5,,190922,,,A*74
$GPGGA,192322.45,1559.365829,S,04802.612815,W,1,00,    ,1207.22,M,0.0,M,0.0,0000*53
$GPGSV,3,1,11,2,39,160,40.6,5,44,107,35.0,12,53,063,26.9,15,10,044,28.5*74
$GPGSV,3,2,11,18,52,279,37.2,20,14,136,34.1,23,19,347,30.3,24,12,009,30.2*7D
$GPGSV,3,3,11,25,78,163,33.8,29,38,191,40.3,31,16,239,24.1*57
$GPRMC,192322.45,A,1559.365829,S,04802.612815,W,000.2,,190922,,,A*78
$GPGGA,192323.45,1559.366330,S,04802.613536,W,1,00,    ,1206.79,M,0.0,M,0.0,0000*50
$GPGSV,3,1,11,2,39,160,41.7,5,44,107,34.6,12,53,063,30.8,15,10,044,31.8*70
$GPGSV,3,2,11,18,52,279,32.2,20,14,136,38.7,23,19,347,26.3,24,12,009,26.4*74
$GPGSV,3,3,11,25,78,163,28.4,29,38,191,39.2,31,16,239,29.9*5B
$GPRMC,192323.45,A,1559.366330,S,04802.613536,W,000.2,,190922,,,A*74
$GPGGA,192324.45,1559.366392,S,04802.614148,W,1,00,    ,1204.24,M,0.0,M,0.0,0000*5F
$GPGSV,3,1,11,2,39,160,40.8,5,44,107,37.0,12,53,063,30.6,15,10,044,35.1*78
$GPGSV,3,2,11,18,52,278,34.3,20,14,136,38.0,23,19,347,26.4,24,12,009,28.9*71
$GPGSV,3,3,11,25,78,163,26.4,29,38,191,36.7,31,16,239,32.1*5D
$GPRMC,192324.45,A,1559.366392,S,04802.614148,W,000.1,,190922,,,A*72
$GPGGA,192325.45,1559.366385,S,04802.614130,W,1,00,    ,1204.16,M,0.0,M,0.0,0000*56
$GPGSV,3,1,11,2,39,160,35.8,5,44,107,33.8,12,53,063,31.1,15,10,044,29.8*74
$GPGSV,3,2,11,18,52,278,36.6,20,14,136,32.2,23,19,347,27.4,24,12,009,28.7*71
$GPGSV,3,3,11,25,78,163,36.8,29,38,191,36.7,31,16,239,30.8*5B
$GPRMC,192325.45,A,1559.366385,S,04802.614130,W,000.2,,190922,,,A*79
$GPGGA,192326.45,1559.365954,S,04802.614474,W,1,00,    ,1204.88,M,0.0,M,0.0,0000*52
$GPGSV,3,1,11,2,39,160,29.7,5,44,107,33.6,12,53,063,19.7,15,10,044,33.1*76
$GPGSV,3,2,11,18,52,278,38.2,20,14,136,27.1,23,19,347,35.1,24,12,009,25.7*77
$GPGSV,3,3,11,25,78,162,36.6,29,38,191,33.5,31,16,239,21.9*52
$GPRMC,192326.45,A,1559.365954,S,04802.614474,W,000.1,,190922,,,A*79
$GPGGA,192327.45,1559.365732,S,04802.614643,W,1,00,    ,1205.58,M,0.0,M,0.0,0000*57
$GPGSV,3,1,11,2,39,160,30.8,5,44,107,29.6,12,53,063,26.2,15,10,044,31.9*79
$GPGSV,3,2,11,18,52,278,37.7,20,14,136,29.7,23,19,347,35.4,24,12,009,25.8*7F
$GPGSV,3,3,11,25,78,162,36.6,29,38,191,29.4,31,16,239,24.0*54
$GPRMC,192327.45,A,1559.365732,S,04802.614643,W,000.1,,190922,,,A*70
$GPGGA,192328.45,1559.365302,S,04802.614729,W,1,00,    ,1206.72,M,0.0,M,0.0,0000*59
$GPGSV,3,1,11,2,39,160,33.8,5,44,107,30.3,12,53,063,27.4,15,10,044,35.8*75
$GPGSV,3,2,11,18,52,278,39.4,20,14,136,24.3,23,19,347,32.6,24,12,009,29.3*79
$GPGSV,3,3,11,25,78,162,39.4,29,38,191,28.0,31,16,239,23.9*52
$GPRMC,192328.45,A,1559.365302,S,04802.614729,W,000.1,,190922,,,A*75
$GPGGA,192329.45,1559.365014,S,04802.614590,W,1,00,    ,1207.87,M,0.0,M,0.0,0000*57
$GPGSV,3,1,11,2,39,160,33.3,5,44,107,29.1,12,53,063,28.9,15,10,044,35.4*7A
$GPGSV,3,2,11,18,52,278,38.4,20,14,136,23.1,23,19,347,32.9,24,12,009,29.0*71
$GPGSV,3,3,11,25,78,162,37.9,29,38,191,27.2,31,16,239,21.6*51
$GPRMC,192329.45,A,1559.365014,S,04802.614590,W,000.1,,190922,,,A*70
$GPGGA,192330.45,1559.365069,S,04802.614605,W,1,00,    ,1207.28,M,0.0,M,0.0,0000*5F
$GPGSV,3,1,11,2,39,160,32.2,5,44,107,30.5,12,53,063,27.7,15,10,044,33.8*7D
$GPGSV,3,2,11,18,52,278,37.6,20,14,136,30.0,23,19,347,36.9,24,12,009,25.0*77
$GPGSV,3,3,11,25,78,162,37.0,29,38,191,27.1,31,16,239,22.1*5F
$GPRMC,192330.45,A,1559.365069,S,04802.614605,W,000.1,,190922,,,A*7D
$GPGGA,192331.45,1559.364985,S,04802.614535,W,1,00,    ,1208.08,M,0.0,M,0.0,0000*59
$GPGSV,3,1,11,2,39,160,34.5,5,44,107,31.0,12,53,063,26.0,15,10,044,33.9*7F
$GPGSV,3,2,11,18,52,278,38.9,20,14,136,29.2,23,19,347,36.3,24,12,009,26.9*7D
$GPGSV,3,3,11,25,78,162,37.8,29,38,191,23.3,31,16,239,25.1*56
$GPRMC,192331.45,A,1559.364985,S,04802.614535,W,000.1,,190922,,,A*76
$GPGGA,192332.45,1559.365032,S,04802.614635,W,1,00,    ,1207.79,M,0.0,M,0.0,0000*54
$GPGSV,3,1,10,2,39,160,34.5,5,44,107,32.8,12,53,063,25.1,15,10,044,31.7*7B
$GPGSV,3,2,10,18,52,278,38.5,20,14,136,28.4,23,19,347,33.7,24,12,009,23.4*7E
$GPGSV,3,3,10,25,78,162,39.0,31,16,239,22.3*71
$GPRMC,192332.45,A,1559.365032,S,04802.614635,W,000.0,,190922,,,A*73
$GPGGA,192333.45,1559.365112,S,04802.614615,W,1,00,    ,1207.03,M,0.0,M,0.0,0000*59
$GPGSV,3,1,10,2,39,160,35.6,5,44,107,34.5,12,53,063,25.4,15,10,044,23.8*7B
$GPGSV,3,2,10,18,52,278,39.7,20,14,136,31.2,23,19,347,35.7,25,78,162,40.1*74
$GPGSV,3,3,10,29,38,191,21.9,31,16,239,27.6*75
$GPRMC,192333.45,A,1559.365112,S,04802.614615,W,000.0,,190922,,,A*73
$GPGGA,192334.45,1559.365186,S,04802.614624,W,1,00,    ,1206.38,M,0.0,M,0.0,0000*58
$GPGSV,3,1,11,2,39,160,34.3,5,44,107,35.1,12,53,063,23.7,15,10,044,32.8*7E
$GPGSV,3,2,11,18,52,278,36.7,20,14,136,27.8,23,19,347,36.4,24,12,009,21.0*70
$GPGSV,3,3,11,25,78,162,37.8,29,38,191,26.1,31,16,239,25.5*55
$GPRMC,192334.45,A,1559.365186,S,04802.614624,W,000.1,,190922,,,A*7A
$GPGGA,192335.45,1559.365326,S,04802.614649,W,1,00,    ,1205.67,M,0.0,M,0.0,0000*53
$GPGSV,3,1,11,2,39,160,34.4,5,44,107,33.7,12,53,063,26.5,15,10,044,33.1*76
$GPGSV,3,2,11,18,52,278,39.6,20,14,136,31.5,23,19,347,37.4,24,12,009,27.2*71
$GPGSV,3,3,11,25,78,162,38.3,29,38,191,29.2,31,16,239,26.7*5C
$GPRMC,192335.45,A,1559.365326,S,04802.614649,W,000.1,,190922,,,A*78
$GPGGA,192336.45,1559.365505,S,04802.614907,W,1,00,    ,1204.17,M,0.0,M,0.0,0000*54
$GPGSV,3,1,11,2,39,160,33.4,5,44,107,32.5,12,53,063,29.3,15,10,044,33.0*7A
$GPGSV,3,2,11,18,52,278,38.5,20,14,136,29.2,23,19,347,35.7,24,12,009,29.4*74
$GPGSV,3,3,11,25,78,162,38.0,29,38,191,27.6,31,16,239,29.3*5E
$GPRMC,192336.45,A,1559.365505,S,04802.614907,W,000.0,,190922,,,A*78
$GPGGA,192337.45,1559.365501,S,04802.615065,W,1,00,    ,1203.38,M,0.0,M,0.0,0000*57
$GPGSV,3,1,11,2,39,160,33.4,5,44,107,33.7,12,53,063,27.8,15,10,044,33.2*7E
$GPGSV,3,2,11,18,52,278,39.5,20,14,136,31.2,23,19,347,35.5,24,12,009,21.4*76
$GPGSV,3,3,11,25,78,162,39.2,29,38,191,27.5,31,16,239,23.2*55
$GPRMC,192337.45,A,1559.365501,S,04802.615065,W,000.1,,190922,,,A*70
$GPGGA,192338.45,1559.365406,S,04802.615322,W,1,00,    ,1203.18,M,0.0,M,0.0,0000*5C
$GPGSV,3,1,11,2,39,160,34.6,5,44,107,34.3,12,53,063,25.8,15,10,044,33.6*7E
$GPGSV,3,2,11,18,52,278,39.8,20,14,136,31.8,23,19,347,35.8,24,12,009,19.8*7B
$GPGSV,3,3,11,25,78,162,40.3,29,38,191,22.1,31,16,239,25.3*5C
$GPRMC,192338.45,A,1559.365406,S,04802.615322,W,000.1,,190922,,,A*79
$GPGGA,192339.45,1559.365362,S,04802.615393,W,1,00,    ,1203.05,M,0.0,M,0.0,0000*5E
$GPGSV,3,1,11,2,39,160,35.2,5,44,107,35.0,12,53,063,19.0,15,10,044,32.4*7D
$GPGSV,3,2,11,18,52,278,39.2,20,14,136,32.4,23,19,347,35.6,24,12,009,22.7*77
$GPGSV,3,3,11,25,78,162,39.2,29,38,191,23.0,31,16,239,25.7*57
$GPRMC,192339.45,A,1559.365362,S,04802.615393,W,000.0,,190922,,,A*76
$GPGGA,192340.45,1559.365157,S,04802.615118,W,1,00,    ,1203.83,M,0.0,M,0.0,0000*5B
$GPGSV,3,1,11,2,39,160,35.4,5,44,107,34.2,12,53,063,23.2,15,10,044,31.4*70
$GPGSV,3,2,11,18,52,278,38.1,20,14,136,32.2,23,19,347,35.0,24,12,009,25.6*73
$GPGSV,3,3,11,25,78,162,39.2,29,38,191,17.5,31,16,239,27.8*58
$GPRMC,192340.45,A,1559.365157,S,04802.615118,W,000.0,,190922,,,A*7D
$GPGGA,192341.45,1559.365046,S,04802.614764,W,1,00,    ,1204.15,M,0.0,M,0.0,0000*5F
$GPGSV,3,1,11,2,39,160,32.7,5,44,107,34.6,12,53,063,25.9,15,10,044,33.3*78
$GPGSV,3,2,11,18,52,278,39.3,20,14,136,31.8,23,19,347,38.0,24,12,009,26.1*70
$GPGSV,3,3,11,25,78,162,38.5,29,38,191,24.6,31,16,239,30.0*53
$GPRMC,192341.45,A,1559.365046,S,04802.614764,W,000.0,,190922,,,A*71
$GPGGA,192342.45,1559.365045,S,04802.614501,W,1,00,    ,1204.31,M,0.0,M,0.0,0000*58
$GPGSV,3,1,11,2,39,160,31.7,5,44,107,36.9,12,53,063,27.3,15,10,044,34.4*7E
$GPGSV,3,2,11,18,52,278,40.0,20,14,136,32.0,23,19,347,38.2,24,12,009,22.8*79
$GPGSV,3,3,11,25,78,162,38.0,29,38,191,26.8,31,16,239,31.5*5E
$GPRMC,192342.45,A,1559.365045,S,04802.614501,W,000.0,,190922,,,A*70
$GPGGA,192343.45,1559.364995,S,04802.614594,W,1,00,    ,1204.48,M,0.0,M,0.0,0000*5E
$GPGSV,3,1,11,2,39,160,34.0,5,44,108,33.9,12,53,063,31.7,15,10,044,33.8*7E
$GPGSV,3,2,11,18,52,278,39.0,20,14,136,31.1,23,19,347,38.4,24,12,009,27.3*7D
$GPGSV,3,3,11,25,78,162,39.3,29,38,191,25.1,31,16,239,29.6*5C
$GPRMC,192343.45,A,1559.364995,S,04802.614594,W,000.1,,190922,,,A*79
$GPGGA,192344.45,1559.364926,S,04802.614654,W,1,00,    ,1204.87,M,0.0,M,0.0,0000*5D
$GPGSV,3,1,11,2,39,160,34.7,5,44,108,33.7,12,53,063,31.8,15,10,044,30.3*70
$GPGSV,3,2,11,18,52,278,37.8,20,14,136,29.4,23,19,347,36.1,24,12,009,24.4*78
$GPGSV,3,3,11,25,78,162,37.9,29,38,191,25.9,31,16,239,30.6*58
$GPRMC,192344.45,A,1559.364926,S,04802.614654,W,000.0,,190922,,,A*78
$GPGGA,192345.45,1559.364925,S,04802.614833,W,1,00,    ,1204.91,M,0.0,M,0.0,0000*57
$GPGSV,3,1,11,2,39,160,30.5,5,44,108,32.6,12,53,063,26.5,15,10,044,33.8*75
$GPGSV,3,2,11,18,52,278,38.0,20,14,136,30.9,23,19,347,37.1,24,12,009,31.2*79
$GPGSV,3,3,11,25,78,162,38.3,29,38,191,29.8,31,16,239,25.9*5B
$GPRMC,192345.45,A,1559.364925,S,04802.614833,W,000.1,,190922,,,A*74
$GPGGA,192346.45,1559.364988,S,04802.614883,W,1,00,    ,1204.69,M,0.0,M,0.0,0000*5F
$GPGSV,3,1,11,2,39,160,30.7,5,44,108,36.8,12,53,063,27.9,15,10,044,32.6*7F
$GPGSV,3,2,11,18,52,278,38.3,20,14,136,33.1,23,19,347,38.1,24,12,009,31.8*74
$GPGSV,3,3,11,25,78,162,39.2,29,38,191,28.4,31,16,239,26.1*5D
$GPRMC,192346.45,A,1559.364988,S,04802.614883,W,000.0,,190922,,,A*7A
$GPGGA,192347.45,1559.365035,S,04802.614757,W,1,00,    ,1204.69,M,0.0,M,0.0,0000*56
$GPGSV,3,1,11,2,39,160,32.4,5,44,108,36.1,12,53,063,31.4,15,10,044,33.2*78
$GPGSV,3,2,11,18,52,278,38.9,20,14,136,34.9,23,19,347,37.8,24,12,009,25.6*7C
$GPGSV,3,3,11,25,78,162,38.6,29,38,191,28.3,31,16,239,27.6*59
$GPRMC,192347.45,A,1559.365035,S,04802.614757,W,000.1,,190922,,,A*72
$GPGGA,192348.45,1559.365051,S,04802.614715,W,1,00,    ,1204.75,M,0.0,M,0.0,0000*50
$GPGSV,3,1,11,2,39,160,34.6,5,44,108,30.5,12,53,063,30.4,15,10,044,31.9*76
$GPGSV,3,2,11,18,52,278,35.6,20,14,136,29.8,23,19,347,35.1,24,12,009,24.9*76
$GPGSV,3,3,11,25,78,162,36.4,29,38,191,29.7,31,16,240,24.8*53
$GPRMC,192348.45,A,1559.365051,S,04802.614715,W,000.1,,190922,,,A*79
$GPGGA,192349.45,1559.365154,S,04802.614594,W,1,00,    ,1204.92,M,0.0,M,0.0,0000*57
$GPGSV,3,1,11,2,39,160,34.7,5,44,108,30.6,12,53,063,34.8,15,10,044,34.7*77
$GPGSV,3,2,11,18,52,278,39.2,20,14,136,34.5,23,19,347,35.8,24,12,009,27.2*7E
$GPGSV,3,3,11,25,78,162,39.4,29,38,191,31.4,31,16,240,29.0*53
$GPRMC,192349.45,A,1559.365154,S,04802.614594,W,000.0,,190922,,,A*76
$GPGGA,192350.45,1559.365073,S,04802.614585,W,1,00,    ,1204.96,M,0.0,M,0.0,0000*5F
$GPGSV,3,1,11,2,39,160,32.9,5,44,108,29.0,12,53,063,31.1,15,10,044,35.2*79
$GPGSV,3,2,11,18,52,278,38.1,20,14,136,31.2,23,19,347,38.3,24,12,009,27.1*7B
$GPGSV,3,3,11,25,78,162,38.6,29,38,191,32.0,31,16,240,28.3*55
$GPRMC,192350.45,A,1559.365073,S,04802.614585,W,000.1,,190922,,,A*7B
$GPGGA,192351.45,1559.365053,S,04802.614583,W,1,00,    ,1205.14,M,0.0,M,0.0,0000*51
$GPGSV,3,1,11,2,39,160,34.2,5,44,108,34.0,12,53,063,30.3,15,10,044,36.4*7E
$GPGSV,3,2,11,18,52,278,39.2,20,14,136,30.1,23,19,347,38.9,24,12,009,25.2*70
$GPGSV,3,3,11,25,78,162,39.4,29,38,191,28.8,31,16,240,29.5*52
$GPRMC,192351.45,A,1559.365053,S,04802.614583,W,000.1,,190922,,,A*7E
$GPGGA,192352.45,1559.365071,S,04802.614622,W,1,00,    ,1205.37,M,0.0,M,0.0,0000*5B
$GPGSV,3,1,10,2,39,160,33.8,5,44,108,34.3,12,53,063,30.4,15,10,044,34.7*77
$GPGSV,3,2,10,18,52,278,38.6,20,14,136,27.9,23,19,347,39.2,25,78,162,39.4*7A
$GPGSV,3,3,10,29,38,191,27.2,31,16,240,30.8*7E
$GPRMC,192352.45,A,1559.365071,S,04802.614622,W,000.1,,190922,,,A*75
$GPGGA,192353.45,1559.365168,S,04802.614765,W,1,00,    ,1205.40,M,0.0,M,0.0,0000*51
$GPGSV,3,1,10,2,39,160,34.0,5,44,108,34.3,12,53,063,30.0,15,10,044,36.4*7D
$GPGSV,3,2,10,18,52,278,39.0,20,14,136,27.6,23,19,347,37.5,25,78,162,39.4*7B
$GPGSV,3,3,10,29,38,191,27.3,31,16,240,31.3*75
$GPRMC,192353.45,A,1559.365168,S,04802.614765,W,000.1,,190922,,,A*7F
$GPGGA,192354.45,1559.365233,S,04802.614784,W,1,00,    ,1205.48,M,0.0,M,0.0,0000*5C
$GPGSV,3,1,10,2,39,160,33.3,5,44,108,34.9,12,53,063,30.0,15,10,044,36.7*70
$GPGSV,3,2,10,18,52,278,38.8,20,14,136,27.5,23,19,347,39.2,25,78,162,39.2*7E
$GPGSV,3,3,10,29,38,191,26.2,31,16,240,30.0*77
$GPRMC,192354.45,A,1559.365233,S,04802.614784,W,000.0,,190922,,,A*7B
$GPGGA,192355.45,1559.365278,S,04802.614867,W,1,00,    ,1205.51,M,0.0,M,0.0,0000*58
$GPGSV,3,1,10,2,39,160,33.7,5,44,108,35.3,12,53,063,29.8,15,10,044,36.5*7D
$GPGSV,3,2,10,18,52,278,38.4,20,14,136,27.7,23,19,347,39.4,25,78,162,39.2*76
$GPGSV,3,3,10,29,38,191,26.5,31,16,240,30.0*70
$GPRMC,192355.45,A,1559.365278,S,04802.614867,W,000.0,,190922,,,A*77
$GPGGA,192356.45,1559.365373,S,04802.614936,W,1,00,    ,1205.60,M,0.0,M,0.0,0000*56
$GPGSV,3,1,10,2,39,160,34.0,5,44,108,34.8,12,53,063,30.0,15,10,044,36.3*71
$GPGSV,3,2,10,18,52,278,38.1,20,14,136,27.3,23,19,347,39.1,25,78,162,39.2*72
$GPGSV,3,3,10,29,38,191,25.8,31,16,240,28.0*77
$GPRMC,192356.45,A,1559.365373,S,04802.614936,W,000.0,,190922,,,A*7B
$GPGGA,192357.45,1559.365464,S,04802.615080,W,1,00,    ,1205.46,M,0.0,M,0.0,0000*57
$GPGSV,3,1,10,2,39,160,33.2,5,44,108,34.4,12,53,063,29.6,15,10,044,36.3*76
$GPGSV,3,2,10,18,52,278,38.7,20,14,136,27.3,23,19,347,39.1,25,78,162,39.7*71
$GPGSV,3,3,10,29,38,191,26.6,31,16,240,28.1*7B
$GPRMC,192357.45,A,1559.365464,S,04802.615080,W,000.0,,190922,,,A*7E
$GPGGA,192358.45,1559.365509,S,04802.615347,W,1,00,    ,1205.24,M,0.0,M,0.0,0000*5E
$GPGSV,3,1,10,2,39,160,33.6,5,44,108,34.5,12,53,063,30.0,15,10,044,36.3*7D
$GPGSV,3,2,10,18,52,278,39.0,20,14,136,26.0,23,19,347,39.2,25,78,162,39.1*70
$GPGSV,3,3,10,29,38,191,25.9,31,16,240,28.6*70
$GPRMC,192358.45,A,1559.365509,S,04802.615347,W,000.0,,190922,,,A*73
$GPGGA,192359.45,1559.365496,S,04802.615532,W,1,00,    ,1205.19,M,0.0,M,0.0,0000*52
$GPGSV,3,1,10,2,39,160,35.5,5,44,108,35.5,12,53,063,29.8,15,10,044,35.7*7E
$GPGSV,3,2,10,18,52,278,39.1,20,14,136,27.0,23,19,347,39.3,25,78,162,39.3*73
$GPGSV,3,3,10,29,38,191,23.2,31,16,240,30.7*75
$GPRMC,192359.45,A,1559.365496,S,04802.615532,W,000.0,,190922,,,A*71
$GPGGA,192400.45,1559.365429,S,04802.615666,W,1,00,    ,1205.20,M,0.0,M,0.0,0000*55
$GPGSV,3,1,10,2,39,160,34.1,5,44,108,35.0,12,53,063,29.9,15,10,044,35.3*7B
$GPGSV,3,2,10,18,52,278,38.1,20,14,136,28.3,23,19,347,38.7,25,78,162,39.3*7B
$GPGSV,3,3,10,29,38,191,19.3,31,16,240,31.6*7D
$GPRMC,192400.45,A,1559.365429,S,04802.615666,W,000.1,,190922,,,A*7D
$GPGGA,192401.45,1559.365446,S,04802.615543,W,1,00,    ,1205.22,M,0.0,M,0.0,0000*5B
$GPGSV,3,1,10,2,39,160,34.6,5,44,108,35.7,12,53,063,30.1,15,10,044,36.2*79
$GPGSV,3,2,10,18,52,278,38.6,20,14,136,28.0,23,19,347,39.6,25,78,162,39.6*7A
$GPGSV,3,3,10,29,38,191,22.2,31,16,240,30.2*71
$GPRMC,192401.45,A,1559.365446,S,04802.615543,W,000.1,,190922,,,A*71
$GPGGA,192402.45,1559.365344,S,04802.615352,W,1,00,    ,1205.38,M,0.0,M,0.0,0000*50
$GPGSV,3,1,10,2,39,160,34.8,5,44,108,36.0,12,53,063,29.0,15,10,044,36.5*7D
$GPGSV,3,2,10,18,52,278,38.8,20,14,136,28.8,23,19,347,39.2,25,78,162,39.2*7C
$GPGSV,3,3,10,29,38,191,22.0,31,16,240,30.6*77
$GPRMC,192402.45,A,1559.365344,S,04802.615352,W,000.0,,190922,,,A*70
$GPGGA,192403.45,1559.365021,S,04802.615140,W,1,00,    ,1205.63,M,0.0,M,0.0,0000*5E
$GPGSV,3,1,10,2,39,160,34.5,5,44,108,36.0,12,53,063,26.8,15,10,044,35.7*76
$GPGSV,3,2,10,18,52,278,38.4,20,14,136,29.8,23,19,347,40.1,25,78,162,39.1*7F
$GPGSV,3,3,10,29,38,191,23.0,31,16,240,32.2*70
$GPRMC,192403.45,A,1559.365021,S,04802.615140,W,000.0,,190922,,,A*70
$GPGGA,192404.45,1559.364880,S,04802.615024,W,1,00,    ,1206.11,M,0.0,M,0.0,0000*5E
$GPGSV,3,1,10,2,39,160,34.0,5,44,108,35.2,12,53,063,28.4,15,10,044,35.8*7F
$GPGSV,3,2,10,18,52,278,39.1,20,14,136,29.1,23,19,347,39.6,25,78,162,39.5*7F
$GPGSV,3,3,10,29,38,191,22.2,31,16,240,33.0*70
$GPRMC,192404.45,A,1559.364880,S,04802.615024,W,000.0,,190922,,,A*76
$GPGGA,192405.45,1559.364769,S,04802.615121,W,1,00,    ,1206.50,M,0.0,M,0.0,0000*56
$GPGSV,3,1,10,2,39,160,34.7,5,44,108,35.7,12,53,063,25.9,15,10,044,35.9*7C
$GPGSV,3,2,10,18,52,278,38.8,20,14,136,27.5,23,19,347,40.0,25,78,162,39.1*71
$GPGSV,3,3,10,29,38,191,23.8,31,16,240,33.0*7B
$GPRMC,192405.45,A,1559.364769,S,04802.615121,W,000.0,,190922,,,A*7B
$GPGGA,192406.45,1559.364647,S,04802.615197,W,1,00,    ,1206.73,M,0.0,M,0.0,0000*54
$GPGSV,3,1,10,2,39,160,35.4,5,44,108,35.8,12,53,063,27.0,15,10,044,36.2*72
$GPGSV,3,2,10,18,52,278,37.7,20,14,136,26.1,23,19,347,39.4,25,78,162,39.5*7A
$GPGSV,3,3,10,29,38,191,26.5,31,16,240,33.1*72
$GPRMC,192406.45,A,1559.364647,S,04802.615197,W,000.4,,190922,,,A*7C
$GPGGA,192407.45,1559.364448,S,04802.615203,W,1,00,    ,1206.91,M,0.0,M,0.0,0000*5A
$GPGSV,3,1,11,2,39,160,36.6,5,44,108,36.4,12,53,063,30.1,15,10,044,37.8*71
$GPGSV,3,2,11,18,52,278,36.4,20,14,136,28.3,23,20,347,37.0,24,12,009,28.3*72
$GPGSV,3,3,11,25,78,162,40.1,29,38,191,28.2,31,16,240,30.3*5D
$GPRMC,192407.45,A,1559.364448,S,04802.615203,W,001.2,348.6,190922,,,A*5E
$GPGGA,192408.45,1559.364179,S,04802.615128,W,1,00,    ,1206.88,M,0.0,M,0.0,0000*50
$GPGSV,3,1,11,2,39,160,36.8,5,44,108,35.6,12,53,063,29.7,15,10,044,38.1*76
$GPGSV,3,2,11,18,52,278,35.7,20,14,136,26.3,23,20,347,37.7,24,12,009,28.3*7B
$GPGSV,3,3,11,25,78,162,39.6,29,38,191,25.9,31,16,240,28.1*59
$GPRMC,192408.45,A,1559.364179,S,04802.615128,W,001.8,350.0,190922,,,A*59
$GPGGA,192409.45,1559.363614,S,04802.615256,W,1,00,    ,1206.85,M,0.0,M,0.0,0000*5D
$GPGSV,3,1,11,2,39,160,37.1,5,44,108,36.3,12,53,063,29.9,15,10,044,38.5*72
$GPGSV,3,2,11,18,52,278,35.7,20,14,136,29.1,23,20,347,37.7,24,12,009,28.5*70
$GPGSV,3,3,11,25,78,162,38.9,29,38,191,24.9,31,16,240,28.3*54
$GPRMC,192409.45,A,1559.363614,S,04802.615256,W,002.7,350.8,190922,,,A*5D
$GPGGA,192410.45,1559.362692,S,04802.615339,W,1,00,    ,1206.99,M,0.0,M,0.0,0000*5F
$GPGSV,3,1,11,2,39,160,37.2,5,44,108,36.4,12,53,063,27.8,15,10,044,39.4*79
$GPGSV,3,2,11,18,52,278,36.9,20,14,136,30.6,23,20,347,37.6,24,12,009,31.1*7F
$GPGSV,3,3,11,25,78,162,40.0,29,38,191,24.6,31,16,240,30.7*50
$GPRMC,192410.45,A,1559.362692,S,04802.615339,W,003.6,353.9,190922,,,A*50
$GPGGA,192411.45,1559.361735,S,04802.615499,W,1,00,    ,1207.13,M,0.0,M,0.0,0000*5F
$GPGSV,3,1,11,2,39,160,36.4,5,44,108,36.0,12,53,063,28.3,15,10,044,38.5*7E
$GPGSV,3,2,11,18,52,278,38.4,20,14,136,30.0,23,20,347,39.6,24,12,009,28.1*7C
$GPGSV,3,3,11,25,78,161,40.0,29,38,191,22.3,31,16,240,32.7*52
$GPRMC,192411.45,A,1559.361735,S,04802.615499,W,003.8,359.1,190922,,,A*5F
$GPGGA,192412.45,1559.360819,S,04802.615539,W,1,00,    ,1207.06,M,0.0,M,0.0,0000*53
$GPGSV,3,1,10,2,39,160,34.7,5,44,108,34.7,12,53,063,28.8,15,10,044,30.9*74
$GPGSV,3,2,10,18,52,278,41.4,20,14,136,32.7,23,20,347,39.4,25,78,161,39.5*72
$GPGSV,3,3,10,29,38,191,23.1,31,16,240,26.9*7F
$GPRMC,192412.45,A,1559.360819,S,04802.615539,W,004.6,001.0,190922,,,A*51
$GPGGA,192413.45,1559.359491,S,04802.615509,W,1,00,    ,1207.09,M,0.0,M,0.0,0000*58
$GPGSV,3,1,11,2,39,160,34.4,5,44,108,33.1,12,53,063,29.6,15,10,044,26.2*74
$GPGSV,3,2,11,18,52,278,41.1,20,14,136,33.8,23,20,347,38.1,24,11,009,19.6*7C
$GPGSV,3,3,11,25,78,161,39.1,29,38,191,21.1,31,16,240,29.6*57
$GPRMC,192413.45,A,1559.359491,S,04802.615509,W,004.5,001.9,190922,,,A*5F
$GPGGA,192414.45,1559.358201,S,04802.615389,W,1,00,    ,1207.07,M,0.0,M,0.0,0000*51
$GPGSV,3,1,11,2,39,160,33.9,5,44,108,32.4,12,53,063,29.6,15,10,044,33.7*7B
$GPGSV,3,2,11,18,52,278,41.0,20,14,136,34.2,23,20,347,36.7,24,11,009,19.7*79
$GPGSV,3,3,11,25,78,161,39.0,29,38,191,22.4,31,16,240,24.4*5F
$GPRMC,192414.45,A,1559.358201,S,04802.615389,W,005.0,002.2,190922,,,A*54
$GPGGA,192415.45,1559.356894,S,04802.615390,W,1,00,    ,1207.07,M,0.0,M,0.0,0000*50
$GPGSV,3,1,10,2,39,160,34.6,5,44,108,33.0,12,53,063,26.5,15,10,044,34.1*7A
$GPGSV,3,2,10,18,52,278,41.1,20,14,136,33.6,23,20,347,37.4,25,78,161,38.9*74
$GPGSV,3,3,10,29,38,191,22.7,31,16,240,24.3*70
$GPRMC,192415.45,A,1559.356894,S,04802.615390,W,005.5,001.6,190922,,,A*57
$GPGGA,192416.45,1559.355311,S,04802.615336,W,1,00,    ,1207.08,M,0.0,M,0.0,0000*55
$GPGSV,3,1,11,2,39,160,34.5,5,44,108,32.7,12,53,063,29.7,15,10,044,33.7*72
$GPGSV,3,2,11,18,52,278,40.8,20,14,136,32.7,23,20,347,38.4,24,11,009,26.0*75
$GPGSV,3,3,11,25,78,161,39.2,29,38,191,22.7,31,16,240,28.8*5E
$GPRMC,192416.45,A,1559.355311,S,04802.615336,W,006.2,001.1,190922,,,A*5E
$GPGGA,192417.45,1559.353567,S,04802.615267,W,1,00,    ,1207.14,M,0.0,M,0.0,0000*5D
$GPGSV,3,1,10,2,39,160,33.9,5,44,108,32.5,12,53,063,27.7,15,10,044,33.3*70
$GPGSV,3,2,10,18,52,278,40.3,20,14,136,32.9,23,20,347,38.6,25,78,161,39.2*7E
$GPGSV,3,3,10,29,38,191,21.9,31,16,240,30.4*7F
$GPRMC,192417.45,A,1559.353567,S,04802.615267,W,006.7,000.8,190922,,,A*56
$GPGGA,192418.45,1559.351713,S,04802.615108,W,1,00,    ,1207.39,M,0.0,M,0.0,0000*54
$GPGSV,3,1,10,2,39,160,34.5,5,44,108,32.4,12,53,063,29.4,15,10,044,33.8*7C
$GPGSV,3,2,10,18,52,278,40.8,20,14,136,34.0,23,20,347,38.6,25,78,161,38.9*70
$GPGSV,3,3,10,29,38,191,19.7,31,16,240,30.5*7B
$GPRMC,192418.45,A,1559.351713,S,04802.615108,W,007.1,001.9,190922,,,A*57
$GPGGA,192419.45,1559.349707,S,04802.614995,W,1,00,    ,1207.53,M,0.0,M,0.0,0000*58
$GPGSV,3,1,11,2,39,160,35.2,5,44,108,30.6,12,53,063,28.9,15,10,044,34.5*7D
$GPGSV,3,2,11,18,52,278,39.6,20,14,136,33.7,23,20,347,35.4,24,11,009,24.9*72
$GPGSV,3,3,11,25,78,161,38.7,29,38,191,29.2,31,16,240,30.4*51
$GPRMC,192419.45,A,1559.349707,S,04802.614995,W,007.2,008.2,190922,,,A*56
$GPGGA,192420.45,1559.347773,S,04802.614732,W,1,00,    ,1207.53,M,0.0,M,0.0,0000*5C
$GPGSV,3,1,11,2,39,160,34.2,5,44,108,32.7,12,53,063,29.3,15,10,044,31.4*70
$GPGSV,3,2,11,18,52,278,32.7,20,14,136,35.2,23,20,347,35.3,24,11,009,29.9*71
$GPGSV,3,3,11,25,78,161,38.3,29,38,191,32.4,31,16,240,30.0*5D
$GPRMC,192420.45,A,1559.347773,S,04802.614732,W,007.1,008.8,190922,,,A*5B
$GPGGA,192421.45,1559.345952,S,04802.614422,W,1,00,    ,1207.40,M,0.0,M,0.0,0000*52
$GPGSV,3,1,11,2,39,160,34.1,5,44,108,32.4,12,53,063,28.8,15,10,044,31.8*76
$GPGSV,3,2,11,18,52,278,32.8,20,14,136,35.8,23,20,347,34.6,24,11,009,28.5*7D
$GPGSV,3,3,11,25,78,161,38.1,29,38,191,32.5,31,16,240,29.9*5F
$GPRMC,192421.45,A,1559.345952,S,04802.614422,W,006.9,009.4,190922,,,A*53
$GPGGA,192422.45,1559.344205,S,04802.614048,W,1,00,    ,1207.51,M,0.0,M,0.0,0000*51
$GPGSV,3,1,11,2,39,160,34.8,5,44,108,33.4,12,53,063,28.6,15,10,044,29.4*75
$GPGSV,3,2,11,18,52,278,34.1,20,14,136,35.4,23,20,347,34.0,24,11,009,27.8*7A
$GPGSV,3,3,11,25,78,161,38.2,29,38,191,31.8,31,16,240,31.1*53
$GPRMC,192422.45,A,1559.344205,S,04802.614048,W,006.7,007.8,190922,,,A*5C
$GPGGA,192423.45,1559.342376,S,04802.613677,W,1,00,    ,1207.54,M,0.0,M,0.0,0000*5B
$GPGSV,3,1,11,2,39,160,35.3,5,44,108,32.1,12,53,063,30.0,15,10,044,28.4*75
$GPGSV,3,2,11,18,52,278,37.9,20,14,136,36.2,23,20,347,34.7,24,11,009,26.2*78
$GPGSV,3,3,11,25,78,161,38.4,29,38,191,31.3,31,16,240,32.6*5A
$GPRMC,192423.45,A,1559.342376,S,04802.613677,W,006.8,006.5,190922,,,A*50
$GPGGA,192424.45,1559.340529,S,04802.613436,W,1,00,    ,1207.51,M,0.0,M,0.0,0000*50
$GPGSV,3,1,11,2,39,160,35.2,5,44,108,30.3,12,53,063,31.3,15,10,044,22.9*71
$GPGSV,3,2,11,18,52,278,40.2,20,14,136,33.8,23,20,347,34.8,24,11,009,27.1*71
$GPGSV,3,3,11,25,78,161,38.7,29,38,191,29.7,31,16,240,29.6*5E
$GPRMC,192424.45,A,1559.340529,S,04802.613436,W,006.8,003.1,190922,,,A*5F
$GPGGA,192425.45,1559.338576,S,04802.613251,W,1,00,    ,1207.66,M,0.0,M,0.0,0000*57
$GPGSV,3,1,11,2,39,160,35.2,5,44,108,31.3,12,53,063,29.3,15,10,044,24.6*70
$GPGSV,3,2,11,18,52,278,40.6,20,14,136,31.3,23,20,347,36.7,24,11,009,26.8*79
$GPGSV,3,3,11,25,78,161,38.8,29,38,191,27.8,31,16,240,25.7*5D
$GPRMC,192425.45,A,1559.338576,S,04802.613251,W,006.7,003.7,190922,,,A*55
$GPGGA,192426.45,1559.336559,S,04802.613012,W,1,00,    ,1207.83,M,0.0,M,0.0,0000*59
$GPGSV,3,1,11,2,39,160,34.9,5,44,108,33.1,12,53,063,26.7,15,10,044,26.1*74
$GPGSV,3,2,11,18,52,278,41.3,20,14,136,27.8,23,20,347,37.9,24,11,009,25.6*73
$GPGSV,3,3,11,25,78,161,39.1,29,38,191,25.4,31,16,240,27.3*5D
$GPRMC,192426.45,A,1559.336559,S,04802.613012,W,006.7,000.1,190922,,,A*55
$GPGGA,192427.45,1559.334574,S,04802.613125,W,1,00,    ,1208.17,M,0.0,M,0.0,0000*52
$GPGSV,3,1,10,2,39,160,35.8,5,44,108,36.4,12,53,063,28.4,15,10,044,33.8*75
$GPGSV,3,2,10,18,52,278,39.2,23,20,347,39.0,24,11,009,27.6,25,78,161,39.0*73
$GPGSV,3,3,10,29,38,191,23.6,31,16,240,30.4*72
$GPRMC,192427.45,A,1559.334574,S,04802.613125,W,007.0,356.0,190922,,,A*5B
$GPGGA,192428.45,1559.332609,S,04802.613234,W,1,00,    ,1208.30,M,0.0,M,0.0,0000*54
$GPGSV,3,1,11,2,39,160,35.5,5,44,108,37.0,12,53,063,29.2,15,10,044,35.5*70
$GPGSV,3,2,11,18,52,278,38.0,20,14,136,22.4,23,20,347,37.6,24,11,009,30.9*73
$GPGSV,3,3,11,25,78,161,39.7,29,38,191,22.0,31,16,240,32.4*5B
$GPRMC,192428.45,A,1559.332609,S,04802.613234,W,006.8,353.4,190922,,,A*50
$GPGGA,192429.45,1559.330557,S,04802.613329,W,1,00,    ,1207.69,M,0.0,M,0.0,0000*51
$GPGSV,3,1,11,2,39,160,36.0,5,44,108,36.2,12,53,063,27.0,15,10,044,36.2*7D
$GPGSV,3,2,11,18,52,278,37.7,20,14,136,28.0,23,20,347,38.8,24,11,009,27.3*78
$GPGSV,3,3,11,25,78,161,39.0,29,38,191,23.8,31,16,240,32.5*54
$GPRMC,192429.45,A,1559.330557,S,04802.613329,W,005.6,002.5,190922,,,A*5D
$GPGGA,192430.45,1559.328862,S,04802.613307,W,1,00,    ,1207.69,M,0.0,M,0.0,0000*57
$GPGSV,3,1,11,2,39,160,35.9,5,44,108,35.3,12,53,063,28.3,15,10,044,35.4*7C
$GPGSV,3,2,11,18,52,278,38.2,20,14,136,28.7,23,20,347,38.8,24,11,009,28.3*7A
$GPGSV,3,3,11,25,78,161,38.6,29,38,191,22.3,31,16,240,32.9*55
$GPRMC,192430.45,A,1559.328862,S,04802.613307,W,006.7,356.5,190922,,,A*5B
$GPGGA,192431.45,1559.326815,S,04802.613269,W,1,00,    ,1207.79,M,0.0,M,0.0,0000*50
$GPGSV,3,1,11,2,39,160,35.9,5,44,108,36.4,12,53,062,28.6,15,10,044,32.5*7A
$GPGSV,3,2,11,18,52,278,39.4,20,14,136,27.3,23,20,347,39.1,24,11,009,25.3*73
$GPGSV,3,3,11,25,78,161,38.9,29,38,191,22.1,31,16,240,31.4*56
$GPRMC,192431.45,A,1559.326815,S,04802.613269,W,006.8,356.9,190922,,,A*5E
$GPGGA,192432.45,1559.324823,S,04802.613376,W,1,00,    ,1207.80,M,0.0,M,0.0,0000*5D
$GPGSV,3,1,10,2,39,160,35.6,5,44,108,36.1,12,53,062,27.5,15,10,044,26.0*7D
$GPGSV,3,2,10,18,52,278,40.3,20,14,136,27.8,23,20,347,38.8,25,78,161,38.8*7E
$GPGSV,3,3,10,29,38,191,23.4,31,16,240,29.8*74
$GPRMC,192432.45,A,1559.324823,S,04802.613376,W,006.7,356.5,190922,,,A*56
$GPGGA,192433.45,1559.322892,S,04802.613506,W,1,00,    ,1207.82,M,0.0,M,0.0,0000*53
$GPGSV,3,1,10,2,39,160,35.6,5,44,108,35.6,12,53,062,25.5,15,10,044,27.9*73
$GPGSV,3,2,10,18,52,278,41.1,20,14,136,25.9,23,20,347,39.1,25,78,161,38.7*79
$GPGSV,3,3,10,29,38,191,19.0,31,16,240,28.3*73
$GPRMC,192433.45,A,1559.322892,S,04802.613506,W,006.7,356.8,190922,,,A*57
$GPGGA,192434.45,1559.320971,S,04802.613574,W,1,00,    ,1207.93,M,0.0,M,0.0,0000*5F
$GPGSV,3,1,11,2,39,160,34.2,5,44,108,34.7,12,53,062,29.2,15,10,044,25.3*74
$GPGSV,3,2,11,18,52,278,41.8,20,14,136,25.6,23,20,347,38.8,24,11,009,24.7*7A
$GPGSV,3,3,11,25,78,161,38.3,29,38,191,22.7,31,16,240,28.9*5F
$GPRMC,192434.45,A,1559.320971,S,04802.613574,W,006.7,000.5,190922,,,A*56
$GPGGA,192435.45,1559.319169,S,04802.613575,W,1,00,    ,1207.40,M,0.0,M,0.0,0000*5A
$GPGSV,3,1,11,2,39,160,34.7,5,44,108,33.7,12,53,062,29.0,15,10,044,21.5*76
$GPGSV,3,2,11,18,52,278,42.1,20,14,136,32.0,23,20,347,37.7,24,11,009,24.3*74
$GPGSV,3,3,11,25,78,161,37.2,29,38,191,25.4,31,16,240,27.9*5A
$GPRMC,192435.45,A,1559.319169,S,04802.613575,W,005.8,340.9,190922,,,A*5A
$GPGGA,192436.45,1559.317603,S,04802.614094,W,1,00,    ,1207.52,M,0.0,M,0.0,0000*52
$GPGSV,3,1,11,2,39,160,34.9,5,44,108,34.6,12,53,062,29.2,15,10,044,22.2*78
$GPGSV,3,2,11,18,52,278,41.9,20,14,136,35.1,23,20,347,36.9,24,11,009,26.0*77
$GPGSV,3,3,11,25,78,161,36.9,29,38,191,28.2,31,16,240,29.0*5C
$GPRMC,192436.45,A,1559.317603,S,04802.614094,W,006.5,359.1,190922,,,A*5F
$GPGGA,192437.45,1559.315900,S,04802.614154,W,1,00,    ,1207.55,M,0.0,M,0.0,0000*57
$GPGSV,3,1,11,2,39,160,35.2,5,44,108,35.2,12,53,062,29.9,15,10,044,20.5*79
$GPGSV,3,2,11,18,52,278,41.3,20,14,136,34.6,23,20,347,37.1,24,11,009,26.9*7B
$GPGSV,3,3,11,25,78,161,36.5,29,38,191,28.5,31,16,240,22.1*5D
$GPRMC,192437.45,A,1559.315900,S,04802.614154,W,006.6,359.7,190922,,,A*58
$GPGGA,192438.45,1559.313955,S,04802.614086,W,1,00,    ,1207.67,M,0.0,M,0.0,0000*51
$GPGSV,3,1,11,2,39,160,35.8,5,44,108,35.1,12,52,062,29.3,15,10,044,22.9*75
$GPGSV,3,2,11,18,52,278,41.2,20,14,136,32.2,23,20,347,38.2,24,11,009,22.3*7A
$GPGSV,3,3,11,25,78,161,36.7,29,38,191,29.3,31,16,240,25.6*58
$GPRMC,192438.45,A,1559.313955,S,04802.614086,W,006.6,358.8,190922,,,A*51
$GPGGA,192439.45,1559.312063,S,04802.613987,W,1,00,    ,1207.77,M,0.0,M,0.0,0000*53
$GPGSV,3,1,11,2,39,160,34.9,5,44,108,35.2,12,52,062,29.9,15,10,044,29.0*7E
$GPGSV,3,2,11,18,52,278,40.3,20,14,136,30.9,23,20,347,38.5,24,11,009,20.6*73
$GPGSV,3,3,11,25,78,161,36.4,29,38,191,28.8,31,16,240,27.7*52
$GPRMC,192439.45,A,1559.312063,S,04802.613987,W,006.9,000.1,190922,,,A*5A
$GPGGA,192440.45,1559.310096,S,04802.614001,W,1,00,    ,1208.09,M,0.0,M,0.0,0000*53
$GPGSV,3,1,10,2,39,160,35.2,5,44,108,35.3,12,52,062,29.5,15,10,044,33.0*73
$GPGSV,3,2,10,18,52,277,39.1,20,14,136,27.9,23,20,347,38.7,25,78,161,36.9*7C
$GPGSV,3,3,10,29,38,191,27.6,31,16,240,34.7*71
$GPRMC,192440.45,A,1559.310096,S,04802.614001,W,006.9,356.3,190922,,,A*5E
$GPGGA,192441.45,1559.308061,S,04802.614091,W,1,00,    ,1208.24,M,0.0,M,0.0,0000*55
$GPGSV,3,1,11,2,39,160,36.8,5,44,108,35.2,12,52,062,29.6,15,10,044,35.9*76
$GPGSV,3,2,11,18,52,277,38.3,20,14,136,26.4,23,20,347,37.6,24,11,009,25.3*75
$GPGSV,3,3,11,25,78,161,37.9,29,38,191,27.1,31,16,240,35.3*5F
$GPRMC,192441.45,A,1559.308061,S,04802.614091,W,006.9,354.1,190922,,,A*57
$GPGGA,192442.45,1559.305916,S,04802.614170,W,1,00,    ,1207.70,M,0.0,M,0.0,0000*52
$GPGSV,3,1,11,2,39,160,37.0,5,44,108,38.5,12,52,062,30.4,15,10,044,29.4*7F
$GPGSV,3,2,11,18,52,277,35.4,20,14,136,28.6,23,20,347,38.8,24,11,009,24.4*74
$GPGSV,3,3,11,25,78,161,38.9,29,38,191,21.4,31,16,240,33.0*56
$GPRMC,192442.45,A,1559.305916,S,04802.614170,W,006.7,332.9,190922,,,A*58
$GPGGA,192443.45,1559.304275,S,04802.615083,W,1,00,    ,1207.38,M,0.0,M,0.0,0000*5C
$GPGSV,3,1,11,2,39,160,35.6,5,44,108,40.9,12,52,062,33.2,15,10,044,30.3*72
$GPGSV,3,2,11,18,52,277,27.9,20,14,136,25.5,23,20,347,37.3,24,11,009,23.3*70
$GPGSV,3,3,11,25,78,161,39.2,29,38,191,25.2,31,16,240,29.7*52
$GPRMC,192443.45,A,1559.304275,S,04802.615083,W,006.8,333.1,190922,,,A*5C
$GPGGA,192444.45,1559.302520,S,04802.616034,W,1,00,    ,1207.41,M,0.0,M,0.0,0000*5B
$GPGSV,3,1,11,2,39,159,29.7,5,44,108,38.9,12,52,062,36.8,15,10,044,31.3*75
$GPGSV,3,2,11,18,52,277,33.2,20,14,136,30.4,23,20,347,32.4,24,11,009,30.5*7D
$GPGSV,3,3,11,25,78,161,38.8,29,38,191,30.4,31,16,240,28.7*5A
$GPRMC,192444.45,A,1559.302520,S,04802.616034,W,007.0,332.9,190922,,,A*55
$GPGGA,192445.45,1559.300797,S,04802.616948,W,1,00,    ,1207.34,M,0.0,M,0.0,0000*56
$GPGSV,3,1,11,2,39,159,23.9,5,44,108,34.6,12,52,062,37.9,15,10,044,34.2*76
$GPGSV,3,2,11,18,52,277,35.3,20,14,136,28.7,23,20,347,26.0,24,11,009,33.0*77
$GPGSV,3,3,11,25,78,161,37.6,29,38,191,33.1,31,16,240,31.3*51
$GPRMC,192445.45,A,1559.300797,S,04802.616948,W,006.9,319.2,190922,,,A*50
$GPGGA,192446.45,1559.299309,S,04802.618344,W,1,00,    ,1207.26,M,0.0,M,0.0,0000*5C
$GPGSV,3,1,11,2,39,159,29.7,5,44,108,33.7,12,52,062,37.1,15,10,044,33.3*7A
$GPGSV,3,2,11,18,52,277,39.2,20,14,136,29.0,23,20,347,29.7,24,11,009,31.8*7E
$GPGSV,3,3,11,25,78,161,37.1,29,38,191,35.4,31,16,240,34.5*56
$GPRMC,192446.45,A,1559.299309,S,04802.618344,W,006.6,307.2,190922,,,A*59
$GPGGA,192447.45,1559.298267,S,04802.619920,W,1,00,    ,1207.33,M,0.0,M,0.0,0000*58
$GPGSV,3,1,11,2,39,159,30.9,5,44,108,33.3,12,52,062,38.3,15,10,044,33.2*74
$GPGSV,3,2,11,18,52,277,40.6,20,14,136,30.3,23,20,347,35.4,24,11,009,30.9*71
$GPGSV,3,3,11,25,78,161,35.4,29,38,191,34.7,31,16,240,29.9*53
$GPRMC,192447.45,A,1559.298267,S,04802.619920,W,006.2,301.1,190922,,,A*58
$GPGGA,192448.45,1559.297452,S,04802.621485,W,1,00,    ,1207.23,M,0.0,M,0.0,0000*50
$GPGSV,3,1,11,2,39,159,33.6,5,44,108,29.8,12,52,062,35.9,15,10,044,34.4*7E
$GPGSV,3,2,11,18,52,277,38.2,20,14,136,30.4,23,20,347,36.6,24,11,009,33.1*77
$GPGSV,3,3,11,25,78,161,32.2,29,38,191,33.1,31,16,240,32.2*52
$GPRMC,192448.45,A,1559.297452,S,04802.621485,W,006.5,287.3,190922,,,A*5B
$GPGGA,192449.45,1559.296948,S,04802.623320,W,1,00,    ,1207.24,M,0.0,M,0.0,0000*5B
$GPGSV,3,1,11,2,39,159,35.8,5,44,108,31.9,12,52,062,36.1,15,10,044,31.8*7C
$GPGSV,3,2,11,18,52,277,33.9,20,14,136,31.7,23,20,347,35.3,24,11,009,27.1*76
$GPGSV,3,3,11,25,78,161,30.6,29,38,191,34.6,31,16,240,39.2*5F
$GPRMC,192449.45,A,1559.296948,S,04802.623320,W,006.9,275.5,190922,,,A*50
$GPGGA,192450.45,1559.296729,S,04802.625285,W,1,00,    ,1206.77,M,0.0,M,0.0,0000*55
$GPGSV,3,1,11,2,39,159,37.4,5,44,108,30.3,12,52,062,35.5,15,10,044,29.0*7F
$GPGSV,3,2,11,18,52,277,24.3,20,14,136,28.5,23,20,347,36.6,24,11,009,35.0*74
$GPGSV,3,3,11,25,78,161,31.2,29,38,191,39.4,31,16,240,33.7*5A
$GPRMC,192450.45,A,1559.296729,S,04802.625285,W,005.7,262.5,190922,,,A*52
$GPGGA,192451.45,1559.296900,S,04802.627028,W,1,00,    ,1206.56,M,0.0,M,0.0,0000*55
$GPGSV,3,1,11,2,39,159,34.5,5,44,108,25.2,12,52,062,35.7,15,10,044,29.2*78
$GPGSV,3,2,11,18,52,277,24.2,20,14,136,27.0,23,20,347,27.3,24,11,009,29.8*7F
$GPGSV,3,3,11,25,78,161,32.5,29,38,191,39.1,31,16,240,36.0*59
$GPRMC,192451.45,A,1559.296900,S,04802.627028,W,006.7,260.0,190922,,,A*55
$GPGGA,192452.45,1559.297166,S,04802.628912,W,1,00,    ,1206.30,M,0.0,M,0.0,0000*50
$GPGSV,3,1,11,2,39,159,32.5,5,44,108,22.5,12,52,062,35.9,15,10,044,27.6*7A
$GPGSV,3,2,11,18,52,277,27.4,20,14,136,32.0,23,20,347,36.9,24,11,009,21.1*75
$GPGSV,3,3,11,25,78,161,34.7,29,38,191,31.9,31,16,240,38.1*52
$GPRMC,192452.45,A,1559.297166,S,04802.628912,W,006.8,258.6,190922,,,A*52
$GPGGA,192453.45,1559.297492,S,04802.630918,W,1,00,    ,1206.07,M,0.0,M,0.0,0000*58
$GPGSV,3,1,11,2,39,159,32.6,5,44,108,23.6,12,52,062,35.5,15,10,044,22.0*74
$GPGSV,3,2,11,18,52,277,27.7,20,14,136,24.5,23,20,347,37.1,24,11,009,27.4*7E
$GPGSV,3,3,11,25,78,161,35.8,29,38,191,28.5,31,16,240,34.6*53
$GPRMC,192453.45,A,1559.297492,S,04802.630918,W,007.6,256.6,190922,,,A*5F
$GPGGA,192454.45,1559.297902,S,04802.633220,W,1,00,    ,1206.07,M,0.0,M,0.0,0000*58
$GPGSV,3,1,11,2,38,159,33.9,5,44,108,26.5,12,52,062,34.6,15,10,044,25.6*7E
$GPGSV,3,2,11,18,52,277,31.3,20,14,136,29.2,23,20,347,36.6,24,11,009,29.2*79
$GPGSV,3,3,11,25,78,160,35.2,29,38,191,32.7,31,16,240,32.9*58
$GPRMC,192454.45,A,1559.297902,S,04802.633220,W,007.9,258.5,190922,,,A*5D
$GPGGA,192455.45,1559.298346,S,04802.635444,W,1,00,    ,1205.94,M,0.0,M,0.0,0000*57
$GPGSV,3,1,11,2,38,159,34.1,5,44,108,26.0,12,52,062,34.8,15,10,044,24.8*75
$GPGSV,3,2,11,18,52,277,30.2,20,14,136,24.3,23,20,347,34.9,24,11,009,30.1*73
$GPGSV,3,3,11,25,78,160,35.9,29,38,191,34.1,31,16,240,33.2*59
$GPRMC,192455.45,A,1559.298346,S,04802.635444,W,007.8,257.9,190922,,,A*59
$GPGGA,192456.45,1559.298734,S,04802.637726,W,1,00,    ,1206.00,M,0.0,M,0.0,0000*5E
$GPGSV,3,1,11,2,38,159,31.3,5,44,108,24.2,12,52,062,35.9,15,10,044,24.5*7F
$GPGSV,3,2,11,18,52,277,27.8,20,14,136,25.6,23,20,347,33.0,24,11,009,27.6*74
$GPGSV,3,3,11,25,78,160,36.2,29,38,191,32.0,31,16,240,33.2*56
$GPRMC,192456.45,A,1559.298734,S,04802.637726,W,008.4,261.6,190922,,,A*57
$GPGGA,192457.45,1559.299118,S,04802.640161,W,1,00,    ,1205.88,M,0.0,M,0.0,0000*50
$GPGSV,3,1,11,2,38,159,30.5,5,44,108,23.6,12,52,062,36.2,15,10,044,22.7*77
$GPGSV,3,2,11,18,52,277,26.4,20,14,136,27.4,23,20,347,33.8,24,11,009,22.6*74
$GPGSV,3,3,11,25,78,160,35.1,29,38,191,30.4,31,16,240,32.6*55
$GPRMC,192457.45,A,1559.299118,S,04802.640161,W,007.8,259.5,190922,,,A*51
$GPGGA,192458.45,1559.299457,S,04802.642605,W,1,00,    ,1204.97,M,0.0,M,0.0,0000*59
$GPGSV,3,1,11,2,38,159,30.2,5,44,108,22.0,12,52,062,37.0,15,10,044,28.0*79
$GPGSV,3,2,11,18,52,277,25.7,20,14,136,27.3,23,20,347,37.6,24,11,009,27.1*7B
$GPGSV,3,3,11,25,78,160,35.7,29,38,191,30.6,31,16,240,32.9*5E
$GPRMC,192458.45,A,1559.299457,S,04802.642605,W,006.3,258.8,190922,,,A*51
$GPGGA,192459.45,1559.299750,S,04802.644484,W,1,00,    ,1204.82,M,0.0,M,0.0,0000*55
$GPGSV,3,1,11,2,38,159,30.0,5,44,108,21.2,12,52,062,36.9,15,10,044,25.8*77
$GPGSV,3,2,11,18,52,277,27.8,20,14,136,21.0,23,20,347,35.9,24,11,009,27.2*7D
$GPGSV,3,3,11,25,78,160,35.2,29,38,190,29.7,31,16,240,32.5*5F
$GPRMC,192459.45,A,1559.299750,S,04802.644484,W,008.0,259.8,190922,,,A*55
$GPGGA,192500.45,1559.300093,S,04802.647008,W,1,00,    ,1204.93,M,0.0,M,0.0,0000*52
$GPGSV,3,1,11,2,38,159,32.5,5,44,108,23.9,12,52,062,35.9,15,10,044,24.4*77
$GPGSV,3,2,11,18,52,277,28.9,20,14,136,25.5,23,20,347,36.0,24,11,009,27.9*73
$GPGSV,3,3,11,25,78,160,37.7,29,38,190,32.7,31,16,240,33.6*50
$GPRMC,192500.45,A,1559.300093,S,04802.647008,W,008.3,259.0,190922,,,A*59
$GPGGA,192501.45,1559.300700,S,04802.649623,W,1,00,    ,1204.96,M,0.0,M,0.0,0000*5A
$GPGSV,3,1,11,2,38,159,36.3,5,44,108,23.4,12,52,062,35.7,15,10,044,25.6*75
$GPGSV,3,2,11,18,52,277,31.7,20,14,136,24.8,23,20,347,33.3,24,11,009,29.5*7D
$GPGSV,3,3,11,25,78,160,37.8,29,38,190,35.2,31,16,240,31.3*5A
$GPRMC,192501.45,A,1559.300700,S,04802.649623,W,007.8,258.4,190922,,,A*55
$GPGGA,192502.45,1559.301079,S,04802.651950,W,1,00,    ,1205.06,M,0.0,M,0.0,0000*5B
$GPGSV,3,1,11,2,38,159,37.1,5,44,108,27.8,12,52,062,35.3,15,10,044,23.8*72
$GPGSV,3,2,11,18,52,277,31.4,20,14,136,28.2,23,20,347,35.9,24,11,009,30.9*70
$GPGSV,3,3,11,25,78,160,37.0,29,38,190,34.2,31,16,240,36.0*57
$GPRMC,192502.45,A,1559.301079,S,04802.651950,W,007.9,256.2,190922,,,A*55
$GPGGA,192503.45,1559.301674,S,04802.654188,W,1,00,    ,1205.28,M,0.0,M,0.0,0000*55
$GPGSV,3,1,11,2,38,159,36.5,5,44,108,29.1,12,52,062,34.9,15,10,044,25.1*74
$GPGSV,3,2,11,18,52,277,31.3,20,14,136,29.1,23,20,347,36.0,24,11,009,26.8*79
$GPGSV,3,3,11,25,78,160,36.8,29,38,190,35.2,31,16,240,35.2*5E
$GPRMC,192503.45,A,1559.301674,S,04802.654188,W,007.8,257.3,190922,,,A*56
$GPGGA,192504.45,1559.302105,S,04802.656358,W,1,00,    ,1205.28,M,0.0,M,0.0,0000*5D
$GPGSV,3,1,11,2,38,159,36.5,5,44,108,29.5,12,52,062,35.0,15,10,044,27.5*7E
$GPGSV,3,2,11,18,52,277,30.3,20,14,136,25.7,23,20,347,37.2,24,11,009,27.9*71
$GPGSV,3,3,11,25,78,160,37.2,29,38,190,36.4,31,17,240,35.9*5A
$GPRMC,192504.45,A,1559.302105,S,04802.656358,W,007.8,257.5,190922,,,A*58
$GPGGA,192505.45,1559.302528,S,04802.658561,W,1,00,    ,1205.35,M,0.0,M,0.0,0000*59
$GPGSV,3,1,11,2,38,159,36.0,5,44,108,27.9,12,52,062,36.1,15,10,044,28.1*70
$GPGSV,3,2,11,18,52,277,29.3,20,14,136,25.0,23,20,347,36.4,24,11,009,28.8*77
$GPGSV,3,3,11,25,78,160,36.3,29,38,190,34.4,31,17,240,33.6*51
$GPRMC,192505.45,A,1559.302528,S,04802.658561,W,007.7,259.0,190922,,,A*54
$GPGGA,192506.45,1559.302967,S,04802.660717,W,1,00,    ,1205.12,M,0.0,M,0.0,0000*50
$GPGSV,3,1,11,2,38,159,33.4,5,44,108,26.1,12,52,062,35.8,15,10,044,26.9*74
$GPGSV,3,2,11,18,52,277,24.4,20,14,136,20.5,23,20,347,30.9,24,11,009,28.5*7B
$GPGSV,3,3,11,25,78,160,34.6,29,38,190,31.3,31,17,240,30.2*53
$GPRMC,192506.45,A,1559.302967,S,04802.660717,W,007.2,258.4,190922,,,A*58
$GPGGA,192507.45,1559.303304,S,04802.662789,W,1,00,    ,1205.07,M,0.0,M,0.0,0000*5E
$GPGSV,3,1,11,2,38,159,32.0,5,44,108,25.8,12,52,062,36.2,15,10,044,27.3*79
$GPGSV,3,2,11,18,52,277,26.3,20,14,136,22.4,23,20,347,35.5,24,11,009,26.9*76
$GPGSV,3,3,11,25,78,160,36.7,29,38,190,30.3,31,17,240,27.9*5C
$GPRMC,192507.45,A,1559.303304,S,04802.662789,W,007.4,259.2,190922,,,A*53
$GPGGA,192508.45,1559.303690,S,04802.665020,W,1,00,    ,1204.57,M,0.0,M,0.0,0000*5E
$GPGSV,3,1,11,2,38,159,31.2,5,44,108,25.1,12,52,062,36.6,15,10,044,25.1*75
$GPGSV,3,2,11,18,52,277,25.6,20,14,136,27.1,23,20,347,36.8,24,11,009,24.7*72
$GPGSV,3,3,11,25,78,160,36.5,29,38,190,27.2,31,17,240,29.8*56
$GPRMC,192508.45,A,1559.303690,S,04802.665020,W,006.8,255.0,190922,,,A*54
$GPGGA,192509.45,1559.304157,S,04802.666967,W,1,00,    ,1204.56,M,0.0,M,0.0,0000*5C
$GPGSV,3,1,11,2,38,159,31.1,5,44,108,24.8,12,52,062,37.0,15,10,044,23.1*7F
$GPGSV,3,2,11,18,52,277,27.2,20,13,136,29.0,23,20,347,31.2,24,11,009,27.3*76
$GPGSV,3,3,11,25,78,160,37.3,29,38,190,27.3,31,17,240,30.6*56
$GPRMC,192509.45,A,1559.304157,S,04802.666967,W,007.1,260.8,190922,,,A*51
$GPGGA,192510.45,1559.304397,S,04802.668960,W,1,00,    ,1204.49,M,0.0,M,0.0,0000*5D
$GPGSV,3,1,11,2,38,159,31.3,5,44,108,26.2,12,52,062,37.0,15,10,044,20.5*72
$GPGSV,3,2,11,18,53,277,28.4,20,13,136,29.3,23,20,347,35.9,24,11,009,24.9*7B
$GPGSV,3,3,11,25,78,160,36.2,29,38,190,28.1,31,17,240,32.1*5E
$GPRMC,192510.45,A,1559.304397,S,04802.668960,W,006.9,259.7,190922,,,A*52
$GPGGA,192511.45,1559.304649,S,04802.670906,W,1,00,    ,1204.39,M,0.0,M,0.0,0000*54
$GPGSV,3,1,11,2,38,159,30.7,5,44,108,27.4,12,52,062,37.5,15,10,044,25.1*74
$GPGSV,3,2,11,18,53,277,27.6,20,13,136,29.3,23,20,347,36.0,24,11,009,28.7*7E
$GPGSV,3,3,11,25,78,160,36.9,29,38,190,28.0,31,17,240,34.2*51
$GPRMC,192511.45,A,1559.304649,S,04802.670906,W,006.4,258.5,190922,,,A*52
$GPGGA,192512.45,1559.305049,S,04802.672748,W,1,00,    ,1204.28,M,0.0,M,0.0,0000*56
$GPGSV,3,1,11,2,38,159,32.1,5,44,108,22.9,12,52,062,37.1,15,10,044,22.4*7E
$GPGSV,3,2,11,18,53,277,27.4,20,13,136,28.5,23,20,347,32.0,24,11,009,26.0*76
$GPGSV,3,3,11,25,78,160,37.2,29,38,190,28.8,31,17,240,33.2*54
$GPRMC,192512.45,A,1559.305049,S,04802.672748,W,006.4,258.3,190922,,,A*56
$GPGGA,192513.45,1559.305418,S,04802.674583,W,1,00,    ,1204.24,M,0.0,M,0.0,0000*58
$GPGSV,3,1,11,2,38,159,33.2,5,44,108,23.0,12,52,062,37.7,15,10,044,21.4*71
$GPGSV,3,2,11,18,53,277,27.0,20,13,136,28.3,23,20,347,37.4,24,11,009,24.5*72
$GPGSV,3,3,11,25,79,160,38.1,29,38,190,24.3,31,17,240,33.8*54
$GPRMC,192513.45,A,1559.305418,S,04802.674583,W,006.1,258.5,190922,,,A*57
$GPGGA,192514.45,1559.305664,S,04802.676410,W,1,00,    ,1204.17,M,0.0,M,0.0,0000*5F
$GPGSV,3,1,11,2,38,159,29.1,5,44,108,27.4,12,52,062,37.0,15,10,044,21.5*7F
$GPGSV,3,2,11,18,53,277,25.3,20,13,136,26.8,23,20,347,37.8,24,11,009,27.4*78
$GPGSV,3,3,11,25,79,160,38.6,29,38,190,28.8,31,17,240,29.8*5F
$GPRMC,192514.45,A,1559.305664,S,04802.676410,W,005.7,261.2,190922,,,A*58
$GPGGA,192515.45,1559.305749,S,04802.678031,W,1,00,    ,1204.24,M,0.0,M,0.0,0000*59
$GPGSV,3,1,11,2,38,159,30.8,5,44,108,29.3,12,52,062,37.8,15,10,044,20.5*7E
$GPGSV,3,2,11,18,53,277,29.2,20,13,136,26.5,23,20,347,38.5,24,11,009,29.5*75
$GPGSV,3,3,11,25,79,160,38.3,29,38,190,27.1,31,17,240,32.4*5A
$GPRMC,192515.45,A,1559.305749,S,04802.678031,W,004.6,253.1,190922,,,A*5C
$GPGGA,192516.45,1559.306268,S,04802.679401,W,1,00,    ,1204.18,M,0.0,M,0.0,0000*56
$GPGSV,3,1,11,2,38,159,35.2,5,44,109,31.6,12,52,062,35.0,15,10,044,24.7*70
$GPGSV,3,2,11,18,53,277,35.7,20,13,136,25.4,23,20,347,37.1,24,11,009,30.3*7A
$GPGSV,3,3,11,25,79,160,38.2,29,38,190,33.7,31,17,240,32.7*5B
$GPRMC,192516.45,A,1559.306268,S,04802.679401,W,005.6,244.4,190922,,,A*5E
$GPGGA,192517.45,1559.306904,S,04802.680965,W,1,00,    ,1204.05,M,0.0,M,0.0,0000*53
$GPGSV,3,1,11,2,38,159,38.1,5,44,109,31.3,12,52,062,29.6,15,10,044,25.3*75
$GPGSV,3,2,11,18,53,277,32.2,20,13,136,22.7,23,20,347,37.2,24,11,009,30.3*7F
$GPGSV,3,3,11,25,79,160,38.1,29,38,190,39.9,31,17,240,30.0*59
$GPRMC,192517.45,A,1559.306904,S,04802.680965,W,005.4,230.7,190922,,,A*55
$GPGGA,192518.45,1559.308026,S,04802.682219,W,1,00,    ,1204.03,M,0.0,M,0.0,0000*5F
$GPGSV,3,1,11,2,38,159,33.7,5,44,109,32.9,12,52,062,31.1,15,10,044,28.2*73
$GPGSV,3,2,11,18,53,277,26.1,20,13,136,25.6,23,20,347,37.2,24,11,009,28.5*70
$GPGSV,3,3,11,25,79,160,36.7,29,38,190,36.4,31,17,240,31.6*54
$GPRMC,192518.45,A,1559.308026,S,04802.682219,W,005.9,228.0,190922,,,A*5C
$GPGGA,192519.45,1559.309113,S,04802.683589,W,1,00,    ,1204.03,M,0.0,M,0.0,0000*57
$GPGSV,3,1,11,2,38,159,33.5,5,44,109,35.2,12,52,062,27.3,15,10,044,30.4*77
$GPGSV,3,2,11,18,53,277,24.5,20,13,137,26.6,23,20,347,35.5,24,11,009,27.4*7F
$GPGSV,3,3,11,25,79,160,35.1,29,38,190,29.6,31,17,240,27.6*5A
$GPRMC,192519.45,A,1559.309113,S,04802.683589,W,005.7,223.8,190922,,,A*59
$GPGGA,192520.45,1559.310224,S,04802.684690,W,1,00,    ,1204.15,M,0.0,M,0.0,0000*59
$GPGSV,3,1,11,2,38,159,34.3,5,44,109,37.7,12,52,062,28.0,15,10,044,30.4*7D
$GPGSV,3,2,11,18,53,277,28.7,20,13,137,25.6,23,20,347,36.2,24,11,009,26.8*7B
$GPGSV,3,3,11,25,79,160,34.9,29,38,190,27.3,31,17,240,29.4*54
$GPRMC,192520.45,A,1559.310224,S,04802.684690,W,006.5,225.7,190922,,,A*58
$GPGGA,192521.45,1559.311480,S,04802.686136,W,1,00,    ,1204.17,M,0.0,M,0.0,0000*5A
$GPGSV,3,1,11,2,38,159,34.6,5,44,109,35.9,12,52,062,26.3,15,10,044,30.9*74
$GPGSV,3,2,11,18,53,277,29.4,20,13,137,26.1,23,20,347,37.6,24,11,009,23.7*72
$GPGSV,3,3,11,25,79,160,36.3,29,38,190,27.5,31,17,240,32.1*55
$GPRMC,192521.45,A,1559.311480,S,04802.686136,W,007.3,227.0,190922,,,A*5B
$GPGGA,192522.45,1559.312977,S,04802.687763,W,1,00,    ,1204.36,M,0.0,M,0.0,0000*5B
$GPGSV,3,1,11,2,38,159,31.6,5,44,109,36.9,12,52,062,24.3,15,10,044,30.1*78
$GPGSV,3,2,11,18,53,277,31.3,20,13,137,26.6,23,20,347,39.4,24,11,009,25.0*76
$GPGSV,3,3,11,25,79,160,36.0,29,38,190,28.3,31,17,240,30.8*54
$GPRMC,192522.45,A,1559.312977,S,04802.687763,W,007.6,228.6,190922,,,A*55
$GPGGA,192523.45,1559.314484,S,04802.689428,W,1,00,    ,1204.40,M,0.0,M,0.0,0000*5E
$GPGSV,3,1,11,2,38,159,30.9,5,44,109,36.0,12,52,062,26.6,15,10,044,30.5*7C
$GPGSV,3,2,11,18,53,277,31.3,20,13,137,23.7,23,20,347,33.7,24,11,009,22.0*7C
$GPGSV,3,3,11,25,79,160,36.3,29,38,190,32.6,31,17,240,33.5*57
$GPRMC,192523.45,A,1559.314484,S,04802.689428,W,008.1,227.5,190922,,,A*55
$GPGGA,192524.45,1559.316026,S,04802.691057,W,1,00,    ,1204.35,M,0.0,M,0.0,0000*50
$GPGSV,3,1,10,2,38,159,33.3,5,44,109,35.4,12,52,062,27.8,15,10,044,26.9*77
$GPGSV,3,2,10,18,53,277,32.7,23,20,347,34.0,24,11,009,22.9,25,79,160,36.2*79
$GPGSV,3,3,10,29,38,190,35.7,31,17,240,37.5*72
$GPRMC,192524.45,A,1559.316026,S,04802.691057,W,008.0,228.1,190922,,,A*53
$GPGGA,192525.45,1559.317608,S,04802.692705,W,1,00,    ,1204.39,M,0.0,M,0.0,0000*55
$GPGSV,3,1,10,2,38,159,33.3,5,44,109,35.1,12,52,062,24.3,15,10,044,26.7*74
$GPGSV,3,2,10,18,53,277,32.0,23,20,347,38.0,24,11,009,26.5,25,79,160,35.5*7E
$GPGSV,3,3,10,29,38,190,35.6,31,17,240,37.6*70
$GPRMC,192525.45,A,1559.317608,S,04802.692705,W,008.1,228.8,190922,,,A*52
$GPGGA,192526.45,1559.319135,S,04802.694440,W,1,00,    ,1204.30,M,0.0,M,0.0,0000*5C
$GPGSV,3,1,11,2,38,159,34.9,5,44,109,36.2,12,52,062,26.8,15,10,044,29.5*7C
$GPGSV,3,2,11,18,53,277,32.6,20,13,137,16.6,23,20,347,40.2,24,11,009,27.2*7B
$GPGSV,3,3,11,25,79,160,37.0,29,38,190,33.7,31,17,240,35.2*54
$GPRMC,192526.45,A,1559.319135,S,04802.694440,W,008.0,227.7,190922,,,A*53
$GPGGA,192527.45,1559.320599,S,04802.696320,W,1,00,    ,1204.32,M,0.0,M,0.0,0000*54
$GPGSV,3,1,11,2,38,159,36.1,5,44,109,35.3,12,52,062,26.7,15,10,044,28.9*76
$GPGSV,3,2,11,18,53,277,33.2,20,13,137,18.1,23,20,347,40.0,24,11,009,27.4*73
$GPGSV,3,3,11,25,79,160,36.7,29,38,190,33.6,31,17,240,32.7*51
$GPRMC,192527.45,A,1559.320599,S,04802.696320,W,008.0,227.9,190922,,,A*57
$GPGGA,192528.45,1559.322102,S,04802.698137,W,1,00,    ,1204.25,M,0.0,M,0.0,0000*53
$GPGSV,3,1,10,2,38,159,33.3,5,44,109,35.0,12,52,062,26.9,15,10,044,29.1*74
$GPGSV,3,2,10,18,53,277,32.4,23,20,347,39.7,24,11,009,27.4,25,79,160,35.0*79
$GPGSV,3,3,10,29,38,190,33.0,31,17,240,27.5*72
$GPRMC,192528.45,A,1559.322102,S,04802.698137,W,008.0,227.8,190922,,,A*57
$GPGGA,192529.45,1559.323558,S,04802.699801,W,1,00,    ,1204.38,M,0.0,M,0.0,0000*59
$GPGSV,3,1,11,2,38,159,35.1,5,44,109,37.3,12,52,062,25.0,15,10,044,30.0*73
$GPGSV,3,2,11,18,53,277,30.6,20,13,137,17.9,23,20,347,40.1,24,11,009,22.9*7A
$GPGSV,3,3,11,25,79,160,36.0,29,38,190,29.5,31,17,240,29.8*5B
$GPRMC,192529.45,A,1559.323558,S,04802.699801,W,007.7,227.2,190922,,,A*53
$GPGGA,192530.45,1559.325072,S,04802.701341,W,1,00,    ,1204.38,M,0.0,M,0.0,0000*55
$GPGSV,3,1,11,2,38,159,34.0,5,44,109,37.1,12,52,062,22.0,15,10,044,30.6*70
$GPGSV,3,2,11,18,53,277,31.2,20,13,137,19.6,23,20,347,40.7,24,11,009,26.5*70
$GPGSV,3,3,11,25,79,160,35.9,29,38,190,30.2,31,17,240,32.0*5C
$GPRMC,192530.45,A,1559.325072,S,04802.701341,W,007.7,226.5,190922,,,A*59
$GPGGA,192531.45,1559.326565,S,04802.702979,W,1,00,    ,1204.44,M,0.0,M,0.0,0000*5D
$GPGSV,3,1,11,2,38,159,35.4,5,44,109,33.6,12,52,062,20.2,15,10,044,31.7*76
$GPGSV,3,2,11,18,53,277,31.5,20,13,137,20.6,23,20,347,40.5,24,11,009,27.7*7C
$GPGSV,3,3,11,25,79,160,35.6,29,38,190,30.2,31,17,240,32.1*52
$GPRMC,192531.45,A,1559.326565,S,04802.702979,W,007.6,227.0,190922,,,A*5F
$GPGGA,192532.45,1559.328005,S,04802.704626,W,1,00,    ,1204.51,M,0.0,M,0.0,0000*54
$GPGSV,3,1,11,2,38,159,35.6,5,44,109,34.5,12,52,062,21.7,15,10,044,30.6*74
$GPGSV,3,2,11,18,53,277,32.1,20,13,137,20.8,23,20,347,40.0,24,11,009,25.9*7C
$GPGSV,3,3,11,25,79,160,35.9,29,38,190,32.0,31,17,240,26.0*59
$GPRMC,192532.45,A,1559.328005,S,04802.704626,W,007.5,227.7,190922,,,A*56
$GPGGA,192533.45,1559.329338,S,04802.706413,W,1,00,    ,1204.29,M,0.0,M,0.0,0000*50
$GPGSV,3,1,11,2,38,159,36.7,5,44,109,35.7,12,52,062,22.3,15,10,044,30.8*7C
$GPGSV,3,2,11,18,53,277,27.5,20,13,137,17.4,23,20,347,36.7,24,11,009,20.3*7D
$GPGSV,3,3,11,25,79,160,36.0,29,38,190,29.0,31,17,240,27.9*51
$GPRMC,192533.45,A,1559.329338,S,04802.706413,W,008.2,227.3,190922,,,A*51
$GPGGA,192534.45,1559.330865,S,04802.708068,W,1,00,    ,1204.23,M,0.0,M,0.0,0000*50
$GPGSV,3,1,11,2,38,159,36.3,5,44,109,35.6,12,52,062,21.5,15,10,044,30.7*73
$GPGSV,3,2,11,18,53,277,32.7,20,13,137,20.8,23,20,347,40.5,24,11,009,22.7*76
$GPGSV,3,3,11,25,79,160,35.7,29,38,190,31.2,31,17,240,30.3*52
$GPRMC,192534.45,A,1559.330865,S,04802.708068,W,007.7,227.1,190922,,,A*53
$GPGGA,192535.45,1559.332398,S,04802.709820,W,1,00,    ,1204.25,M,0.0,M,0.0,0000*59
$GPGSV,3,1,10,2,38,159,34.7,5,44,109,36.9,12,52,062,24.6,15,10,044,32.0*7B
$GPGSV,3,2,10,18,53,277,28.3,23,20,347,39.4,24,11,009,21.9,25,79,159,35.1*76
$GPGSV,3,3,10,29,38,190,32.0,31,17,240,29.3*7B
$GPRMC,192535.45,A,1559.332398,S,04802.709820,W,007.7,226.3,190922,,,A*5F
$GPGGA,192536.45,1559.334021,S,04802.711400,W,1,00,    ,1204.29,M,0.0,M,0.0,0000*56
$GPGSV,3,1,11,2,38,159,35.4,5,44,109,35.4,12,52,062,25.2,15,10,044,30.3*72
$GPGSV,3,2,11,18,53,277,31.4,20,13,137,16.0,23,20,347,36.9,24,11,009,24.1*76
$GPGSV,3,3,11,25,79,159,35.7,29,38,190,33.7,31,17,240,27.1*5B
$GPRMC,192536.45,A,1559.334021,S,04802.711400,W,007.5,226.0,190922,,,A*5D
$GPGGA,192537.45,1559.335414,S,04802.712941,W,1,00,    ,1204.34,M,0.0,M,0.0,0000*53
$GPGSV,3,1,11,2,38,159,35.5,5,44,109,35.4,12,52,062,26.4,15,10,044,30.8*7D
$GPGSV,3,2,11,18,53,277,31.7,20,13,137,20.7,23,20,347,39.2,24,11,009,21.6*71
$GPGSV,3,3,11,25,79,159,35.1,29,38,190,33.1,31,17,240,26.1*5A
$GPRMC,192537.45,A,1559.335414,S,04802.712941,W,007.6,227.2,190922,,,A*54
$GPGGA,192538.45,1559.336999,S,04802.714545,W,1,00,    ,1204.26,M,0.0,M,0.0,0000*5A
$GPGSV,3,1,11,2,38,159,35.0,5,44,109,35.6,12,52,062,25.2,15,10,044,32.1*74
$GPGSV,3,2,11,18,53,277,29.7,20,13,137,26.0,23,20,347,32.7,24,11,009,25.5*70
$GPGSV,3,3,11,25,79,159,36.0,29,38,190,30.9,31,17,240,24.4*54
$GPRMC,192538.45,A,1559.336999,S,04802.714545,W,007.8,224.3,190922,,,A*52
$GPGGA,192539.45,1559.338565,S,04802.715963,W,1,00,    ,1204.26,M,0.0,M,0.0,0000*53
$GPGSV,3,1,11,2,38,159,35.7,5,44,109,34.1,12,52,062,23.8,15,10,044,30.9*73
$GPGSV,3,2,11,18,53,277,31.9,20,13,137,23.5,23,20,347,35.1,24,11,009,23.8*7D
$GPGSV,3,3,11,25,79,159,36.8,29,38,190,31.0,31,17,240,31.0*54
$GPRMC,192539.45,A,1559.338565,S,04802.715963,W,007.9,227.2,190922,,,A*58
$GPGGA,192540.45,1559.340137,S,04802.717698,W,1,00,    ,1204.24,M,0.0,M,0.0,0000*5A
$GPGSV,3,1,11,2,38,159,33.8,5,44,109,33.0,12,52,062,27.9,15,10,044,28.9*70
$GPGSV,3,2,11,18,53,277,32.0,20,13,137,22.1,23,20,347,34.6,24,11,009,23.2*7E
$GPGSV,3,3,11,25,79,159,37.6,29,38,190,34.7,31,17,240,27.8*56
$GPRMC,192540.45,A,1559.340137,S,04802.717698,W,007.8,226.3,190922,,,A*52
$GPGGA,192541.45,1559.341673,S,04802.719439,W,1,00,    ,1204.45,M,0.0,M,0.0,0000*5D
$GPGSV,3,1,11,2,38,159,33.3,5,44,109,33.1,12,52,062,26.9,15,10,044,30.5*7E
$GPGSV,3,2,11,18,53,277,27.3,20,13,137,22.6,23,20,347,38.9,24,11,009,26.8*72
$GPGSV,3,3,11,25,79,159,36.6,29,38,190,36.1,31,17,240,27.1*5A
$GPRMC,192541.45,A,1559.341673,S,04802.719439,W,008.0,229.1,190922,,,A*58
$GPGGA,192542.45,1559.343165,S,04802.721307,W,1,00,    ,1204.55,M,0.0,M,0.0,0000*5C
$GPGSV,3,1,11,2,38,159,32.0,5,44,109,33.5,12,52,062,28.0,15,10,044,31.8*73
$GPGSV,3,2,11,18,53,277,30.6,20,13,137,24.4,23,20,347,33.5,24,11,010,27.0*73
$GPGSV,3,3,11,25,79,159,36.2,29,38,190,38.5,31,17,240,26.3*57
$GPRMC,192542.45,A,1559.343165,S,04802.721307,W,008.2,228.9,190922,,,A*53
$GPGGA,192543.45,1559.344672,S,04802.723085,W,1,00,    ,1204.52,M,0.0,M,0.0,0000*57
$GPGSV,3,1,11,2,38,159,32.3,5,44,109,33.9,12,52,062,28.7,15,10,044,32.6*76
$GPGSV,3,2,11,18,53,277,31.0,20,13,137,23.6,23,20,347,37.5,24,11,010,21.8*7B
$GPGSV,3,3,11,25,79,159,36.3,29,38,190,35.9,31,17,240,26.1*55
$GPRMC,192543.45,A,1559.344672,S,04802.723085,W,008.7,228.2,190922,,,A*51
$GPGGA,192544.45,1559.346316,S,04802.724907,W,1,00,    ,1204.48,M,0.0,M,0.0,0000*5A
$GPGSV,3,1,10,2,38,159,34.1,5,44,109,34.8,12,52,062,27.1,15,10,044,29.5*75
$GPGSV,3,2,10,18,53,277,30.2,20,13,137,25.0,23,20,347,39.1,25,79,159,35.4*79
$GPGSV,3,3,10,29,38,190,31.5,31,17,240,28.6*79
$GPRMC,192544.45,A,1559.346316,S,04802.724907,W,008.6,226.4,190922,,,A*5E
$GPGGA,192545.45,1559.348006,S,04802.726752,W,1,00,    ,1204.29,M,0.0,M,0.0,0000*5C
$GPGSV,3,1,11,2,38,159,33.2,5,44,109,34.5,12,52,062,26.1,15,10,044,26.5*73
$GPGSV,3,2,11,18,53,277,29.0,20,13,137,26.2,23,20,347,39.2,24,11,010,18.5*7D
$GPGSV,3,3,11,25,79,159,35.2,29,38,190,31.3,31,17,240,26.1*59
$GPRMC,192545.45,A,1559.348006,S,04802.726752,W,008.7,226.1,190922,,,A*5B
$GPGGA,192546.45,1559.349765,S,04802.728735,W,1,00,    ,1204.46,M,0.0,M,0.0,0000*5A
$GPGSV,3,1,11,2,38,159,34.9,5,44,109,36.0,12,52,062,26.5,15,10,044,26.0*79
$GPGSV,3,2,11,18,53,277,28.0,20,13,137,27.6,23,20,347,37.8,24,11,010,19.2*7B
$GPGSV,3,3,11,25,79,159,36.5,29,38,190,33.0,31,17,240,32.9*51
$GPRMC,192546.45,A,1559.349765,S,04802.728735,W,008.2,224.3,190922,,,A*51
$GPGGA,192547.45,1559.351287,S,04802.730611,W,1,00,    ,1204.44,M,0.0,M,0.0,0000*57
$GPGSV,3,1,10,2,38,159,35.0,5,44,109,36.3,12,52,062,27.1,15,10,044,29.8*71
$GPGSV,3,2,10,18,53,277,31.4,20,13,137,20.3,23,20,347,38.4,25,79,159,36.5*7E
$GPGSV,3,3,10,29,38,190,35.8,31,17,240,34.6*7D
$GPRMC,192547.45,A,1559.351287,S,04802.730611,W,009.1,227.5,190922,,,A*59
$GPGGA,192548.45,1559.353073,S,04802.732455,W,1,00,    ,1204.37,M,0.0,M,0.0,0000*57
$GPGSV,3,1,10,2,38,159,31.8,5,44,109,33.6,12,52,062,27.1,15,10,045,29.6*72
$GPGSV,3,2,10,18,53,277,33.1,23,20,347,35.8,24,11,010,16.4,25,79,159,35.8*76
$GPGSV,3,3,10,29,38,190,36.0,31,17,240,36.7*75
$GPRMC,192548.45,A,1559.353073,S,04802.732455,W,009.2,227.7,190922,,,A*5C
$GPGGA,192549.45,1559.354672,S,04802.734481,W,1,00,    ,1204.26,M,0.0,M,0.0,0000*59
$GPGSV,3,1,11,2,38,159,33.3,5,44,109,35.4,12,52,062,25.8,15,10,045,30.4*7F
$GPGSV,3,2,11,18,53,277,29.8,20,13,137,15.8,23,20,347,36.2,24,11,010,19.0*74
$GPGSV,3,3,11,25,79,159,35.5,29,38,190,35.6,31,17,240,35.0*5C
$GPRMC,192549.45,A,1559.354672,S,04802.734481,W,009.4,227.9,190922,,,A*5A
$GPGGA,192550.45,1559.356424,S,04802.736525,W,1,00,    ,1204.17,M,0.0,M,0.0,0000*5D
$GPGSV,3,1,10,2,38,159,31.9,5,44,109,33.5,12,52,062,25.9,15,10,045,29.3*7F
$GPGSV,3,2,10,18,53,277,26.0,23,20,347,39.2,24,11,010,24.2,25,79,159,36.0*79
$GPGSV,3,3,10,29,38,190,36.4,31,17,240,35.5*70
$GPRMC,192550.45,A,1559.356424,S,04802.736525,W,009.2,227.3,190922,,,A*50
$GPGGA,192551.45,1559.358342,S,04802.738531,W,1,00,    ,1204.08,M,0.0,M,0.0,0000*50
$GPGSV,3,1,11,2,38,159,33.4,5,44,109,34.0,12,52,062,24.3,15,10,045,27.6*73
$GPGSV,3,2,11,18,53,277,32.6,20,13,137,18.7,23,20,347,39.4,24,11,010,21.9*79
$GPGSV,3,3,11,25,79,159,36.2,29,38,190,33.9,31,17,240,30.3*57
$GPRMC,192551.45,A,1559.358342,S,04802.738531,W,009.4,226.9,190922,,,A*5E
$GPGGA,192552.45,1559.360320,S,04802.740515,W,1,00,    ,1204.03,M,0.0,M,0.0,0000*5E
$GPGSV,3,1,10,2,38,159,33.3,5,44,109,36.2,12,52,062,26.9,15,10,045,31.2*7E
$GPGSV,3,2,10,18,53,277,31.1,23,20,347,37.7,24,11,010,29.4,25,79,159,36.2*7C
$GPGSV,3,3,10,29,38,190,30.5,31,17,240,27.6*77
$GPRMC,192552.45,A,1559.360320,S,04802.740515,W,009.4,226.8,190922,,,A*5A
$GPGGA,192553.45,1559.362229,S,04802.742510,W,1,00,    ,1204.04,M,0.0,M,0.0,0000*55
$GPGSV,3,1,11,2,38,159,34.1,5,44,109,37.2,12,52,062,25.1,15,10,045,30.8*7B
$GPGSV,3,2,11,18,53,277,24.8,20,13,137,17.9,23,20,347,38.1,24,11,010,25.5*7D
$GPGSV,3,3,11,25,79,159,35.6,29,38,190,31.1,31,17,240,26.9*57
$GPRMC,192553.45,A,1559.362229,S,04802.742510,W,009.5,226.3,190922,,,A*5C
$GPGGA,192554.45,1559.364113,S,04802.744663,W,1,00,    ,1204.08,M,0.0,M,0.0,0000*53
$GPGSV,3,1,10,2,38,159,32.6,5,44,109,35.2,12,52,062,25.0,15,10,045,29.0*78
$GPGSV,3,2,10,18,53,276,27.8,23,20,347,39.9,24,11,010,29.9,25,79,159,37.3*7E
$GPGSV,3,3,10,29,38,190,30.4,31,17,240,27.3*73
$GPRMC,192554.45,A,1559.364113,S,04802.744663,W,009.5,226.7,190922,,,A*52
$GPGGA,192555.45,1559.365949,S,04802.746734,W,1,00,    ,1204.12,M,0.0,M,0.0,0000*5E
$GPGSV,3,1,11,2,38,159,33.6,5,44,109,36.2,12,52,062,25.9,15,10,045,28.2*71
$GPGSV,3,2,11,18,53,276,25.8,20,13,137,17.5,23,20,347,39.6,24,11,010,27.6*76
$GPGSV,3,3,11,25,79,159,34.5,29,38,190,27.3,31,17,240,27.2*5A
$GPRMC,192555.45,A,1559.365949,S,04802.746734,W,009.2,226.0,190922,,,A*54
$GPGGA,192556.45,1559.367677,S,04802.748658,W,1,00,    ,1204.19,M,0.0,M,0.0,0000*53
$GPGSV,3,1,10,2,38,159,33.7,5,44,109,36.1,12,52,062,26.7,15,10,045,30.3*77
$GPGSV,3,2,10,18,53,276,27.7,23,20,347,39.7,24,11,010,29.3,25,79,159,34.8*7D
$GPGSV,3,3,10,29,38,190,30.2,31,17,240,27.7*71
$GPRMC,192556.45,A,1559.367677,S,04802.748658,W,009.2,225.7,190922,,,A*56
$GPGGA,192557.45,1559.369561,S,04802.750563,W,1,00,    ,1204.20,M,0.0,M,0.0,0000*50
$GPGSV,3,1,10,2,38,159,35.0,5,44,109,35.6,12,52,062,27.1,15,10,045,31.2*75
$GPGSV,3,2,10,18,53,276,30.9,23,20,347,33.3,24,11,010,24.5,25,79,159,36.4*7E
$GPGSV,3,3,10,29,38,190,32.8,31,17,240,28.4*75
$GPRMC,192557.45,A,1559.369561,S,04802.750563,W,009.0,225.7,190922,,,A*5D
$GPGGA,192558.45,1559.371343,S,04802.752505,W,1,00,    ,1204.15,M,0.0,M,0.0,0000*54
$GPGSV,3,1,11,2,38,159,35.1,5,44,109,36.1,12,52,062,26.9,15,10,045,30.6*7D
$GPGSV,3,2,11,18,53,276,30.5,20,13,137,15.8,23,20,347,37.8,24,11,010,22.8*7B
$GPGSV,3,3,11,25,79,159,35.9,29,38,190,34.4,31,17,240,22.2*57
$GPRMC,192558.45,A,1559.371343,S,04802.752505,W,009.4,227.3,190922,,,A*5D
$GPGGA,192559.45,1559.373155,S,04802.754545,W,1,00,    ,1204.10,M,0.0,M,0.0,0000*55
$GPGSV,3,1,11,2,38,159,35.3,5,44,109,35.2,12,52,061,25.5,15,10,045,28.5*79
$GPGSV,3,2,11,18,53,276,30.3,20,13,137,19.8,23,20,347,39.6,24,11,010,22.2*7B
$GPGSV,3,3,11,25,79,159,36.0,29,38,190,33.3,31,17,240,25.3*5B
$GPRMC,192559.45,A,1559.373155,S,04802.754545,W,009.5,226.3,190922,,,A*59
$GPGGA,192600.45,1559.375131,S,04802.756576,W,1,00,    ,1204.09,M,0.0,M,0.0,0000*54
$GPGSV,3,1,11,2,38,159,35.2,5,44,109,34.2,12,52,061,25.8,15,10,045,29.7*77
$GPGSV,3,2,11,18,53,276,30.9,20,13,137,18.9,23,20,347,38.3,24,11,010,22.4*73
$GPGSV,3,3,11,25,79,159,36.0,29,38,190,31.4,31,17,240,23.6*5D
$GPRMC,192600.45,A,1559.375131,S,04802.756576,W,009.4,226.5,190922,,,A*57
$GPGGA,192601.45,1559.377128,S,04802.758700,W,1,00,    ,1203.98,M,0.0,M,0.0,0000*5D
$GPGSV,3,1,10,2,38,159,35.3,5,44,109,35.0,12,52,061,26.5,15,10,045,29.6*7B
$GPGSV,3,2,10,18,53,276,31.9,23,20,347,30.9,24,11,010,19.6,25,79,159,36.0*7F
$GPGSV,3,3,10,29,38,190,33.5,31,17,240,28.9*74
$GPRMC,192601.45,A,1559.377128,S,04802.758700,W,009.4,228.0,190922,,,A*5A
$GPGGA,192602.45,1559.379041,S,04802.760730,W,1,00,    ,1204.10,M,0.0,M,0.0,0000*51
$GPGSV,3,1,11,2,38,159,36.3,5,44,109,36.4,12,52,061,24.2,15,10,045,30.1*74
$GPGSV,3,2,11,18,53,276,31.5,20,13,137,15.7,23,20,347,34.6,24,11,010,23.1*70
$GPGSV,3,3,11,25,79,159,36.0,29,38,190,29.8,31,17,240,27.8*52
$GPRMC,192602.45,A,1559.379041,S,04802.760730,W,009.2,225.4,190922,,,A*5E
$GPGGA,192603.45,1559.380861,S,04802.762658,W,1,00,    ,1204.13,M,0.0,M,0.0,0000*52
$GPGSV,3,1,11,2,38,159,34.9,5,44,109,38.2,12,52,061,27.4,15,10,045,30.2*72
$GPGSV,3,2,11,18,53,276,29.8,20,13,137,18.6,23,20,347,35.8,24,11,010,24.0*71
$GPGSV,3,3,11,25,79,159,35.2,29,38,190,25.4,31,17,240,26.8*52
$GPRMC,192603.45,A,1559.380861,S,04802.762658,W,009.2,224.7,190922,,,A*5C
$GPGGA,192604.45,1559.382762,S,04802.764625,W,1,00,    ,1203.84,M,0.0,M,0.0,0000*5E
$GPGSV,3,1,11,2,38,159,34.6,5,44,109,38.8,12,52,061,25.1,15,10,045,30.0*72
