$GPGGA,192321.00,1559.36562,S,04802.61577,W,1,11,0.79,1216.1,M,-11.7,M,,*48
$GPGSA,A,3,25,12,18,05,02,29,23,31,20,24,15,,1.42,0.79,1.18*01
$GPGSV,3,1,11,02,39,160,30,05,44,106,36,12,53,063,39,15,10,043,32*79
$GPGSV,3,2,11,18,52,278,34,20,14,135,27,23,19,347,33,24,12,008,33*7D
$GPGSV,3,3,11,25,78,162,36,29,38,191,39,31,16,239,24*49
$GPGLL,1559.36562,S,04802.61577,W,192321.00,A,A*6C
$GPGRS,192321.00,1,8.1,8.8,9.3,10.0,12.1,8.6,13.4,2.0,10.8,12.1,5.1,*5F
$GPGST,192321.00,24,,,,1.8,2.2,4.2*54
$GPZDA,192321.00,19,09,2022,00,00*6F
$GPGBS,192321.00,1.8,2.2,4.2,,,,*44
$PUBX,00,192321.00,1559.36562,S,04802.61577,W,1204.368,G3,2.9,4.2,0.059,0.00,-0.008,,0.79,1.
$PUBX,03,12,2,U,160,39,30,000,5,U,106,44,36,064,11,e,139,-1,,000,12,U,063,53,39,064,15,U,043
$PUBX,04,192321.00,190922,156201.00,2228,18,-518146,-4003.756,21*2F
$GPDTM,W84,,0.0,N,0.0,E,0.0,W84*6F
$GPRMC,192322.00,A,1559.36564,S,04802.61574,W,0.029,,190922,,,A*79
$GPVTG,,T,,M,0.029,N,0.053,K,A*2E
$GPGGA,192322.00,1559.36564,S,04802.61574,W,1,11,0.79,1216.2,M,-11.7,M,,*4D
$GPGSA,A,3,25,12,18,05,02,29,23,31,20,24,15,,1.42,0.79,1.18*01
$GPGSV,3,1,11,02,39,160,30,05,44,106,37,12,53,063,39,15,10,043,33*79
$GPGSV,3,2,11,18,52,278,34,20,14,135,27,23,19,347,33,24,12,008,33*7D
$GPGSV,3,3,11,25,78,162,36,29,38,191,39,31,16,239,24*49
$GPGLL,1559.36564,S,04802.61574,W,192322.00,A,A*6A
$GPGRS,192322.00,1,7.2,7.9,9.0,8.9,10.1,7.6,13.5,0.8,11.9,11.0,4.7,*6E
$GPGST,192322.00,24,,,,1.8,2.2,4.2*57
$GPZDA,192322.00,19,09,2022,00,00*6C
$GPGBS,192322.00,1.8,2.2,4.2,,,,*47
$PUBX,00,192322.00,1559.36564,S,04802.61574,W,1204.412,G3,2.9,4.2,0.053,0.00,0.007,,0.79,1.1
$PUBX,03,12,2,U,160,39,30,000,5,U,106,44,37,064,11,e,139,-1,,000,12,U,063,53,39,064,15,U,043
$PUBX,04,192322.00,190922,156202.00,2228,18,-522141,-3987.697,21*2F
$GPDTM,W84,,0.0,N,0.0,E,0.0,W84*6F
$GPRMC,192323.00,A,1559.36564,S,04802.61573,W,0.021,,190922,,,A*77
$GPVTG,,T,,M,0.021,N,0.039,K,A*2A
$GPGGA,192323.00,1559.36564,S,04802.61573,W,1,11,0.79,1216.2,M,-11.7,M,,*4B
$GPGSA,A,3,25,12,18,05,02,29,23,31,20,24,15,,1.42,0.79,1.18*01
$GPGSV,3,1,11,02,39,160,31,05,44,106,36,12,53,063,39,15,10,043,34*7E
$GPGSV,3,2,11,18,52,278,34,20,14,135,27,23,19,347,33,24,12,008,34*7A
$GPGSV,3,3,11,25,78,162,37,29,38,191,39,31,16,239,24*48
$GPGLL,1559.36564,S,04802.61573,W,192323.00,A,A*6C
$GPGRS,192323.00,1,6.6,7.8,9.3,8.6,10.7,7.2,13.6,0.6,12.2,10.4,4.5,*67
$GPGST,192323.00,23,,,,1.8,2.2,4.2*51
$GPZDA,192323.00,19,09,2022,00,00*6D
$GPGBS,192323.00,1.8,2.2,4.2,,,,*46
$PUBX,00,192323.00,1559.36564,S,04802.61573,W,1204.472,G3,2.9,4.2,0.039,0.00,0.021,,0.79,1.1
$GPTXT,01,01,00,txbuf alloc*7F
$GPDTM,W84,,0.0,N,0.0,E,0.0,W84*6F
$GPRMC,192324.00,A,1559.36564,S,04802.61573,W,0.010,,190922,,,A*72
$GPVTG,,T,,M,0.010,N,0.019,K,A*2A
$GPGGA,192324.00,1559.36564,S,04802.61573,W,1,11,0.79,1216.3,M,-11.7,M,,*4D
$GPGSA,A,3,25,12,18,05,02,29,23,31,20,24,15,,1.42,0.79,1.18*01
$GPGSV,3,1,11,02,39,160,31,05,44,106,35,12,53,063,41,15,10,043,35*73
$GPGSV,3,2,11,18,52,278,34,20,14,135,28,23,19,347,33,24,12,008,35*74
$GPGSV,3,3,11,25,78,162,36,29,38,191,39,31,16,239,22*4F
$GPGLL,1559.36564,S,04802.61573,W,192324.00,A,A*6B
$GPGRS,192324.00,1,7.0,7.6,9.4,8.5,9.4,7.6,14.0,1.9,13.2,9.9,4.3,*6F
$GPGST,192324.00,24,,,,1.8,2.2,4.2*51
$GPZDA,192324.00,19,09,2022,00,00*6A
$GPGBS,192324.00,1.8,2.2,4.2,,,,*41
$PUBX,00,192324.00,1559.36564,S,04802.61573,W,1204.516,G3,2.9,4.2,0.019,0.00,0.001,,0.79,1.1
$PUBX,03,12,2,U,160,39,31,000,5,U,106,44,35,064,11,e,139,-1,,000,12,U,063,53,41,064,15,U,043
$PUBX,04,192324.00,190922,156204.00,2228,18,-530080,-3955.100,21*26
$GPDTM,W84,,0.0,N,0.0,E,0.0,W84*6F
$GPRMC,192325.00,A,1559.36563,S,04802.61572,W,0.036,,190922,,,A*71
$GPVTG,,T,,M,0.036,N,0.066,K,A*26
$GPGGA,192325.00,1559.36563,S,04802.61572,W,1,11,0.79,1216.3,M,-11.7,M,,*4A
$GPGSA,A,3,25,12,18,05,02,29,23,31,20,24,15,,1.42,0.79,1.18*01
$GPGSV,3,1,11,02,39,160,31,05,44,106,35,12,53,063,40,15,10,043,35*72
$GPGSV,3,2,11,18,52,278,35,20,14,135,28,23,19,347,34,24,12,008,34*73
$GPGSV,3,3,11,25,78,162,36,29,38,191,38,31,16,239,22*4E
$GPGLL,1559.36563,S,04802.61572,W,192325.00,A,A*6C
$GPGRS,192325.00,1,7.0,7.7,8.9,8.9,14.4,7.9,14.2,3.0,14.0,9.7,4.2,*5F
$GPGST,192325.00,24,,,,1.9,2.2,4.2*51
$GPZDA,192325.00,19,09,2022,00,00*6B
$GPGBS,192325.00,1.9,2.2,4.2,,,,*41
$PUBX,00,192325.00,1559.36563,S,04802.61572,W,1204.565,G3,2.9,4.2,0.066,0.00,-0.013,,0.79,1.
$GPDTM,W84,,0.0,N,0.0,E,0.0,W84*6F
$GPRMC,192326.00,A,1559.36559,S,04802.61576,W,0.024,,190922,,,A*7C
$GPVTG,,T,,M,0.024,N,0.044,K,A*25
$GPGGA,192326.00,1559.36559,S,04802.61576,W,1,11,0.79,1216.5,M,-11.7,M,,*42
$GPGSA,A,3,25,12,18,05,02,29,23,31,20,24,15,,1.42,0.79,1.18*01
$GPGSV,3,1,11,02,39,160,25,05,44,106,35,12,53,063,38,15,10,043,35*78
$GPGSV,3,2,11,18,52,278,36,20,14,135,21,23,19,347,34,24,12,008,32*7F
$GPGSV,3,3,11,25,78,162,37,29,38,191,37,31,16,239,21*43
$GPGLL,1559.36559,S,04802.61576,W,192326.00,A,A*62
$GPGRS,192326.00,1,6.8,7.9,8.5,8.8,14.2,7.5,14.0,3.5,15.5,10.1,3.5,*61
$GPGST,192326.00,29,,,,1.9,2.2,4.2*5F
$GPZDA,192326.00,19,09,2022,00,00*68
$GPGBS,192326.00,1.9,2.2,4.2,,,,*42
$GPDTM,W84,,0.0,N,0.0,E,0.0,W84*6F
$GPRMC,192327.00,A,1559.36557,S,04802.61578,W,0.053,,190922,,,A*7D
$GPVTG,,T,,M,0.053,N,0.098,K,A*24
$GPGGA,192327.00,1559.36557,S,04802.61578,W,1,11,0.79,1216.6,M,-11.7,M,,*40
$GPGSA,A,3,25,12,18,05,02,29,23,31,20,24,15,,1.42,0.79,1.18*01
$GPGSV,3,1,11,02,39,160,26,05,44,106,36,12,53,063,38,15,10,043,35*78
$GPGSV,3,2,11,18,52,278,35,20,14,135,24,23,19,347,34,24,12,008,33*78
$GPGSV,3,3,11,25,78,162,38,29,38,191,35,31,16,239,20*4F
$GPGLL,1559.36557,S,04802.61578,W,192327.00,A,A*63
$GPGRS,192327.00,1,6.2,7.0,7.6,7.5,9.1,6.6,12.8,5.1,15.3,9.4,2.8,*6B
$GPGST,192327.00,28,,,,1.9,2.2,4.2*5F
$GPZDA,192327.00,19,09,2022,00,00*69
$GPGBS,192327.00,1.9,2.2,4.2,,,,*43
$PUBX,04,192327.00,190922,156207.00,2228,18,-541928,-3934.027,21*28
$GPDTM,W84,,0.0,N,0.0,E,0.0,W84*6F
$GPRMC,192328.00,A,1559.36554,S,04802.61585,W,0.085,,190922,,,A*78
$GPVTG,,T,,M,0.085,N,0.158,K,A*22
$GPGGA,192328.00,1559.36554,S,04802.61585,W,1,11,0.79,1216.6,M,-11.7,M,,*4E
$GPGSA,A,3,25,12,18,05,02,29,23,31,20,24,15,,1.42,0.79,1.18*01
$GPGSV,3,1,11,02,39,160,24,05,44,106,33,12,53,063,36,15,10,043,29*7C
$GPGSV,3,2,11,18,52,278,36,20,14,135,23,23,19,347,37,24,12,008,37*7B
$GPGSV,3,3,11,25,78,162,35,29,38,191,33,31,16,239,17*40
$GPGLL,1559.36554,S,04802.61585,W,192328.00,A,A*6D
$GPGRS,192328.00,1,5.9,7.0,7.2,7.3,8.3,6.5,12.3,7.6,15.0,8.8,2.9,*6F
$GPGST,192328.00,32,,,,1.9,2.2,4.3*5A
$GPZDA,192328.00,19,09,2022,00,00*66
$GPGBS,192328.00,1.9,2.2,4.3,,,,*4D
$PUBX,00,192328.00,1559.36554,S,04802.61585,W,1204.811,G3,2.9,4.3,0.158,0.00,0.057,,0.79,1.1
$PUBX,03,12,2,U,160,39,24,000,5,U,106,44,33,003,11,e,139,-1,,000,12,U,063,53,36,064,15,U,043
$PUBX,04,192328.00,190922,156208.00,2228,18,-545854,-3918.599,21*28
$GPTXT,01,01,00,txbuf alloc*7F
$GPDTM,W84,,0.0,N,0.0,E,0.0,W84*6F
$GPRMC,192329.00,A,1559.36552,S,04802.61594,W,0.118,,190922,,,A*7A
$GPVTG,,T,,M,0.118,N,0.218,K,A*20
$GPGGA,192329.00,1559.36552,S,04802.61594,W,1,11,0.79,1216.5,M,-11.7,M,,*4A
$GPGSA,A,3,25,12,18,05,02,29,23,31,20,24,15,,1.42,0.79,1.18*01
$GPGSV,3,1,11,02,39,160,25,05,44,106,33,12,53,063,36,15,10,043,27*73
$GPGSV,3,2,11,18,52,278,37,20,14,135,22,23,19,347,36,24,12,008,36*7B
$GPGSV,3,3,11,25,78,162,35,29,38,191,33,31,16,239,14*43
$GPGLL,1559.36552,S,04802.61594,W,192329.00,A,A*6A
$GPGRS,192329.00,1,5.6,7.6,7.3,6.4,4.9,6.2,11.8,14.3,14.9,8.7,2.4,*54
$GPGST,192329.00,37,,,,1.9,2.2,4.3*5E
$GPZDA,192329.00,19,09,2022,00,00*67
$GPGBS,192329.00,1.9,2.2,4.3,,,,*4C
$GPDTM,W84,,0.0,N,0.0,E,0.0,W84*6F
$GPRMC,192330.00,A,1559.36549,S,04802.61599,W,0.064,,190922,,,A*7F
$GPVTG,,T,,M,0.064,N,0.118,K,A*29
$GPGGA,192330.00,1559.36549,S,04802.61599,W,1,11,0.99,1216.4,M,-11.7,M,,*4A
$GPGSA,A,3,25,12,18,05,02,29,23,31,20,24,15,,1.70,0.99,1.38*0C
$GPGSV,3,1,11,02,39,160,26,05,44,106,33,12,53,063,35,15,10,043,25*71
$GPGSV,3,2,11,18,52,278,36,20,14,135,22,23,19,347,36,24,12,008,36*7A
$GPGSV,3,3,11,25,78,162,34,29,38,191,32,31,16,239,11*46
$GPGLL,1559.36549,S,04802.61599,W,192330.00,A,A*65
$GPGRS,192330.00,1,5.2,6.8,7.4,6.6,2.3,6.5,11.8,23.5,17.5,8.3,4.1,*53
$GPGST,192330.00,27,,,,2.0,2.2,4.4*5A
$GPZDA,192330.00,19,09,2022,00,00*6F
$GPGBS,192330.00,2.0,2.2,4.4,,,,*49
$PUBX,00,192330.00,1559.36549,S,04802.61599,W,1204.672,G3,3.0,4.4,0.118,0.00,0.078,,0.99,1.3
$PUBX,03,12,2,U,160,39,26,000,5,U,106,44,33,005,11,e,139,-1,,000,12,U,063,53,35,064,15,U,043
$PUBX,04,192330.00,190922,156210.00,2228,18,-553663,-3891.859,21*24
$GPDTM,W84,,0.0,N,0.0,E,0.0,W84*6F
$GPRMC,192331.00,A,1559.36549,S,04802.61604,W,0.066,,190922,,,A*7B
$GPVTG,,T,,M,0.066,N,0.122,K,A*22
$GPGGA,192331.00,1559.36549,S,04802.61604,W,1,10,0.99,1216.2,M,-11.7,M,,*4B
$GPGSA,A,3,25,12,18,05,02,29,23,20,24,15,,,1.70,0.99,1.38*0E
$GPGSV,3,1,11,02,39,160,24,05,44,106,33,12,53,063,33,15,10,043,23*73
$GPGSV,3,2,11,18,52,278,33,20,14,135,25,23,19,347,38,24,12,008,37*77
$GPGSV,3,3,11,25,78,162,34,29,38,191,35,31,16,239,08*49
$GPGLL,1559.36549,S,04802.61604,W,192331.00,A,A*63
$GPGRS,192331.00,1,5.3,6.2,7.8,6.1,2.2,6.5,11.5,15.3,7.8,3.3,,*41
$GPGST,192331.00,29,,,,2.0,2.2,4.4*55
$GPZDA,192331.00,19,09,2022,00,00*6E
$GPGBS,192331.00,2.0,2.2,4.4,,,,*48
$PUBX,00,192331.00,1559.36549,S,04802.61604,W,1204.489,G3,3.0,4.4,0.122,0.00,0.068,,0.99,1.3
$PUBX,03,12,2,U,160,39,24,000,5,U,106,44,33,006,11,e,139,-1,,000,12,U,063,53,33,064,15,U,043
$PUBX,04,192331.00,190922,156211.00,2228,18,-557552,-3885.308,21*2B
$GPDTM,W84,,0.0,N,0.0,E,0.0,W84*6F
$GPRMC,192332.00,A,1559.36546,S,04802.61607,W,0.029,,190922,,,A*7F
$GPVTG,,T,,M,0.029,N,0.053,K,A*2E
$GPGGA,192332.00,1559.36546,S,04802.61607,W,1,10,0.99,1216.1,M,-11.7,M,,*47
$GPGSA,A,3,25,12,18,05,02,29,23,20,24,15,,,1.70,0.99,1.38*0E
$GPGSV,3,1,11,02,39,160,23,05,44,106,34,12,53,063,33,15,10,043,25*75
$GPGSV,3,2,11,18,52,278,33,20,14,135,25,23,19,347,37,24,12,008,37*78
$GPGSV,3,3,11,25,78,162,33,29,38,191,34,31,16,239,07*40
$GPGLL,1559.36546,S,04802.61607,W,192332.00,A,A*6C
$GPGRS,192332.00,1,5.3,6.0,7.8,6.1,-0.2,6.0,11.7,16.9,7.4,5.3,,*6B
$GPGST,192332.00,28,,,,2.0,2.3,4.5*57
$GPZDA,192332.00,19,09,2022,00,00*6D
$GPGBS,192332.00,2.0,2.3,4.5,,,,*4B
$PUBX,00,192332.00,1559.36546,S,04802.61607,W,1204.384,G3,3.0,4.5,0.053,0.00,0.018,,0.99,1.3
$PUBX,03,12,2,U,160,39,23,000,5,U,106,44,34,007,11,e,139,-1,,000,12,U,063,53,33,064,15,U,043
$PUBX,04,192332.00,190922,156212.00,2228,18,-561437,-3883.805,21*2C
$GPDTM,W84,,0.0,N,0.0,E,0.0,W84*6F
$GPRMC,192333.00,A,1559.36545,S,04802.61608,W,0.041,,190922,,,A*7C
$GPVTG,,T,,M,0.041,N,0.076,K,A*27
$GPGGA,192333.00,1559.36545,S,04802.61608,W,1,10,0.99,1216.0,M,-11.7,M,,*4B
$GPGSA,A,3,25,12,18,05,02,29,23,20,24,15,,,1.70,0.99,1.38*0E
$GPGSV,3,1,11,02,39,160,22,05,44,106,31,12,53,063,34,15,10,043,24*77
$GPGSV,3,2,11,18,52,278,30,20,14,135,25,23,19,347,35,24,12,008,36*78
$GPGSV,3,3,11,25,78,162,31,29,38,191,33,31,16,239,07*45
$GPGLL,1559.36545,S,04802.61608,W,192333.00,A,A*61
$GPGRS,192333.00,1,6.2,6.7,7.7,6.6,-1.2,6.7,11.5,15.3,7.8,7.7,,*60
$GPGST,192333.00,30,,,,2.0,2.3,4.6*5C
$GPZDA,192333.00,19,09,2022,00,00*6C
$GPGBS,192333.00,2.0,2.3,4.6,,,,*49
$PUBX,00,192333.00,1559.36545,S,04802.61608,W,1204.272,G3,3.1,4.6,0.076,0.00,0.000,,0.99,1.3
$PUBX,03,12,2,U,160,39,22,000,5,U,106,44,31,000,11,e,139,-1,,000,12,U,063,53,34,064,15,U,043
$GPTXT,01,01,00,txbuf alloc*7F
$GPDTM,W84,,0.0,N,0.0,E,0.0,W84*6F
$GPRMC,192334.00,A,1559.36545,S,04802.61610,W,0.100,,190922,,,A*76
$GPVTG,,T,,M,0.100,N,0.185,K,A*2E
$GPGGA,192334.00,1559.36545,S,04802.61610,W,1,10,0.99,1216.0,M,-11.7,M,,*45
$GPGSA,A,3,25,12,18,05,02,29,23,20,24,15,,,1.70,0.99,1.38*0E
$GPGSV,3,1,11,02,39,160,24,05,44,106,34,12,53,063,36,15,10,043,25*77
$GPGSV,3,2,11,18,52,278,34,20,14,135,31,23,19,347,35,24,12,008,32*7D
$GPGSV,3,3,11,25,78,162,36,29,38,191,33,31,16,239,07*42
$GPGLL,1559.36545,S,04802.61610,W,192334.00,A,A*6F
$GPGRS,192334.00,1,6.0,6.6,7.2,5.9,0.4,6.1,10.6,13.7,6.9,7.1,,*47
$GPGST,192334.00,26,,,,2.1,2.4,4.7*5B
$GPZDA,192334.00,19,09,2022,00,00*6B
$GPGBS,192334.00,2.1,2.4,4.7,,,,*49
$PUBX,00,192334.00,1559.36545,S,04802.61610,W,1204.246,G3,3.2,4.7,0.185,0.00,0.005,,0.99,1.3
$PUBX,03,12,2,U,160,39,24,000,5,U,106,44,34,000,11,e,139,-1,,000,12,U,063,53,36,000,15,U,043
$PUBX,04,192334.00,190922,156214.00,2228,18,-569199,-3873.516,21*25
$GPDTM,W84,,0.0,N,0.0,E,0.0,W84*6F
$GPRMC,192335.00,A,1559.36542,S,04802.61614,W,0.066,,190922,,,A*75
$GPVTG,,T,,M,0.066,N,0.122,K,A*22
$GPGGA,192335.00,1559.36542,S,04802.61614,W,1,10,0.99,1216.0,M,-11.7,M,,*47
$GPGSA,A,3,25,12,18,05,02,29,23,20,24,15,,,1.70,0.99,1.38*0E
$GPGSV,3,1,11,02,39,160,23,05,44,106,31,12,53,063,34,15,10,043,24*76
$GPGSV,3,2,11,18,52,278,34,20,14,135,27,23,19,347,36,24,12,008,34*7F
$GPGSV,3,3,11,25,78,162,30,29,38,191,34,31,16,239,09*4D
$GPGLL,1559.36542,S,04802.61614,W,192335.00,A,A*6D
$GPGRS,192335.00,1,5.6,6.0,6.9,5.9,0.2,5.8,9.7,12.5,6.6,7.0,,*77
$GPGST,192335.00,28,,,,2.1,2.5,4.8*5A
$GPZDA,192335.00,19,09,2022,00,00*6A
$GPGBS,192335.00,2.1,2.5,4.8,,,,*46
$GPDTM,W84,,0.0,N,0.0,E,0.0,W84*6F
$GPRMC,192336.00,A,1559.36540,S,04802.61620,W,0.042,,190922,,,A*75
$GPVTG,,T,,M,0.042,N,0.078,K,A*2A
$GPGGA,192336.00,1559.36540,S,04802.61620,W,1,10,1.09,1216.1,M,-11.7,M,,*48
$GPGSA,A,3,25,12,18,05,02,29,23,31,24,15,,,2.02,1.09,1.70*0C
$GPGSV,3,1,11,02,39,160,23,05,44,106,32,12,53,063,35,15,10,043,25*75
$GPGSV,3,2,11,18,52,278,36,20,14,135,,23,19,347,33,24,12,008,36*7F
$GPGSV,3,3,11,25,78,162,34,29,38,191,37,31,16,239,11*43
$GPGLL,1559.36540,S,04802.61620,W,192336.00,A,A*6B
$GPGRS,192336.00,1,6.2,6.9,7.2,6.6,-1.4,6.1,10.1,139,7.5,8.5,,*49
$GPGST,192336.00,26,,,,2.1,2.5,4.8*57
$GPZDA,192336.00,19,09,2022,00,00*69
$GPGBS,192336.00,2.1,2.5,4.8,,,,*45
$GPDTM,W84,,0.0,N,0.0,E,0.0,W84*6F
$GPRMC,192337.00,A,1559.36537,S,04802.61627,W,0.026,,190922,,,A*71
$GPVTG,,T,,M,0.026,N,0.048,K,A*2B
$GPGGA,192337.00,1559.36537,S,04802.61627,W,1,11,1.09,1216.1,M,-11.7,M,,*4F
$GPGSA,A,3,25,12,18,05,02,29,23,31,20,24,15,,2.02,1.09,1.70*0E
$GPGSV,3,1,11,02,39,160,22,05,44,106,33,12,53,063,35,15,10,043,27*77
$GPGSV,3,2,11,18,52,278,36,20,14,135,21,23,19,347,37,24,12,008,37*79
$GPGSV,3,3,11,25,78,162,36,29,38,191,37,31,16,239,22*41
$GPGLL,1559.36537,S,04802.61627,W,192337.00,A,A*6D
$GPGRS,192337.00,1,7.1,7.7,7.5,7.7,-0.7,6.6,11.0,-3.2,19.6,8.5,10.0,*5D
$GPGST,192337.00,25,,,,2.1,2.5,4.8*55
$GPZDA,192337.00,19,09,2022,00,00*68
$GPGBS,192337.00,2.1,2.5,4.8,,,,*44
$PUBX,00,192337.00,1559.36537,S,04802.61627,W,1204.324,G3,3.3,4.8,0.048,0.00,0.009,,1.09,1.7
$GPDTM,W84,,0.0,N,0.0,E,0.0,W84*6F
$GPRMC,192338.00,A,1559.36534,S,04802.61633,W,0.005,,190922,,,A*79
$GPVTG,,T,,M,0.005,N,0.009,K,A*2F
$GPGGA,192338.00,1559.36534,S,04802.61633,W,1,10,1.09,1216.1,M,-11.7,M,,*47
$GPGSA,A,3,25,12,18,05,02,29,23,20,24,15,,,2.02,1.09,1.70*0C
$GPGSV,3,1,11,02,39,160,22,05,44,106,32,12,53,063,34,15,10,043,28*78
$GPGSV,3,2,11,18,52,278,36,20,14,135,23,23,19,347,36,24,12,008,37*7A
$GPGSV,3,3,11,25,78,162,34,29,38,191,34,31,16,239,19*48
$GPGLL,1559.36534,S,04802.61633,W,192338.00,A,A*64
$GPGRS,192338.00,1,6.3,6.7,7.3,7.5,-0.1,6.3,10.1,18.5,8.0,8.1,,*6A
$GPGST,192338.00,25,,,,2.1,2.5,4.9*5B
$GPZDA,192338.00,19,09,2022,00,00*67
$GPGBS,192338.00,2.1,2.5,4.9,,,,*4A
$GPTXT,01,01,00,txbuf alloc*7F
$GPDTM,W84,,0.0,N,0.0,E,0.0,W84*6F
$GPRMC,192339.00,A,1559.36533,S,04802.61636,W,0.037,,190922,,,A*7B
$GPVTG,,T,,M,0.037,N,0.068,K,A*29
$GPGGA,192339.00,1559.36533,S,04802.61636,W,1,10,0.99,1215.9,M,-11.7,M,,*47
$GPGSA,A,3,25,12,18,05,02,29,23,20,24,15,,,1.70,0.99,1.38*0E
$GPGSV,3,1,11,02,39,160,22,05,44,106,32,12,53,063,33,15,10,043,29*7E
$GPGSV,3,2,11,18,52,278,35,20,14,135,25,23,19,347,37,24,12,008,37*7E
$GPGSV,3,3,11,25,78,162,33,29,38,191,34,31,16,239,16*40
$GPGLL,1559.36533,S,04802.61636,W,192339.00,A,A*67
$GPGRS,192339.00,1,5.5,5.4,6.3,6.9,-0.7,5.4,9.1,15.5,7.1,6.5,,*51
$GPGST,192339.00,27,,,,2.2,2.5,4.9*5B
$GPZDA,192339.00,19,09,2022,00,00*66
$GPGBS,192339.00,2.2,2.5,4.9,,,,*48
$PUBX,00,192339.00,1559.36533,S,04802.61636,W,1204.183,G3,3.3,4.9,0.068,0.00,0.037,,0.99,1.3
$PUBX,03,12,2,U,160,39,22,000,5,U,106,44,32,001,11,e,139,-1,,000,12,U,063,53,33,000,15,U,043
$GPDTM,W84,,0.0,N,0.0,E,0.0,W84*6F
$GPRMC,192340.00,A,1559.36532,S,04802.61640,W,0.058,,190922,,,A*7C
$GPVTG,,T,,M,0.058,N,0.107,K,A*28
$GPGGA,192340.00,1559.36532,S,04802.61640,W,1,11,0.99,1215.9,M,-11.7,M,,*48
$GPGSA,A,3,25,12,18,05,02,29,23,31,20,24,15,,1.70,0.99,1.38*0C
$GPGSV,3,1,11,02,39,160,22,05,44,106,32,12,53,063,34,15,10,043,28*78
$GPGSV,3,2,11,18,52,278,35,20,14,135,26,23,19,347,36,24,12,008,37*7C
$GPGSV,3,3,11,25,78,162,33,29,38,191,35,31,16,239,17*40
$GPGLL,1559.36532,S,04802.61640,W,192340.00,A,A*69
$GPGRS,192340.00,1,5.0,5.2,6.0,6.9,-0.1,4.7,8.8,3.2,10.9,7.0,5.2,*70
$GPGST,192340.00,27,,,,2.2,2.5,4.9*55
$GPZDA,192340.00,19,09,2022,00,00*68
$GPGBS,192340.00,2.2,2.5,4.9,,,,*46
$PUBX,00,192340.00,1559.36532,S,04802.61640,W,1204.159,G3,3.3,4.9,0.107,0.00,-0.003,,0.99,1.
$PUBX,03,12,2,U,160,39,22,000,5,U,106,44,32,000,11,e,139,-1,,000,12,U,063,53,34,001,15,U,043
$PUBX,04,192340.00,190922,156220.00,2228,18,-592447,-3859.368,21*24
$GPDTM,W84,,0.0,N,0.0,E,0.0,W84*6F
$GPRMC,192341.00,A,1559.36531,S,04802.61638,W,0.063,,190922,,,A*79
$GPVTG,,T,,M,0.063,N,0.117,K,A*21
$GPGGA,192341.00,1559.36531,S,04802.61638,W,1,11,0.79,1216.1,M,-11.7,M,,*40
$GPGSA,A,3,25,12,18,05,02,29,23,31,20,24,15,,1.42,0.79,1.18*01
$GPGSV,3,1,11,02,39,160,25,05,44,106,37,12,53,063,37,15,10,043,29*78
$GPGSV,3,2,11,18,52,278,37,20,14,135,28,23,19,347,35,24,12,008,37*73
$GPGSV,3,3,11,25,78,162,38,29,38,191,37,31,16,239,19*47
$GPGLL,1559.36531,S,04802.61638,W,192341.00,A,A*64
$GPGRS,192341.00,1,4.9,5.0,6.1,7.4,3.9,4.9,8.8,-2.7,13.0,7.5,4.4,*7F
$GPGST,192341.00,28,,,,2.2,2.5,4.9*5B
$GPZDA,192341.00,19,09,2022,00,00*69
$GPGBS,192341.00,2.2,2.5,4.9,,,,*47
$PUBX,00,192341.00,1559.36531,S,04802.61638,W,1204.309,G3,3.3,4.9,0.117,0.00,-0.029,,0.79,1.
$PUBX,03,12,2,U,160,39,25,000,5,U,106,44,37,000,11,e,139,-1,,000,12,U,063,53,37,000,15,U,043
$PUBX,04,192341.00,190922,156221.00,2228,18,-596306,-3855.911,21*2A
$GPDTM,W84,,0.0,N,0.0,E,0.0,W84*6F
$GPRMC,192342.00,A,1559.36533,S,04802.61633,W,0.043,,190922,,,A*71
$GPVTG,,T,,M,0.043,N,0.079,K,A*2A
$GPGGA,192342.00,1559.36533,S,04802.61633,W,1,11,0.79,1216.2,M,-11.7,M,,*49
$GPGSA,A,3,25,12,18,05,02,29,23,31,20,24,15,,1.42,0.79,1.18*01
$GPGSV,3,1,11,02,39,160,27,05,44,106,36,12,53,063,39,15,10,043,34*79
$GPGSV,3,2,11,18,52,278,35,20,14,135,28,23,19,347,36,24,12,008,35*70
$GPGSV,3,3,11,25,78,162,38,29,38,191,38,31,16,239,19*48
$GPGLL,1559.36533,S,04802.61633,W,192342.00,A,A*6E
$GPGRS,192342.00,1,5.4,5.3,6.3,7.7,5.6,5.3,9.0,-0.8,14.2,7.8,2.6,*78
$GPGST,192342.00,27,,,,2.2,2.5,4.9*57
$GPZDA,192342.00,19,09,2022,00,00*6A
$GPGBS,192342.00,2.2,2.5,4.9,,,,*44
$PUBX,00,192342.00,1559.36533,S,04802.61633,W,1204.424,G3,3.3,4.9,0.079,0.00,-0.018,,0.79,1.
$PUBX,03,12,2,U,160,39,27,000,5,U,106,44,36,001,11,e,139,-1,,000,12,U,063,53,39,001,15,U,043
$PUBX,04,192342.00,190922,156222.00,2228,18,-600164,-3858.406,21*26
$GPTXT,01,01,00,txbuf alloc*7F
$GPDTM,W84,,0.0,N,0.0,E,0.0,W84*6F
$GPRMC,192343.00,A,1559.36536,S,04802.61629,W,0.045,,190922,,,A*78
$GPVTG,,T,,M,0.045,N,0.084,K,A*2E
$GPGGA,192343.00,1559.36536,S,04802.61629,W,1,11,0.79,1216.2,M,-11.7,M,,*46
$GPGSA,A,3,25,12,18,05,02,29,23,31,20,24,15,,1.42,0.79,1.18*01
$GPGSV,3,1,11,02,39,160,27,05,44,106,36,12,53,063,38,15,10,043,34*78
$GPGSV,3,2,11,18,52,278,35,20,14,135,28,23,19,347,35,24,12,008,35*73
$GPGSV,3,3,11,25,78,162,38,29,38,191,38,31,16,239,18*49
$GPGLL,1559.36536,S,04802.61629,W,192343.00,A,A*61
$GPGRS,192343.00,1,4.8,4.6,5.8,7.8,6.7,4.8,8.4,3.1,15.4,7.2,3.9,*5E
$GPGST,192343.00,27,,,,2.1,2.5,4.8*54
$GPZDA,192343.00,19,09,2022,00,00*6B
$GPGBS,192343.00,2.1,2.5,4.8,,,,*47
$PUBX,00,192343.00,1559.36536,S,04802.61629,W,1204.475,G3,3.3,4.8,0.084,0.00,-0.023,,0.79,1.
$PUBX,03,12,2,U,160,39,27,000,5,U,106,44,36,002,11,e,139,-1,,000,12,U,063,53,38,002,15,U,043
$PUBX,04,192343.00,190922,156223.00,2228,18,-604022,-3856.995,21*28
$GPDTM,W84,,0.0,N,0.0,E,0.0,W84*6F
$GPRMC,192344.00,A,1559.36535,S,04802.61629,W,0.026,,190922,,,A*79
$GPVTG,,T,,M,0.026,N,0.048,K,A*2B
$GPGGA,192344.00,1559.36535,S,04802.61629,W,1,11,0.79,1216.1,M,-11.7,M,,*41
$GPGSA,A,3,25,12,18,05,02,29,23,31,20,24,15,,1.42,0.79,1.18*01
$GPGSV,3,1,11,02,39,160,31,05,44,106,31,12,53,063,35,15,10,043,30*71
$GPGSV,3,2,11,18,52,278,34,20,14,135,27,23,19,347,35,24,12,008,37*7F
$GPGSV,3,3,11,25,78,162,34,29,38,191,32,31,16,239,16*41
$GPGLL,1559.36535,S,04802.61629,W,192344.00,A,A*65
$GPGRS,192344.00,1,4.3,4.5,5.5,7.4,5.1,4.3,8.0,2.0,13.6,6.8,1.2,*5C
$GPGST,192344.00,29,,,,2.2,2.5,4.8*5E
$GPZDA,192344.00,19,09,2022,00,00*6C
$GPGBS,192344.00,2.2,2.5,4.8,,,,*43
$PUBX,00,192344.00,1559.36535,S,04802.61629,W,1204.392,G3,3.3,4.8,0.048,0.00,-0.017,,0.79,1.
$PUBX,03,12,2,U,160,39,31,000,5,U,106,44,31,003,11,e,139,-1,,000,12,U,063,53,35,003,15,U,043
$GPDTM,W84,,0.0,N,0.0,E,0.0,W84*6F
$GPRMC,192345.00,A,1559.36535,S,04802.61630,W,0.045,,190922,,,A*75
$GPVTG,,T,,M,0.045,N,0.083,K,A*29
$GPGGA,192345.00,1559.36535,S,04802.61630,W,1,11,0.79,1216.1,M,-11.7,M,,*48
$GPGSA,A,3,25,12,18,05,02,29,23,31,20,24,15,,1.42,0.79,1.18*01
$GPGSV,3,1,11,02,39,160,30,05,44,106,33,12,53,063,36,15,10,043,30*71
$GPGSV,3,2,11,18,52,278,37,20,14,135,27,23,19,347,36,24,12,008,38*70
$GPGSV,3,3,11,25,78,162,35,29,38,191,34,31,16,239,16*46
$GPGLL,1559.36535,S,04802.61630,W,192345.00,A,A*6C
$GPGRS,192345.00,1,4.0,3.9,4.9,6.9,3.5,3.8,7.6,1.7,14.5,5.9,1.8,*5B
$GPGST,192345.00,29,,,,2.2,2.5,4.9*5E
$GPZDA,192345.00,19,09,2022,00,00*6D
$GPGBS,192345.00,2.2,2.5,4.9,,,,*43
$GPDTM,W84,,0.0,N,0.0,E,0.0,W84*6F
$GPRMC,192346.00,A,1559.36536,S,04802.61629,W,0.011,,190922,,,A*7C
$GPVTG,,T,,M,0.011,N,0.020,K,A*21
$GPGGA,192346.00,1559.36536,S,04802.61629,W,1,11,0.79,1216.1,M,-11.7,M,,*40
$GPGSA,A,3,25,12,18,05,02,29,23,31,20,24,15,,1.42,0.79,1.18*01
$GPGSV,3,1,11,02,39,160,20,05,44,106,33,12,53,063,37,15,10,043,28*78
$GPGSV,3,2,11,18,52,278,34,20,14,135,26,23,19,347,36,24,12,008,37*7D
$GPGSV,3,3,11,25,78,162,37,29,38,191,37,31,16,239,16*47
$GPGLL,1559.36536,S,04802.61629,W,192346.00,A,A*64
$GPGRS,192346.00,1,3.5,4.1,4.3,6.8,4.8,4.0,7.4,1.9,14.3,5.2,2.2,*53
$GPGST,192346.00,33,,,,2.2,2.5,4.9*56
$GPZDA,192346.00,19,09,2022,00,00*6E
$GPGBS,192346.00,2.2,2.5,4.9,,,,*40
$PUBX,00,192346.00,1559.36536,S,04802.61629,W,1204.402,G3,3.3,4.9,0.020,0.00,-0.027,,0.79,1.
$GPDTM,W84,,0.0,N,0.0,E,0.0,W84*6F
$GPRMC,192347.00,A,1559.36537,S,04802.61625,W,0.008,,190922,,,A*78
$GPVTG,,T,,M,0.008,N,0.015,K,A*2F
$GPGGA,192347.00,1559.36537,S,04802.61625,W,1,11,0.79,1216.2,M,-11.7,M,,*4F
$GPGSA,A,3,25,12,18,05,02,29,23,31,20,24,15,,1.42,0.79,1.18*01
$GPGSV,3,1,11,02,39,160,18,05,44,106,34,12,53,063,38,15,10,043,28*7B
$GPGSV,3,2,11,18,52,278,35,20,14,135,27,23,19,347,34,24,12,008,36*7E
$GPGSV,3,3,11,25,78,162,37,29,38,191,36,31,16,239,18*48
$GPGLL,1559.36537,S,04802.61625,W,192347.00,A,A*68
$GPGRS,192347.00,1,4.2,4.9,4.8,7.3,6.4,4.5,8.4,2.3,14.5,5.8,3.5,*5C
$GPGST,192347.00,33,,,,2.2,2.5,4.8*56
$GPZDA,192347.00,19,09,2022,00,00*6F
$GPTXT,01,01,00,txbuf alloc*7F
$GPDTM,W84,,0.0,N,0.0,E,0.0,W84*6F
$GPRMC,192348.00,A,1559.36535,S,04802.61623,W,0.048,,190922,,,A*77
$GPVTG,,T,,M,0.048,N,0.088,K,A*2F
$GPGGA,192348.00,1559.36535,S,04802.61623,W,1,11,0.79,1216.3,M,-11.7,M,,*45
$GPGSA,A,3,25,12,18,05,02,29,23,31,20,24,15,,1.42,0.79,1.18*01
$GPGSV,3,1,11,02,39,160,16,05,44,106,35,12,53,063,39,15,10,043,34*78
$GPGSV,3,2,11,18,52,278,36,20,14,135,25,23,19,347,35,24,12,008,35*7D
$GPGSV,3,3,11,25,78,162,37,29,38,191,37,31,16,239,17*46
$GPGLL,1559.36535,S,04802.61623,W,192348.00,A,A*63
$GPGRS,192348.00,1,3.6,4.1,3.9,6.3,6.6,3.5,8.0,2.1,12.6,5.0,3.2,*56
$GPGST,192348.00,37,,,,2.2,2.5,4.8*5D
$GPZDA,192348.00,19,09,2022,00,00*60
$GPGBS,192348.00,2.2,2.5,4.8,,,,*4F
$PUBX,00,192348.00,1559.36535,S,04802.61623,W,1204.591,G3,3.3,4.8,0.088,0.00,-0.053,,0.79,1.
$PUBX,03,12,2,U,160,39,16,000,5,U,106,44,35,000,11,e,139,-1,,000,12,U,063,53,39,007,15,U,043
$GPDTM,W84,,0.0,N,0.0,E,0.0,W84*6F
$GPRMC,192349.00,A,1559.36533,S,04802.61621,W,0.087,,190922,,,A*71
$GPVTG,,T,,M,0.087,N,0.162,K,A*29
$GPGGA,192349.00,1559.36533,S,04802.61621,W,1,11,0.79,1216.3,M,-11.7,M,,*40
$GPGSA,A,3,25,12,18,05,02,29,23,31,20,24,15,,1.42,0.79,1.18*01
$GPGSV,3,1,11,02,39,160,21,05,44,106,31,12,53,063,37,15,10,043,33*71
$GPGSV,3,2,11,18,52,278,33,20,14,135,25,23,19,347,36,24,12,008,37*79
$GPGSV,3,3,11,25,78,162,35,29,38,191,35,31,16,239,26*44
$GPGLL,1559.36533,S,04802.61621,W,192349.00,A,A*66
$GPGRS,192349.00,1,3.8,4.2,4.0,6.7,4.7,3.7,7.8,0.6,11.7,5.1,3.9,*5B
$GPGST,192349.00,28,,,,2.2,2.5,4.8*52
$GPZDA,192349.00,19,09,2022,00,00*61
$GPGBS,192349.00,2.2,2.5,4.8,,,,*4E
$PUBX,00,192349.00,1559.36533,S,04802.61621,W,1204.548,G3,3.3,4.8,0.162,0.00,-0.037,,0.79,1.
$PUBX,03,12,2,U,160,39,21,000,5,U,106,44,31,001,11,e,139,-1,,000,12,U,063,53,37,008,15,U,043
$GPDTM,W84,,0.0,N,0.0,E,0.0,W84*6F
$GPRMC,192350.00,A,1559.36532,S,04802.61619,W,0.099,,190922,,,A*7C
$GPVTG,,T,,M,0.099,N,0.184,K,A*2E
$GPGGA,192350.00,1559.36532,S,04802.61619,W,1,11,0.79,1216.3,M,-11.7,M,,*42
$GPGSA,A,3,25,12,18,05,02,29,23,31,20,24,15,,1.42,0.79,1.18*01
$GPGSV,3,1,11,02,39,160,24,05,44,106,29,12,53,063,32,15,10,043,28*72
$GPGSV,3,2,11,18,52,278,27,20,14,135,24,23,19,347,35,24,12,008,35*7C
$GPGSV,3,3,11,25,78,162,34,29,38,191,34,31,16,239,27*45
$GPGLL,1559.36532,S,04802.61619,W,192350.00,A,A*64
$GPGRS,192350.00,1,3.1,3.6,3.4,5.7,4.6,3.6,7.1,-0.8,11.1,4.3,3.3,*7C
$GPGST,192350.00,30,,,,2.2,2.5,4.9*52
$GPZDA,192350.00,19,09,2022,00,00*69
$GPGBS,192350.00,2.2,2.5,4.9,,,,*47
$GPDTM,W84,,0.0,N,0.0,E,0.0,W84*6F
$GPRMC,192351.00,A,1559.36530,S,04802.61615,W,0.047,,190922,,,A*70
$GPVTG,,T,,M,0.047,N,0.087,K,A*2F
$GPGGA,192351.00,1559.36530,S,04802.61615,W,1,11,0.79,1216.4,M,-11.7,M,,*4A
$GPGSA,A,3,25,12,18,05,02,29,23,31,20,24,15,,1.42,0.79,1.18*01
$GPGSV,3,1,11,02,39,160,22,05,44,106,34,12,53,063,40,15,10,043,33*77
$GPGSV,3,2,11,18,52,278,35,20,14,135,23,23,19,347,35,24,12,008,36*7B
$GPGSV,3,3,11,25,78,162,39,29,38,191,37,31,16,239,16*49
$GPGLL,1559.36530,S,04802.61615,W,192351.00,A,A*6B
$GPGRS,192351.00,1,3.4,4.0,4.6,6.1,4.1,3.9,7.7,-0.3,10.4,4.8,3.5,*75
$GPGST,192351.00,35,,,,2.2,2.6,4.8*54
$GPZDA,192351.00,19,09,2022,00,00*68
$GPGBS,192351.00,2.2,2.6,4.8,,,,*44
$PUBX,00,192351.00,1559.36530,S,04802.61615,W,1204.703,G3,3.4,4.8,0.087,0.00,-0.058,,0.79,1.
$PUBX,03,12,2,U,160,39,22,000,5,U,106,44,34,000,11,e,139,-1,,000,12,U,063,53,40,010,15,U,043
$PUBX,04,192351.00,190922,156231.00,2228,18,-634880,-3877.768,21*24
$GPDTM,W84,,0.0,N,0.0,E,0.0,W84*6F
$GPRMC,192352.00,A,1559.36531,S,04802.61611,W,0.071,,190922,,,A*73
$GPVTG,,T,,M,0.071,N,0.131,K,A*26
$GPGGA,192352.00,1559.36531,S,04802.61611,W,1,11,0.79,1216.5,M,-11.7,M,,*4D
$GPGSA,A,3,25,12,18,05,02,29,23,31,20,24,15,,1.42,0.79,1.18*01
$GPGSV,3,1,11,02,39,159,26,05,44,106,37,12,53,063,38,15,10,043,34*72
$GPGSV,3,2,11,18,52,278,35,20,14,135,27,23,19,347,36,24,12,008,36*7C
$GPGSV,3,3,11,25,78,162,38,29,38,191,38,31,16,239,16*47
$GPGLL,1559.36531,S,04802.61611,W,192352.00,A,A*6D
$GPGRS,192352.00,1,3.3,3.3,4.7,5.4,0.8,3.2,7.4,-1.2,9.7,3.7,0.4,*46
$GPGST,192352.00,29,,,,2.2,2.6,4.8*5A
$GPZDA,192352.00,19,09,2022,00,00*6B
$GPGBS,192352.00,2.2,2.6,4.8,,,,*47
$PUBX,00,192352.00,1559.36531,S,04802.61611,W,1204.746,G3,3.4,4.8,0.131,0.00,-0.029,,0.79,1.
$PUBX,03,12,2,U,159,39,26,000,5,U,106,44,37,001,11,e,139,-1,,000,12,U,063,53,38,011,15,U,043
$PUBX,04,192352.00,190922,156232.00,2228,18,-638761,-3881.411,21*2C
$GPTXT,01,01,00,txbuf alloc*7F
$GPDTM,W84,,0.0,N,0.0,E,0.0,W84*6F
$GPRMC,192353.00,A,1559.36532,S,04802.61610,W,0.045,,190922,,,A*77
$GPVTG,,T,,M,0.045,N,0.084,K,A*2E
$GPGGA,192353.00,1559.36532,S,04802.61610,W,1,11,0.79,1216.5,M,-11.7,M,,*4E
$GPGSA,A,3,25,12,18,05,02,29,23,31,20,24,15,,1.42,0.79,1.18*01
$GPGSV,3,1,11,02,39,159,28,05,44,106,37,12,53,063,38,15,10,043,34*7C
$GPGSV,3,2,11,18,52,278,35,20,14,135,28,23,19,347,38,24,12,008,33*78
$GPGSV,3,3,11,25,78,162,38,29,38,191,38,31,16,239,15*44
$GPGLL,1559.36532,S,04802.61610,W,192353.00,A,A*6E
$GPGRS,192353.00,1,3.4,3.2,4.7,5.5,0.5,3.1,7.4,-0.1,9.6,3.5,-1.4,*63
$GPGST,192353.00,34,,,,2.2,2.5,4.8*54
$GPZDA,192353.00,19,09,2022,00,00*6A
$GPGBS,192353.00,2.2,2.5,4.8,,,,*45
$PUBX,00,192353.00,1559.36532,S,04802.61610,W,1204.780,G3,3.3,4.8,0.084,0.00,-0.008,,0.79,1.
$PUBX,03,12,2,U,159,39,28,000,5,U,106,44,37,002,11,e,139,-1,,000,12,U,063,53,38,012,15,U,043
$GPDTM,W84,,0.0,N,0.0,E,0.0,W84*6F
$GPRMC,192354.00,A,1559.36535,S,04802.61609,W,0.060,,190922,,,A*78
$GPVTG,,T,,M,0.060,N,0.111,K,A*24
$GPGGA,192354.00,1559.36535,S,04802.61609,W,1,11,0.79,1216.5,M,-11.7,M,,*46
$GPGSA,A,3,25,12,18,05,02,29,23,31,20,24,15,,1.42,0.79,1.18*01
$GPGSV,3,1,11,02,39,159,29,05,44,106,37,12,53,063,38,15,10,043,34*7D
$GPGSV,3,2,11,18,52,278,35,20,14,135,29,23,19,347,35,24,12,008,36*71
$GPGSV,3,3,11,25,78,162,38,29,38,191,38,31,16,239,14*45
$GPGLL,1559.36535,S,04802.61609,W,192354.00,A,A*66
$GPGRS,192354.00,1,2.4,2.7,3.9,4.9,0.6,2.9,7.3,3.2,8.5,3.3,-2.3,*45
$GPGST,192354.00,32,,,,2.1,2.5,4.7*59
$GPZDA,192354.00,19,09,2022,00,00*6D
$GPGBS,192354.00,2.1,2.5,4.7,,,,*4E
$GPDTM,W84,,0.0,N,0.0,E,0.0,W84*6F
$GPRMC,192355.00,A,1559.36537,S,04802.61607,W,0.028,,190922,,,A*79
$GPVTG,,T,,M,0.028,N,0.052,K,A*2E
$GPGGA,192355.00,1559.36537,S,04802.61607,W,1,11,0.79,1216.5,M,-11.7,M,,*4B
$GPGSA,A,3,25,12,18,05,02,29,23,31,20,24,15,,1.42,0.79,1.18*01
$GPGSV,3,1,11,02,39,159,29,05,44,107,37,12,53,063,38,15,10,043,34*7C
$GPGSV,3,2,11,18,52,278,35,20,14,135,29,23,19,347,35,24,12,008,36*71
$GPGSV,3,3,11,25,78,162,38,29,38,191,38,31,16,239,11*40
$GPGLL,1559.36537,S,04802.61607,W,192355.00,A,A*6B
$GPGRS,192355.00,1,2.4,2.1,0.5,4.5,-1.5,2.4,7.3,5.6,7.1,3.6,-1.5,*6A
$GPGST,192355.00,34,,,,2.1,2.5,4.7*5E
$GPZDA,192355.00,19,09,2022,00,00*6C
$GPGBS,192355.00,2.1,2.5,4.7,,,,*4F
$PUBX,00,192355.00,1559.36537,S,04802.61607,W,1204.755,G3,3.3,4.7,0.052,0.00,0.000,,0.79,1.1
$PUBX,03,12,2,U,159,39,29,000,5,U,107,44,37,004,11,e,139,-1,,000,12,U,063,53,38,014,15,U,043
$PUBX,04,192355.00,190922,156235.00,2228,18,-650411,-3880.449,21*2A
$GPDTM,W84,,0.0,N,0.0,E,0.0,W84*6F
$GPRMC,192356.00,A,1559.36539,S,04802.61606,W,0.027,,190922,,,A*7A
$GPVTG,,T,,M,0.027,N,0.051,K,A*22
$GPGGA,192356.00,1559.36539,S,04802.61606,W,1,10,0.99,1216.5,M,-11.7,M,,*48
$GPGSA,A,3,25,12,18,05,02,29,23,20,24,15,,,1.70,0.99,1.38*0E
$GPGSV,3,1,11,02,39,159,29,05,44,107,37,12,53,063,38,15,10,043,34*7C
$GPGSV,3,2,11,18,52,278,35,20,14,135,29,23,19,347,35,24,12,008,36*71
$GPGSV,3,3,11,25,78,162,38,29,38,191,38,31,16,239,09*49
$GPGLL,1559.36539,S,04802.61606,W,192356.00,A,A*67
$GPGRS,192356.00,1,2.4,1.7,1.7,4.3,-1.9,2.6,7.5,8.9,3.4,-2.7,,*48
$GPGST,192356.00,20,,,,2.1,2.5,4.7*58
$GPZDA,192356.00,19,09,2022,00,00*6F
$GPGBS,192356.00,2.1,2.5,4.7,,,,*4C
$PUBX,00,192356.00,1559.36539,S,04802.61606,W,1204.741,G3,3.3,4.7,0.051,0.00,-0.006,,0.99,1.
$PUBX,03,12,2,U,159,39,29,000,5,U,107,44,37,005,11,e,139,-1,,000,12,U,063,53,38,015,15,U,043
$GPDTM,W84,,0.0,N,0.0,E,0.0,W84*6F
$GPRMC,192357.00,A,1559.36542,S,04802.61603,W,0.035,,190922,,,A*71
$GPVTG,,T,,M,0.035,N,0.066,K,A*25
$GPGGA,192357.00,1559.36542,S,04802.61603,W,1,10,0.99,1216.4,M,-11.7,M,,*41
$GPGSA,A,3,25,12,18,05,02,29,23,20,24,15,,,1.70,0.99,1.38*0E
$GPGSV,3,1,11,02,39,159,29,05,44,107,36,12,53,063,39,15,10,043,33*7B
$GPGSV,3,2,11,18,52,278,36,20,14,135,29,23,19,347,35,24,12,008,36*72
$GPGSV,3,3,11,25,78,162,38,29,38,191,38,31,16,239,09*49
$GPGLL,1559.36542,S,04802.61603,W,192357.00,A,A*6F
$GPGRS,192357.00,1,2.5,1.8,0.3,3.9,-1.2,3.0,7.5,10.1,3.6,-0.2,,*77
$GPGST,192357.00,20,,,,2.1,2.5,4.6*58
$GPZDA,192357.00,19,09,2022,00,00*6E
$GPTXT,01,01,00,txbuf alloc*7F
$GPDTM,W84,,0.0,N,0.0,E,0.0,W84*6F
$GPRMC,192358.00,A,1559.36543,S,04802.61603,W,0.009,,190922,,,A*70
$GPVTG,,T,,M,0.009,N,0.017,K,A*2C
$GPGGA,192358.00,1559.36543,S,04802.61603,W,1,10,0.99,1216.4,M,-11.7,M,,*4F
$GPGSA,A,3,25,12,18,05,02,29,23,20,24,15,,,1.70,0.99,1.38*0E
$GPGSV,3,1,11,02,39,159,29,05,44,107,36,12,53,063,39,15,10,043,33*7B
$GPGSV,3,2,11,18,52,278,36,20,14,135,30,23,19,347,36,24,12,008,36*79
$GPGSV,3,3,11,25,78,162,38,29,38,191,38,31,16,239,09*49
$GPGLL,1559.36543,S,04802.61603,W,192358.00,A,A*61
$GPGRS,192358.00,1,2.4,1.5,1.2,3.5,-1.7,2.9,7.2,8.4,3.4,-2.5,,*49
$GPGST,192358.00,19,,,,2.1,2.5,4.6*5D
$GPZDA,192358.00,19,09,2022,00,00*61
$GPGBS,192358.00,2.1,2.5,4.6,,,,*43
$PUBX,00,192358.00,1559.36543,S,04802.61603,W,1204.612,G3,3.2,4.6,0.017,0.00,0.008,,0.99,1.3
$GPDTM,W84,,0.0,N,0.0,E,0.0,W84*6F
$GPRMC,192359.00,A,1559.36544,S,04802.61603,W,0.007,,190922,,,A*78
$GPVTG,,T,,M,0.007,N,0.012,K,A*27
$GPGGA,192359.00,1559.36544,S,04802.61603,W,1,10,0.99,1216.3,M,-11.7,M,,*4E
$GPGSA,A,3,25,12,18,05,02,29,23,20,24,15,,,1.69,0.99,1.38*06
$GPGSV,3,1,11,02,39,159,29,05,44,107,36,12,53,063,39,15,10,043,33*7B
$GPGSV,3,2,11,18,52,278,36,20,14,135,29,23,19,347,35,24,12,008,35*71
$GPGSV,3,3,11,25,78,162,38,29,38,191,38,31,16,239,09*49
$GPGLL,1559.36544,S,04802.61603,W,192359.00,A,A*67
$GPGRS,192359.00,1,2.4,1.3,1.6,3.6,-1.6,2.6,7.1,7.6,3.2,-3.1,,*4A
$GPGST,192359.00,20,,,,2.1,2.4,4.6*57
$GPZDA,192359.00,19,09,2022,00,00*60
$GPGBS,192359.00,2.1,2.4,4.6,,,,*43
$PUBX,00,192359.00,1559.36544,S,04802.61603,W,1204.600,G3,3.2,4.6,0.012,0.00,0.012,,0.99,1.3
$PUBX,03,12,2,U,159,39,29,000,5,U,107,44,36,008,11,e,139,-1,,000,12,U,063,53,39,018,15,U,043
$PUBX,04,192359.00,190922,156239.00,2228,18,-665927,-3870.553,21*21
$GPDTM,W84,,0.0,N,0.0,E,0.0,W84*6F
$GPRMC,192400.00,A,1559.36545,S,04802.61604,W,0.011,,190922,,,A*72
$GPVTG,,T,,M,0.011,N,0.020,K,A*21
$GPGGA,192400.00,1559.36545,S,04802.61604,W,1,10,0.99,1216.4,M,-11.7,M,,*44
$GPGSA,A,3,25,12,18,05,02,29,23,20,24,15,,,1.69,0.99,1.38*06
$GPGSV,3,1,11,02,39,159,28,05,44,107,36,12,53,063,38,15,10,043,34*7C
$GPGSV,3,2,11,18,52,278,36,20,14,135,29,23,19,347,35,24,12,008,35*71
$GPGSV,3,3,11,25,78,162,38,29,38,191,38,31,16,239,09*49
$GPGLL,1559.36545,S,04802.61604,W,192400.00,A,A*6A
$GPGRS,192400.00,1,2.7,1.5,2.2,3.7,-1.2,2.4,7.2,7.2,3.1,-1.5,,*46
$GPGST,192400.00,20,,,,2.1,2.4,4.5*5F
$GPZDA,192400.00,19,09,2022,00,00*6B
$GPGBS,192400.00,2.1,2.4,4.5,,,,*4B
$GPDTM,W84,,0.0,N,0.0,E,0.0,W84*6F
$GPRMC,192401.00,A,1559.36546,S,04802.61604,W,0.011,,190922,,,A*70
$GPVTG,,T,,M,0.011,N,0.021,K,A*20
$GPGGA,192401.00,1559.36546,S,04802.61604,W,1,10,0.99,1216.4,M,-11.7,M,,*46
$GPGSA,A,3,25,12,18,05,02,29,23,20,24,15,,,1.69,0.99,1.38*06
$GPGSV,3,1,11,02,39,159,29,05,44,107,36,12,53,063,39,15,10,043,34*7C
$GPGSV,3,2,11,18,52,278,36,20,14,135,28,23,19,347,35,24,12,008,35*70
$GPGSV,3,3,11,25,78,162,38,29,38,191,38,31,16,239,09*49
$GPGLL,1559.36546,S,04802.61604,W,192401.00,A,A*68
$GPGRS,192401.00,1,2.7,1.3,1.6,3.5,-2.4,2.5,7.3,8.1,3.3,-2.3,,*4A
$GPGST,192401.00,20,,,,2.1,2.4,4.5*5E
$GPZDA,192401.00,19,09,2022,00,00*6A
$GPGBS,192401.00,2.1,2.4,4.5,,,,*4A
$PUBX,00,192401.00,1559.36546,S,04802.61604,W,1204.611,G3,3.2,4.5,0.021,0.00,0.003,,0.99,1.3
$PUBX,03,12,2,U,159,39,29,000,5,U,107,44,36,010,11,e,138,-2,,000,12,U,063,53,39,020,15,U,043
$GPDTM,W84,,0.0,N,0.0,E,0.0,W84*6F
$GPRMC,192402.00,A,1559.36547,S,04802.61606,W,0.014,,190922,,,A*75
$GPVTG,,T,,M,0.014,N,0.027,K,A*23
$GPGGA,192402.00,1559.36547,S,04802.61606,W,1,11,0.79,1216.3,M,-11.7,M,,*4E
$GPGSA,A,3,25,12,18,05,02,29,23,31,20,24,15,,1.42,0.79,1.18*01
$GPGSV,3,1,11,02,39,159,28,05,44,107,36,12,53,062,39,15,10,043,34*7C
$GPGSV,3,2,11,18,52,278,36,20,14,135,28,23,19,347,35,24,12,008,35*70
$GPGSV,3,3,11,25,78,162,38,29,38,191,38,31,16,239,18*49
$GPGLL,1559.36547,S,04802.61606,W,192402.00,A,A*68
$GPGRS,192402.00,1,2.5,0.9,1.5,3.4,-3.5,2.2,7.2,14.0,8.8,3.1,-1.3,*57
$GPGST,192402.00,27,,,,2.1,2.4,4.5*5A
$GPZDA,192402.00,19,09,2022,00,00*69
$GPGBS,192402.00,2.1,2.4,4.5,,,,*49
$PUBX,00,192402.00,1559.36547,S,04802.61606,W,1204.545,G3,3.2,4.5,0.027,0.00,0.022,,0.79,1.1
$PUBX,03,12,2,U,159,39,28,000,5,U,107,44,36,011,11,e,138,-2,,000,12,U,062,53,39,021,15,U,043
$PUBX,04,192402.00,190922,156242.00,2228,18,-677540,-3868.388,21*23
$GPTXT,01,01,00,txbuf alloc*7F
$GPDTM,W84,,0.0,N,0.0,E,0.0,W84*6F
$GPRMC,192403.00,A,1559.36549,S,04802.61608,W,0.034,,190922,,,A*76
$GPVTG,,T,,M,0.034,N,0.064,K,A*26
$GPGGA,192403.00,1559.36549,S,04802.61608,W,1,11,0.79,1216.2,M,-11.7,M,,*4E
$GPGSA,A,3,25,12,18,05,02,29,23,31,20,24,15,,1.42,0.79,1.18*01
$GPGSV,3,1,11,02,39,159,28,05,44,107,36,12,53,062,39,15,10,043,34*7C
$GPGSV,3,2,11,18,52,278,36,20,14,135,28,23,19,347,35,24,12,008,35*70
$GPGSV,3,3,11,25,78,162,38,29,38,191,38,31,16,239,18*49
$GPGLL,1559.36549,S,04802.61608,W,192403.00,A,A*69
$GPGRS,192403.00,1,2.1,0.2,1.3,3.1,-3.3,1.8,6.7,11.8,9.3,2.9,-1.2,*5E
$GPGST,192403.00,27,,,,2.0,2.4,4.5*5A
$GPZDA,192403.00,19,09,2022,00,00*68
$GPGBS,192403.00,2.0,2.4,4.5,,,,*49
$PUBX,00,192403.00,1559.36549,S,04802.61608,W,1204.478,G3,3.1,4.5,0.064,0.00,0.018,,0.79,1.1
$PUBX,03,12,2,U,159,39,28,000,5,U,107,44,36,012,11,e,138,-2,,000,12,U,062,53,39,022,15,U,043
$PUBX,04,192403.00,190922,156243.00,2228,18,-681405,-3861.491,21*2C
$GPDTM,W84,,0.0,N,0.0,E,0.0,W84*6F
$GPRMC,192404.00,A,1559.36550,S,04802.61609,W,0.026,,190922,,,A*7B
$GPVTG,,T,,M,0.026,N,0.049,K,A*2A
$GPGGA,192404.00,1559.36550,S,04802.61609,W,1,11,0.79,1216.1,M,-11.7,M,,*43
$GPGSA,A,3,25,12,18,05,02,29,23,31,20,24,15,,1.42,0.79,1.18*01
$GPGSV,3,1,11,02,39,159,29,05,44,107,36,12,53,062,38,15,10,043,34*7C
$GPGSV,3,2,11,18,52,278,35,20,14,135,28,23,19,347,35,24,12,008,35*73
$GPGSV,3,3,11,25,78,162,38,29,38,191,38,31,16,239,18*49
$GPGLL,1559.36550,S,04802.61609,W,192404.00,A,A*67
$GPGRS,192404.00,1,2.2,0.6,1.7,3.5,-1.4,1.3,6.7,12.2,9.3,2.8,-1.4,*5E
$GPGST,192404.00,26,,,,2.0,2.4,4.4*5D
$GPZDA,192404.00,19,09,2022,00,00*6F
$GPGBS,192404.00,2.0,2.4,4.4,,,,*4F
$GPDTM,W84,,0.0,N,0.0,E,0.0,W84*6F
$GPRMC,192405.00,A,1559.36552,S,04802.61610,W,0.037,,190922,,,A*70
$GPVTG,,T,,M,0.037,N,0.068,K,A*29
$GPGGA,192405.00,1559.36552,S,04802.61610,W,1,11,0.79,1216.0,M,-11.7,M,,*49
$GPGSA,A,3,25,12,18,05,02,29,23,31,20,24,15,,1.42,0.79,1.18*01
$GPGSV,3,1,11,02,39,159,28,05,44,107,37,12,53,062,39,15,10,043,34*7D
$GPGSV,3,2,11,18,52,278,35,20,14,135,27,23,19,347,36,24,12,008,35*7F
$GPGSV,3,3,11,25,78,162,38,29,38,191,38,31,16,239,18*49
$GPGLL,1559.36552,S,04802.61610,W,192405.00,A,A*6C
$GPGRS,192405.00,1,2.4,0.8,1.8,3.8,0.0,1.5,6.5,15.4,9.2,3.3,-1.1,*76
$GPGST,192405.00,27,,,,2.0,2.4,4.4*5D
$GPZDA,192405.00,19,09,2022,00,00*6E
$GPGBS,192405.00,2.0,2.4,4.4,,,,*4E
$PUBX,00,192405.00,1559.36552,S,04802.61610,W,1204.298,G3,3.1,4.4,0.068,0.00,0.042,,0.79,1.1
$PUBX,03,12,2,U,159,39,28,000,5,U,107,44,37,014,11,e,138,-2,,000,12,U,062,53,39,024,15,U,043
$PUBX,04,192405.00,190922,156245.00,2228,18,-689129,-3859.673,21*2A
$GPDTM,W84,,0.0,N,0.0,E,0.0,W84*6F
$GPRMC,192406.00,A,1559.36554,S,04802.61612,W,0.078,,190922,,,A*7C
$GPVTG,,T,,M,0.078,N,0.144,K,A*2D
$GPGGA,192406.00,1559.36554,S,04802.61612,W,1,11,0.79,1216.0,M,-11.7,M,,*4E
$GPGSA,A,3,25,12,18,05,02,29,23,31,20,24,15,,1.42,0.79,1.18*01
$GPGSV,3,1,11,02,39,159,28,05,44,107,37,12,53,062,39,15,10,043,34*7D
$GPGSV,3,2,11,18,52,278,35,20,14,135,28,23,19,347,36,24,12,008,35*70
$GPGSV,3,3,11,25,78,162,38,29,38,191,38,31,16,239,18*49
$GPGLL,1559.36554,S,04802.61612,W,192406.00,A,A*6B
$GPGRS,192406.00,1,2.2,0.6,1.3,2.9,-1.9,1.2,5.9,16.3,7.0,3.3,-1.3,*51
$GPGST,192406.00,26,,,,2.0,2.3,4.4*58
$GPZDA,192406.00,19,09,2022,00,00*6D
$GPGBS,192406.00,2.0,2.3,4.4,,,,*4A
$PUBX,00,192406.00,1559.36554,S,04802.61612,W,1204.228,G3,3.1,4.4,0.144,0.00,0.036,,0.79,1.1
$PUBX,03,12,2,U,159,39,28,000,5,U,107,44,37,015,11,e,138,-2,,000,12,U,062,53,39,025,15,U,043
$GPDTM,W84,,0.0,N,0.0,E,0.0,W84*6F
$GPRMC,192407.00,A,1559.36539,S,04802.61618,W,0.779,344.95,190922,,,A*6B
$GPVTG,344.95,T,,M,0.779,N,1.442,K,A*38
$GPGGA,192407.00,1559.36539,S,04802.61618,W,1,11,0.79,1216.0,M,-11.7,M,,*4E
$GPGSA,A,3,25,12,18,05,02,29,23,31,20,24,15,,1.42,0.79,1.18*01
$GPGSV,3,1,11,02,39,159,28,05,44,107,36,12,53,062,39,15,10,043,35*7D
$GPGSV,3,2,11,18,52,278,35,20,14,135,26,23,19,347,36,24,12,008,35*7E
$GPGSV,3,3,11,25,78,162,38,29,38,191,38,31,16,239,18*49
$GPGLL,1559.36539,S,04802.61618,W,192407.00,A,A*6B
$GPGRS,192407.00,1,1.5,0.3,1.1,2.9,-0.7,1.0,5.4,16.3,5.5,3.2,-1.5,*53
$GPGST,192407.00,28,,,,2.0,2.3,4.4*57
$GPZDA,192407.00,19,09,2022,00,00*6C
$GPTXT,01,01,00,txbuf alloc*7F
$GPDTM,W84,,0.0,N,0.0,E,0.0,W84*6F
$GPRMC,192408.00,A,1559.36508,S,04802.61627,W,1.328,348.22,190922,,,A*6B
$GPVTG,348.22,T,,M,1.328,N,2.460,K,A*3A
$GPGGA,192408.00,1559.36508,S,04802.61627,W,1,11,0.79,1215.9,M,-11.7,M,,*45
$GPGSA,A,3,25,12,18,05,02,29,23,31,20,24,15,,1.42,0.79,1.18*01
$GPGSV,3,1,11,02,39,159,28,05,44,107,34,12,53,062,37,15,10,043,37*73
$GPGSV,3,2,11,18,52,277,36,20,14,135,27,23,19,347,36,24,12,008,35*73
$GPGSV,3,3,11,25,78,162,38,29,38,191,38,31,16,239,14*45
$GPGLL,1559.36508,S,04802.61627,W,192408.00,A,A*6A
$GPGRS,192408.00,1,1.6,0.8,1.1,3.0,0.4,1.4,5.4,14.4,5.1,3.6,-1.3,*75
$GPGST,192408.00,33,,,,2.0,2.3,4.4*52
$GPZDA,192408.00,19,09,2022,00,00*63
$GPGBS,192408.00,2.0,2.3,4.4,,,,*44
$GPDTM,W84,,0.0,N,0.0,E,0.0,W84*6F
$GPRMC,192409.00,A,1559.36456,S,04802.61636,W,2.138,349.98,190922,,,A*60
$GPVTG,349.98,T,,M,2.138,N,3.960,K,A*36
$GPGGA,192409.00,1559.36456,S,04802.61636,W,1,11,0.79,1215.9,M,-11.7,M,,*4E
$GPGSA,A,3,25,12,18,05,02,29,23,31,20,24,15,,1.42,0.79,1.18*01
$GPGSV,3,1,11,02,39,159,29,05,44,107,35,12,53,062,37,15,10,043,38*7C
$GPGSV,3,2,11,18,52,277,36,20,14,135,28,23,19,347,35,24,12,008,34*7E
$GPGSV,3,3,11,25,78,162,38,29,38,191,39,31,16,239,14*44
$GPGLL,1559.36456,S,04802.61636,W,192409.00,A,A*61
$GPGRS,192409.00,1,2.0,1.2,1.5,3.0,2.8,1.4,5.6,12.9,5.5,3.6,-1.5,*7B
$GPGST,192409.00,33,,,,2.0,2.3,4.3*54
$GPZDA,192409.00,19,09,2022,00,00*62
$GPGBS,192409.00,2.0,2.3,4.3,,,,*42
$PUBX,00,192409.00,1559.36456,S,04802.61636,W,1204.170,G3,3.1,4.3,3.960,349.98,0.029,,0.79,1
$PUBX,03,12,2,U,159,39,29,000,5,U,107,44,35,000,11,e,138,-2,,000,12,U,062,53,37,000,15,U,043
$PUBX,04,192409.00,190922,156249.00,2228,18,-704540,-3838.474,21*27
$GPDTM,W84,,0.0,N,0.0,E,0.0,W84*6F
$GPRMC,192410.00,A,1559.36374,S,04802.61650,W,3.289,351.11,190922,,,A*6F
$GPVTG,351.11,T,,M,3.289,N,6.092,K,A*37
$GPGGA,192410.00,1559.36374,S,04802.61650,W,1,11,0.79,1215.9,M,-11.7,M,,*41
$GPGSA,A,3,25,12,18,05,02,29,23,31,20,24,15,,1.42,0.79,1.18*01
$GPGSV,3,1,11,02,39,159,30,05,44,107,35,12,53,062,37,15,10,043,37*7B
$GPGSV,3,2,11,18,52,277,35,20,14,136,28,23,19,347,36,24,12,008,34*7D
$GPGSV,3,3,11,25,78,162,38,29,38,191,38,31,16,239,14*45
$GPGLL,1559.36374,S,04802.61650,W,192410.00,A,A*6E
$GPGRS,192410.00,1,1.5,1.0,1.3,2.7,2.1,0.9,4.7,16.6,4.4,3.3,-1.9,*70
$GPGST,192410.00,32,,,,2.0,2.4,4.3*5A
$GPZDA,192410.00,19,09,2022,00,00*6A
$GPGBS,192410.00,2.0,2.4,4.3,,,,*4D
$PUBX,00,192410.00,1559.36374,S,04802.61650,W,1204.136,G3,3.1,4.3,6.092,351.11,0.040,,0.79,1
$GPDTM,W84,,0.0,N,0.0,E,0.0,W84*6F
$GPRMC,192411.00,A,1559.36276,S,04802.61660,W,3.624,353.45,190922,,,A*6E
$GPVTG,353.45,T,,M,3.624,N,6.712,K,A*38
$GPGGA,192411.00,1559.36276,S,04802.61660,W,1,11,0.79,1216.0,M,-11.7,M,,*4A
$GPGSA,A,3,25,12,18,05,02,29,23,31,20,24,15,,1.42,0.79,1.18*01
$GPGSV,3,1,11,02,39,159,30,05,44,107,34,12,53,062,38,15,10,043,37*75
$GPGSV,3,2,11,18,52,277,36,20,14,136,27,23,19,347,35,24,12,008,36*70
$GPGSV,3,3,11,25,78,162,39,29,38,191,38,31,16,239,15*45
$GPGLL,1559.36276,S,04802.61660,W,192411.00,A,A*6F
$GPGRS,192411.00,1,2.2,1.8,1.7,3.8,3.4,1.6,5.5,16.5,4.4,4.0,-1.1,*71
$GPGST,192411.00,31,,,,2.0,2.4,4.3*58
$GPZDA,192411.00,19,09,2022,00,00*6B
$GPGBS,192411.00,2.0,2.4,4.3,,,,*4C
$PUBX,00,192411.00,1559.36276,S,04802.61660,W,1204.221,G3,3.1,4.3,6.712,353.45,-0.017,,0.79,
$PUBX,03,12,2,U,159,39,30,000,5,U,107,44,34,000,11,e,138,-2,,000,12,U,062,53,38,002,15,U,043
$GPDTM,W84,,0.0,N,0.0,E,0.0,W84*6F
$GPRMC,192412.00,A,1559.36167,S,04802.61662,W,3.989,358.07,190922,,,A*69
$GPVTG,358.07,T,,M,3.989,N,7.388,K,A*3B
$GPGGA,192412.00,1559.36167,S,04802.61662,W,1,11,0.79,1216.0,M,-11.7,M,,*48
$GPGSA,A,3,25,12,18,05,02,29,23,31,20,24,15,,1.42,0.79,1.18*01
$GPGSV,3,1,11,02,39,159,29,05,44,107,36,12,53,062,38,15,10,043,33*7B
$GPGSV,3,2,11,18,52,277,36,20,14,136,26,23,19,347,37,24,12,008,36*73
$GPGSV,3,3,11,25,78,162,39,29,38,191,37,31,16,239,18*47
$GPGLL,1559.36167,S,04802.61662,W,192412.00,A,A*6D
$GPGRS,192412.00,1,2.6,2.7,2.3,5.0,3.5,2.3,6.1,17.6,6.9,5.0,-0.3,*7C
$GPGST,192412.00,27,,,,2.0,2.4,4.3*5C
$GPZDA,192412.00,19,09,2022,00,00*68
$GPGBS,192412.00,2.0,2.4,4.3,,,,*4F
$PUBX,00,192412.00,1559.36167,S,04802.61662,W,1204.241,G3,3.1,4.3,7.388,358.07,-0.020,,0.79,
$PUBX,03,12,2,U,159,39,29,000,5,U,107,44,36,001,11,e,138,-2,,000,12,U,062,53,38,003,15,U,043
$GPTXT,01,01,00,txbuf alloc*7F
$GPDTM,W84,,0.0,N,0.0,E,0.0,W84*6F
$GPRMC,192413.00,A,1559.36047,S,04802.61662,W,4.494,0.11,190922,,,A*64
$GPVTG,0.11,T,,M,4.494,N,8.322,K,A*3B
$GPGGA,192413.00,1559.36047,S,04802.61662,W,1,11,0.79,1216.0,M,-11.7,M,,*4A
$GPGSA,A,3,25,12,18,05,02,29,23,31,20,24,15,,1.42,0.79,1.18*01
$GPGSV,3,1,11,02,39,159,27,05,44,107,34,12,53,062,38,15,10,043,33*77
$GPGSV,3,2,11,18,52,277,40,20,14,136,28,23,20,347,35,24,12,008,32*70
$GPGSV,3,3,11,25,78,162,38,29,38,191,36,31,16,239,21*4D
$GPGLL,1559.36047,S,04802.61662,W,192413.00,A,A*6F
$GPGRS,192413.00,1,2.0,2.6,2.0,4.9,5.0,2.3,5.8,16.0,7.3,5.1,-0.1,*77
$GPGST,192413.00,26,,,,2.0,2.3,4.3*5B
$GPZDA,192413.00,19,09,2022,00,00*69
$GPGBS,192413.00,2.0,2.3,4.3,,,,*49
$PUBX,00,192413.00,1559.36047,S,04802.61662,W,1204.212,G3,3.1,4.3,8.322,0.11,-0.002,,0.79,1.
$PUBX,03,12,2,U,159,39,27,000,5,U,107,44,34,002,11,e,138,-2,,000,12,U,062,53,38,004,15,U,043
$PUBX,04,192413.00,190922,156253.00,2228,18,-719804,-3801.260,21*2F
$GPDTM,W84,,0.0,N,0.0,E,0.0,W84*6F
$GPRMC,192414.00,A,1559.35923,S,04802.61659,W,4.475,1.46,190922,,,A*6F
$GPVTG,1.46,T,,M,4.475,N,8.287,K,A*39
$GPGGA,192414.00,1559.35923,S,04802.61659,W,1,11,0.79,1215.9,M,-11.7,M,,*47
$GPGSA,A,3,25,12,18,05,02,29,23,31,20,24,15,,1.42,0.79,1.18*01
$GPGSV,3,1,11,02,39,159,28,05,44,107,34,12,53,062,38,15,10,043,36*7D
$GPGSV,3,2,11,18,52,277,40,20,14,136,28,23,20,347,35,24,11,009,31*71
$GPGSV,3,3,11,25,78,162,38,29,38,191,35,31,16,239,24*4B
$GPGLL,1559.35923,S,04802.61659,W,192414.00,A,A*68
$GPGRS,192414.00,1,1.9,2.5,1.3,4.7,4.7,2.3,5.2,12.0,6.6,4.8,-0.6,*74
$GPGST,192414.00,24,,,,2.0,2.3,4.3*5E
$GPZDA,192414.00,19,09,2022,00,00*6E
$GPGBS,192414.00,2.0,2.3,4.3,,,,*4E
$PUBX,00,192414.00,1559.35923,S,04802.61659,W,1204.153,G3,3.1,4.3,8.287,1.46,0.028,,0.79,1.1
$GPDTM,W84,,0.0,N,0.0,E,0.0,W84*6F
$GPRMC,192415.00,A,1559.35786,S,04802.61653,W,5.084,2.01,190922,,,A*6E
$GPVTG,2.01,T,,M,5.084,N,9.416,K,A*3D
$GPGGA,192415.00,1559.35786,S,04802.61653,W,1,11,0.79,1215.8,M,-11.7,M,,*4C
$GPGSA,A,3,25,12,18,05,02,29,23,31,20,24,15,,1.42,0.79,1.18*01
$GPGSV,3,1,11,02,39,159,29,05,44,107,34,12,53,062,38,15,10,043,33*79
$GPGSV,3,2,11,18,52,277,41,20,14,136,29,23,20,347,38,24,11,009,31*7C
$GPGSV,3,3,11,25,78,161,39,29,38,191,35,31,16,239,24*49
$GPGLL,1559.35786,S,04802.61653,W,192415.00,A,A*62
$GPGRS,192415.00,1,1.2,1.6,0.6,4.2,2.2,1.6,4.3,8.6,7.5,4.5,-1.5,*4A
$GPGST,192415.00,24,,,,2.0,2.3,4.3*5F
$GPZDA,192415.00,19,09,2022,00,00*6F
$GPGBS,192415.00,2.0,2.3,4.3,,,,*4F
$PUBX,00,192415.00,1559.35786,S,04802.61653,W,1204.104,G3,3.1,4.3,9.416,2.01,0.019,,0.79,1.1
$PUBX,03,12,2,U,159,39,29,000,5,U,107,44,34,000,11,e,138,-2,,000,12,U,062,53,38,000,15,U,043
$PUBX,04,192415.00,190922,156255.00,2228,18,-727352,-3744.438,21*2F
$GPDTM,W84,,0.0,N,0.0,E,0.0,W84*6F
$GPRMC,192416.00,A,1559.35636,S,04802.61649,W,5.549,1.65,190922,,,A*69
$GPVTG,1.65,T,,M,5.549,N,10.276,K,A*00
$GPGGA,192416.00,1559.35636,S,04802.61649,W,1,11,0.79,1215.8,M,-11.7,M,,*4E
$GPGSA,A,3,25,12,18,05,02,29,23,31,20,24,15,,1.42,0.79,1.18*01
$GPGSV,3,1,11,02,39,159,29,05,44,107,34,12,53,062,38,15,10,043,34*7E
$GPGSV,3,2,11,18,52,277,40,20,14,136,30,23,20,347,36,24,11,009,32*78
$GPGSV,3,3,11,25,78,161,39,29,38,191,35,31,16,239,25*48
$GPGLL,1559.35636,S,04802.61649,W,192416.00,A,A*60
$GPGRS,192416.00,1,2.9,3.1,1.9,5.2,3.7,2.7,5.3,7.1,8.7,6.0,-0.1,*4B
$GPGST,192416.00,23,,,,2.1,2.3,4.3*5A
$GPZDA,192416.00,19,09,2022,00,00*6C
$GPGBS,192416.00,2.1,2.3,4.3,,,,*4D
$GPDTM,W84,,0.0,N,0.0,E,0.0,W84*6F
$GPRMC,192417.00,A,1559.35471,S,04802.61647,W,6.064,0.92,190922,,,A*67
$GPVTG,0.92,T,,M,6.064,N,11.230,K,A*03
$GPGGA,192417.00,1559.35471,S,04802.61647,W,1,11,0.79,1215.7,M,-11.7,M,,*4F
$GPGSA,A,3,25,12,18,05,02,29,23,31,20,24,15,,1.42,0.79,1.18*01
$GPGSV,3,1,11,02,39,159,27,05,44,107,35,12,53,062,38,15,10,043,33*76
$GPGSV,3,2,11,18,52,277,41,20,14,136,29,23,20,347,37,24,11,009,33*71
$GPGSV,3,3,11,25,78,161,39,29,38,191,35,31,16,239,26*4B
$GPGLL,1559.35471,S,04802.61647,W,192417.00,A,A*6E
$GPGRS,192417.00,1,3.7,3.8,2.4,5.2,5.3,3.4,6.2,6.3,8.2,7.0,0.0,*6B
$GPGST,192417.00,23,,,,2.1,2.3,4.4*5C
$GPZDA,192417.00,19,09,2022,00,00*6D
$GPTXT,01,01,00,txbuf alloc*7F
$GPDTM,W84,,0.0,N,0.0,E,0.0,W84*6F
$GPRMC,192418.00,A,1559.35299,S,04802.61643,W,6.197,0.75,190922,,,A*68
$GPVTG,0.75,T,,M,6.197,N,11.476,K,A*03
$GPGGA,192418.00,1559.35299,S,04802.61643,W,1,11,0.79,1215.6,M,-11.7,M,,*45
$GPGSA,A,3,25,12,18,05,02,29,23,31,20,24,15,,1.42,0.79,1.18*01
$GPGSV,3,1,11,02,39,159,26,05,44,107,35,12,53,062,38,15,10,043,32*76
$GPGSV,3,2,11,18,52,277,41,20,14,136,28,23,20,347,37,24,11,009,33*70
$GPGSV,3,3,11,25,78,161,39,29,38,191,35,31,16,239,26*4B
$GPGLL,1559.35299,S,04802.61643,W,192418.00,A,A*65
$GPGRS,192418.00,1,4.1,4.5,2.2,5.4,7.7,3.4,6.5,3.0,8.5,7.6,0.8,*61
$GPGST,192418.00,24,,,,2.2,2.3,4.4*57
$GPZDA,192418.00,19,09,2022,00,00*62
$GPGBS,192418.00,2.2,2.3,4.4,,,,*47
$PUBX,00,192418.00,1559.35299,S,04802.61643,W,1203.876,G3,3.1,4.4,11.476,0.75,0.113,,0.79,1.
$GPDTM,W84,,0.0,N,0.0,E,0.0,W84*6F
$GPRMC,192419.00,A,1559.35113,S,04802.61632,W,6.803,2.08,190922,,,A*62
$GPVTG,2.08,T,,M,6.803,N,12.599,K,A*0C
$GPGGA,192419.00,1559.35113,S,04802.61632,W,1,11,0.79,1215.6,M,-11.7,M,,*43
$GPGSA,A,3,25,12,18,05,02,29,23,31,20,24,15,,1.42,0.79,1.18*01
$GPGSV,3,1,11,02,39,159,26,05,44,107,34,12,53,062,38,15,10,043,36*73
$GPGSV,3,2,11,18,52,277,41,20,14,136,29,23,20,347,35,24,11,009,32*72
$GPGSV,3,3,11,25,78,161,39,29,38,190,35,31,16,239,26*4A
$GPGLL,1559.35113,S,04802.61632,W,192419.00,A,A*63
$GPGRS,192419.00,1,4.8,5.2,3.0,5.9,11.6,4.2,7.4,0.2,8.4,8.8,1.9,*57
$GPGST,192419.00,27,,,,2.2,2.3,4.5*54
$GPZDA,192419.00,19,09,2022,00,00*63
$GPGBS,192419.00,2.2,2.3,4.5,,,,*47
$PUBX,00,192419.00,1559.35113,S,04802.61632,W,1203.818,G3,3.2,4.5,12.599,2.08,0.123,,0.79,1.
$PUBX,03,12,2,U,159,39,26,000,5,U,107,44,34,000,11,e,138,-2,,000,12,U,062,53,38,000,15,U,043
$GPDTM,W84,,0.0,N,0.0,E,0.0,W84*6F
$GPRMC,192420.00,A,1559.34917,S,04802.61601,W,7.035,9.29,190922,,,A*61
$GPVTG,9.29,T,,M,7.035,N,13.029,K,A*07
$GPGGA,192420.00,1559.34917,S,04802.61601,W,1,11,0.79,1215.8,M,-11.7,M,,*4A
$GPGSA,A,3,25,12,18,05,02,29,23,31,20,24,15,,1.42,0.79,1.18*01
$GPGSV,3,1,11,02,39,159,27,05,44,107,32,12,53,062,38,15,10,043,32*70
$GPGSV,3,2,11,18,52,277,41,20,14,136,29,23,20,347,40,24,11,009,32*70
$GPGSV,3,3,11,25,78,161,39,29,38,190,35,31,16,239,26*4A
$GPGLL,1559.34917,S,04802.61601,W,192420.00,A,A*64
$GPGRS,192420.00,1,6.3,6.6,5.0,7.7,11.8,5.6,8.5,1.5,9.2,10.5,3.3,*61
$GPGST,192420.00,26,,,,2.2,2.3,4.5*5F
$GPZDA,192420.00,19,09,2022,00,00*69
$GPGBS,192420.00,2.2,2.3,4.5,,,,*4D
$PUBX,00,192420.00,1559.34917,S,04802.61601,W,1204.015,G3,3.2,4.5,13.029,9.29,0.035,,0.79,1.
$PUBX,03,12,2,U,159,39,27,000,5,U,107,44,32,000,11,e,138,-2,,000,12,U,062,53,38,000,15,U,043
$GPDTM,W84,,0.0,N,0.0,E,0.0,W84*6F
$GPRMC,192421.00,A,1559.34721,S,04802.61569,W,6.988,9.38,190922,,,A*68
$GPVTG,9.38,T,,M,6.988,N,12.942,K,A*0C
$GPGGA,192421.00,1559.34721,S,04802.61569,W,1,11,0.79,1216.0,M,-11.7,M,,*46
$GPGSA,A,3,25,12,18,05,02,29,23,31,20,24,15,,1.42,0.79,1.18*01
$GPGSV,3,1,11,02,39,159,28,05,44,107,32,12,53,062,38,15,10,043,27*7B
$GPGSV,3,2,11,18,52,277,41,20,14,136,29,23,20,347,37,24,11,009,31*73
$GPGSV,3,3,11,25,78,161,39,29,38,190,34,31,16,239,27*4A
$GPGLL,1559.34721,S,04802.61569,W,192421.00,A,A*63
$GPGRS,192421.00,1,6.8,7.4,5.9,8.3,11.3,5.9,8.6,-0.7,10.0,11.5,4.0,*7C
$GPGST,192421.00,26,,,,2.3,2.3,4.5*5F
$GPZDA,192421.00,19,09,2022,00,00*68
$GPGBS,192421.00,2.3,2.3,4.5,,,,*4D
$PUBX,00,192421.00,1559.34721,S,04802.61569,W,1204.216,G3,3.2,4.5,12.942,9.38,0.003,,0.79,1.
$PUBX,03,12,2,U,159,39,28,000,5,U,107,44,32,000,11,e,138,-2,,000,12,U,062,53,38,000,15,U,043
$PUBX,04,192421.00,190922,156261.00,2228,18,-749268,-3596.394,21*23
$GPDTM,W84,,0.0,N,0.0,E,0.0,W84*6F
$GPRMC,192422.00,A,1559.34529,S,04802.61537,W,6.873,9.60,190922,,,A*62
$GPVTG,9.60,T,,M,6.873,N,12.729,K,A*07
$GPGGA,192422.00,1559.34529,S,04802.61537,W,1,10,0.84,1216.1,M,-11.7,M,,*46
$GPGSA,A,3,25,12,18,05,02,29,23,31,20,24,,,1.50,0.84,1.25*0A
$GPGSV,3,1,11,02,39,159,28,05,44,107,32,12,53,062,38,15,10,043,*7E
$GPGSV,3,2,11,18,52,277,41,20,14,136,29,23,20,347,38,24,11,009,30*7D
$GPGSV,3,3,11,25,78,161,38,29,38,190,35,31,16,239,27*4A
$GPGLL,1559.34529,S,04802.61537,W,192422.00,A,A*61
$GPGRS,192422.00,1,6.5,7.4,6.1,8.2,8.9,5.6,7.9,-1.2,9.0,11.2,,*54
$GPGST,192422.00,24,,,,2.3,2.3,4.5*5E
$GPZDA,192422.00,19,09,2022,00,00*6B
$GPGBS,192422.00,2.3,2.3,4.5,,,,*4E
$PUBX,00,192422.00,1559.34529,S,04802.61537,W,1204.378,G3,3.2,4.5,12.729,9.60,-0.013,,0.84,1
$PUBX,03,12,2,U,159,39,28,000,5,U,107,44,32,000,11,e,138,-2,,000,12,U,062,53,38,000,15,e,043
$PUBX,04,192422.00,190922,156262.00,2228,18,-752857,-3582.432,21*21
$GPTXT,01,01,00,txbuf alloc*7F
$GPDTM,W84,,0.0,N,0.0,E,0.0,W84*6F
$GPRMC,192423.00,A,1559.34342,S,04802.61508,W,6.690,9.06,190922,,,A*67
$GPVTG,9.06,T,,M,6.690,N,12.391,K,A*03
$GPGGA,192423.00,1559.34342,S,04802.61508,W,1,11,0.84,1216.2,M,-11.7,M,,*42
$GPGSA,A,3,25,12,18,05,02,29,23,31,20,24,15,,1.50,0.84,1.25*0E
$GPGSV,3,1,11,02,39,159,27,05,44,107,32,12,53,062,38,15,10,043,25*76
$GPGSV,3,2,11,18,52,277,41,20,14,136,29,23,20,347,38,24,11,009,29*75
$GPGSV,3,3,11,25,78,161,38,29,38,190,35,31,16,239,28*45
$GPGLL,1559.34342,S,04802.61508,W,192423.00,A,A*67
$GPGRS,192423.00,1,6.7,7.3,6.1,8.2,13.1,5.8,8.0,-2.1,8.8,10.9,-0.6,*6C
$GPGST,192423.00,24,,,,2.3,2.3,4.5*5F
$GPZDA,192423.00,19,09,2022,00,00*6A
$GPGBS,192423.00,2.3,2.3,4.5,,,,*4F
$PUBX,00,192423.00,1559.34342,S,04802.61508,W,1204.477,G3,3.2,4.5,12.391,9.06,0.009,,0.84,1.
$PUBX,04,192423.00,190922,156263.00,2228,18,-756433,-3569.247,21*2A
$GPDTM,W84,,0.0,N,0.0,E,0.0,W84*6F
$GPRMC,192424.00,A,1559.34157,S,04802.61486,W,6.645,7.21,190922,,,A*62
$GPVTG,7.21,T,,M,6.645,N,12.307,K,A*0F
$GPGGA,192424.00,1559.34157,S,04802.61486,W,1,11,0.84,1216.2,M,-11.7,M,,*44
$GPGSA,A,3,25,12,18,05,02,29,23,31,20,24,15,,1.50,0.84,1.25*0E
$GPGSV,3,1,11,02,39,159,28,05,44,107,32,12,53,062,38,15,10,043,24*78
$GPGSV,3,2,11,18,52,277,41,20,14,136,29,23,20,347,39,24,11,009,29*74
$GPGSV,3,3,11,25,78,161,38,29,38,190,35,31,16,239,27*4A
$GPGLL,1559.34157,S,04802.61486,W,192424.00,A,A*61
$GPGRS,192424.00,1,7.4,7.6,6.6,8.3,12.3,6.2,8.9,-1.1,10.7,12.9,1.3,*77
$GPGST,192424.00,23,,,,2.3,2.3,4.6*5C
$GPZDA,192424.00,19,09,2022,00,00*6D
$GPGBS,192424.00,2.3,2.3,4.6,,,,*4B
$PUBX,00,192424.00,1559.34157,S,04802.61486,W,1204.442,G3,3.2,4.6,12.307,7.21,0.071,,0.84,1.
$GPDTM,W84,,0.0,N,0.0,E,0.0,W84*6F
$GPRMC,192425.00,A,1559.33969,S,04802.61473,W,6.736,4.78,190922,,,A*61
$GPVTG,4.78,T,,M,6.736,N,12.475,K,A*07
$GPGGA,192425.00,1559.33969,S,04802.61473,W,1,11,0.79,1216.2,M,-11.7,M,,*4F
$GPGSA,A,3,25,12,18,05,02,29,23,31,20,24,15,,1.42,0.79,1.18*01
$GPGSV,3,1,11,02,39,159,29,05,44,107,30,12,53,062,37,15,10,043,27*77
$GPGSV,3,2,11,18,52,277,40,20,14,136,30,23,20,347,37,24,11,009,31*7A
$GPGSV,3,3,11,25,78,161,38,29,38,190,35,31,16,239,26*4B
$GPGLL,1559.33969,S,04802.61473,W,192425.00,A,A*68
$GPGRS,192425.00,1,7.0,7.5,6.4,7.6,9.2,5.9,8.7,-0.3,10.6,13.9,2.6,*41
$GPGST,192425.00,25,,,,2.3,2.3,4.6*5B
$GPZDA,192425.00,19,09,2022,00,00*6C
$GPGBS,192425.00,2.3,2.3,4.6,,,,*4A
$GPDTM,W84,,0.0,N,0.0,E,0.0,W84*6F
$GPRMC,192426.00,A,1559.33781,S,04802.61461,W,6.692,3.63,190922,,,A*6B
$GPVTG,3.63,T,,M,6.692,N,12.393,K,A*0A
$GPGGA,192426.00,1559.33781,S,04802.61461,W,1,11,0.79,1216.3,M,-11.7,M,,*46
$GPGSA,A,3,25,12,18,05,02,29,23,31,20,24,15,,1.42,0.79,1.18*01
$GPGSV,3,1,11,02,39,159,29,05,44,107,32,12,53,062,38,15,10,043,32*7E
$GPGSV,3,2,11,18,52,277,40,20,14,136,29,23,20,347,37,24,11,009,30*73
$GPGSV,3,3,11,25,78,161,39,29,38,190,35,31,16,239,27*4B
$GPGLL,1559.33781,S,04802.61461,W,192426.00,A,A*60
$GPGRS,192426.00,1,6.7,7.1,6.3,7.5,8.6,5.5,8.4,-0.6,10.5,14.7,0.2,*47
$GPGST,192426.00,23,,,,2.3,2.3,4.6*5E
$GPZDA,192426.00,19,09,2022,00,00*6F
$GPGBS,192426.00,2.3,2.3,4.6,,,,*49
$GPDTM,W84,,0.0,N,0.0,E,0.0,W84*6F
$GPRMC,192427.00,A,1559.33590,S,04802.61461,W,6.734,0.19,190922,,,A*6B
$GPVTG,0.19,T,,M,6.734,N,12.472,K,A*01
$GPGGA,192427.00,1559.33590,S,04802.61461,W,1,11,0.79,1216.5,M,-11.7,M,,*43
$GPGSA,A,3,25,12,18,05,02,29,23,31,20,24,15,,1.42,0.79,1.18*01
$GPGSV,3,1,11,02,39,159,28,05,44,107,33,12,53,062,38,15,10,043,29*74
$GPGSV,3,2,11,18,52,277,40,20,14,136,21,23,20,347,38,24,11,009,30*74
$GPGSV,3,3,11,25,78,161,39,29,38,190,35,31,16,239,27*4B
$GPGLL,1559.33590,S,04802.61461,W,192427.00,A,A*63
$GPGRS,192427.00,1,6.3,7.0,5.1,6.3,8.1,5.1,7.8,-2.8,9.5,13.4,0.6,*71
$GPGST,192427.00,28,,,,2.3,2.3,4.6*54
$GPZDA,192427.00,19,09,2022,00,00*6E
$GPGBS,192427.00,2.3,2.3,4.6,,,,*48
$PUBX,00,192427.00,1559.33590,S,04802.61461,W,1204.719,G3,3.3,4.6,12.472,0.19,0.033,,0.79,1.
$GPTXT,01,01,00,txbuf alloc*7F
$GPDTM,W84,,0.0,N,0.0,E,0.0,W84*6F
$GPRMC,192428.00,A,1559.33402,S,04802.61471,W,6.717,355.64,190922,,,A*67
$GPVTG,355.64,T,,M,6.717,N,12.441,K,A*09
$GPGGA,192428.00,1559.33402,S,04802.61471,W,1,11,0.79,1216.6,M,-11.7,M,,*44
$GPGSA,A,3,25,12,18,05,02,29,23,31,20,24,15,,1.42,0.79,1.18*01
$GPGSV,3,1,11,02,39,159,28,05,44,107,36,12,53,062,38,15,10,043,36*7F
$GPGSV,3,2,11,18,52,277,37,20,14,136,20,23,20,347,37,24,11,009,31*7B
$GPGSV,3,3,11,25,78,161,39,29,38,190,37,31,16,239,24*4A
$GPGLL,1559.33402,S,04802.61471,W,192428.00,A,A*67
$GPGRS,192428.00,1,6.4,6.6,4.9,6.5,5.9,4.6,8.0,-3.5,9.1,12.1,4.9,*72
$GPGST,192428.00,28,,,,2.3,2.3,4.6*5B
$GPZDA,192428.00,19,09,2022,00,00*61
$GPGBS,192428.00,2.3,2.3,4.6,,,,*47
$PUBX,00,192428.00,1559.33402,S,04802.61471,W,1204.841,G3,3.3,4.6,12.441,355.64,-0.004,,0.79
$PUBX,03,12,2,U,159,39,28,000,5,U,107,44,36,000,11,e,138,-2,,000,12,U,062,53,38,000,15,U,043
$GPDTM,W84,,0.0,N,0.0,E,0.0,W84*6F
$GPRMC,192429.00,A,1559.33217,S,04802.61484,W,6.670,354.91,190922,,,A*65
$GPVTG,354.91,T,,M,6.670,N,12.353,K,A*06
$GPGGA,192429.00,1559.33217,S,04802.61484,W,1,11,0.79,1216.5,M,-11.7,M,,*4E
$GPGSA,A,3,25,12,18,05,02,29,23,31,20,24,15,,1.42,0.79,1.18*01
$GPGSV,3,1,11,02,39,159,29,05,44,107,34,12,53,062,38,15,10,043,33*79
$GPGSV,3,2,11,18,52,277,36,20,14,136,22,23,20,347,36,24,11,009,35*7D
$GPGSV,3,3,11,25,78,161,39,29,38,190,37,31,16,239,25*4B
$GPGLL,1559.33217,S,04802.61484,W,192429.00,A,A*6E
$GPGRS,192429.00,1,6.2,6.8,5.6,7.2,6.9,5.4,8.6,-2.0,8.1,10.7,5.3,*7F
$GPGST,192429.00,25,,,,2.3,2.3,4.6*57
$GPZDA,192429.00,19,09,2022,00,00*60
$GPGBS,192429.00,2.3,2.3,4.6,,,,*46
$PUBX,00,192429.00,1559.33217,S,04802.61484,W,1204.781,G3,3.3,4.6,12.353,354.91,0.039,,0.79,
$PUBX,03,12,2,U,159,39,29,000,5,U,107,44,34,000,11,e,138,-2,,000,12,U,062,53,38,001,15,U,043
$PUBX,04,192429.00,190922,156269.00,2228,18,-777706,-3509.901,21*23
$GPDTM,W84,,0.0,N,0.0,E,0.0,W84*6F
$GPRMC,192430.00,A,1559.33034,S,04802.61493,W,6.673,355.48,190922,,,A*6E
$GPVTG,355.48,T,,M,6.673,N,12.358,K,A*0B
$GPGGA,192430.00,1559.33034,S,04802.61493,W,1,11,0.79,1216.4,M,-11.7,M,,*42
$GPGSA,A,3,25,12,18,05,02,29,23,31,20,24,15,,1.42,0.79,1.18*01
$GPGSV,3,1,11,02,39,159,29,05,44,107,35,12,53,062,38,15,10,043,36*7D
$GPGSV,3,2,11,18,52,277,35,20,14,136,23,23,20,347,36,24,11,009,35*7F
$GPGSV,3,3,11,25,78,161,39,29,38,190,38,31,16,239,25*44
$GPGLL,1559.33034,S,04802.61493,W,192430.00,A,A*63
$GPGRS,192430.00,1,5.7,5.8,5.7,6.6,6.3,5.0,8.7,-0.6,9.1,9.6,3.1,*41
$GPGST,192430.00,25,,,,2.3,2.3,4.6*5F
$GPZDA,192430.00,19,09,2022,00,00*68
$GPGBS,192430.00,2.3,2.3,4.6,,,,*4E
$PUBX,00,192430.00,1559.33034,S,04802.61493,W,1204.681,G3,3.3,4.6,12.358,355.48,0.056,,0.79,
$PUBX,03,12,2,U,159,39,29,000,5,U,107,44,35,001,11,e,138,-2,,000,12,U,062,53,38,002,15,U,043
$PUBX,04,192430.00,190922,156270.00,2228,18,-781208,-3494.559,21*25
$GPDTM,W84,,0.0,N,0.0,E,0.0,W84*6F
$GPRMC,192431.00,A,1559.32843,S,04802.61502,W,6.811,355.77,190922,,,A*69
$GPVTG,355.77,T,,M,6.811,N,12.614,K,A*00
$GPGGA,192431.00,1559.32843,S,04802.61502,W,1,11,0.79,1216.6,M,-11.7,M,,*41
$GPGSA,A,3,25,12,18,05,02,29,23,31,20,24,15,,1.42,0.79,1.18*01
