$GPGGA,224424.00,1550.518447,S,04801.895856,W,1,00,    ,1174.23,M,0.0,M,0.0,0000*5F
$GPGSV,2,1,8,10,63,306,30.4,15,20,117,28.7,18,36,163,21.8,25,18,016,31.0*40
$GPGSV,2,2,8,26,42,254,31.9,29,43,088,35.6,31,08,314,20.5,32,15,357,30.9*42
$GPRMC,224424.00,A,1550.518447,S,04801.895856,W,000.2,,100922,,,A*7B
$GPGGA,224425.00,1550.517778,S,04801.895410,W,1,00,    ,1173.33,M,0.0,M,0.0,0000*56
$GPGSV,2,1,8,10,63,306,34.1,15,20,117,20.3,18,36,163,21.9,25,18,016,30.0*4D
$GPGSV,2,2,8,26,42,254,35.2,29,43,088,35.3,31,08,314,21.6,32,15,357,32.0*41
$GPRMC,224425.00,A,1550.517778,S,04801.895410,W,000.2,,100922,,,A*74
$GPGGA,224426.00,1550.517357,S,04801.894891,W,1,00,    ,1175.55,M,0.0,M,0.0,0000*5E
$GPGSV,3,1,9,10,63,306,33.0,15,20,117,28.6,16,25,228,19.4,18,36,163,22.4*46
$GPGSV,3,2,9,25,18,016,29.2,26,42,254,33.8,29,43,088,31.9,31,08,314,23.1*43
$GPGSV,3,3,9,32,15,357,25.3*6E
$GPRMC,224426.00,A,1550.517357,S,04801.894891,W,000.4,,100922,,,A*7C
$GPGGA,224427.00,1550.515731,S,04801.893894,W,1,00,    ,1181.93,M,0.0,M,0.0,0000*5A
$GPGSV,3,1,9,10,63,306,34.4,15,20,117,29.2,16,25,228,24.1,18,36,163,21.9*45
$GPGSV,3,2,9,25,18,016,32.5,26,42,254,28.8,29,43,088,31.4,31,08,314,24.7*48
$GPGSV,3,3,9,32,15,357,31.7*6F
$GPRMC,224427.00,A,1550.515731,S,04801.893894,W,001.1,067.4,100922,,,A*56
$GPGGA,224428.00,1550.514078,S,04801.893536,W,1,00,    ,1182.11,M,0.0,M,0.0,0000*52
$GPGSV,3,1,9,10,63,306,35.5,15,20,117,28.4,16,25,228,21.9,18,36,163,30.6*40
$GPGSV,3,2,9,25,18,016,32.7,26,42,254,28.9,29,43,088,35.1,31,08,314,29.4*44
$GPGSV,3,3,9,32,15,357,36.3*6C
$GPRMC,224428.00,A,1550.514078,S,04801.893536,W,000.3,,100922,,,A*7F
$GPGGA,224429.00,1550.513808,S,04801.892119,W,1,00,    ,1187.00,M,0.0,M,0.0,0000*56
$GPGSV,3,1,9,10,63,306,34.1,15,20,117,37.8,16,25,228,22.6,18,36,163,30.2*4F
$GPGSV,3,2,9,25,18,016,31.2,26,42,254,30.8,29,43,088,37.6,31,08,314,26.6*42
$GPGSV,3,3,9,32,15,357,34.8*65
$GPRMC,224429.00,A,1550.513808,S,04801.892119,W,001.2,013.5,100922,,,A*57
$GPGGA,224430.00,1550.512958,S,04801.890837,W,1,00,    ,1190.97,M,0.0,M,0.0,0000*54
$GPGSV,3,1,9,10,63,306,34.1,15,20,117,35.9,16,25,228,21.8,18,36,163,25.9*4E
$GPGSV,3,2,9,25,18,016,32.4,26,42,254,26.6,29,43,088,31.4,31,08,314,23.7*4E
$GPGSV,3,3,9,32,15,357,32.1*6A
$GPRMC,224430.00,A,1550.512958,S,04801.890837,W,000.0,,100922,,,A*77
$GPGGA,224431.00,1550.513164,S,04801.890869,W,1,00,    ,1187.33,M,0.0,M,0.0,0000*50
$GPGSV,2,1,8,10,63,306,40.9,15,20,117,33.9,16,25,228,23.1,18,36,163,33.6*40
$GPGSV,2,2,8,25,18,016,28.2,26,42,254,33.9,29,43,088,40.7,32,15,357,30.5*45
$GPRMC,224431.00,A,1550.513164,S,04801.890869,W,000.2,,100922,,,A*79
$GPGGA,224432.00,1550.513679,S,04801.891309,W,1,00,    ,1184.08,M,0.0,M,0.0,0000*5F
$GPGSV,2,1,7,10,63,306,37.8,15,20,117,34.4,18,36,163,32.2,25,18,016,23.8*49
$GPGSV,2,2,7,26,42,254,33.0,29,43,088,36.6,32,15,357,30.5*6C
$GPRMC,224432.00,A,1550.513679,S,04801.891309,W,000.1,,100922,,,A*7E
$GPGGA,224433.00,1550.513946,S,04801.891542,W,1,00,    ,1182.65,M,0.0,M,0.0,0000*59
$GPGSV,3,1,9,10,63,306,37.0,15,20,117,29.0,16,25,228,16.6,18,36,163,30.3*4C
$GPGSV,3,2,9,25,18,016,22.1,26,42,254,31.4,29,43,088,30.4,31,08,314,17.5*4A
$GPGSV,3,3,9,32,15,357,29.3*62
$GPRMC,224433.00,A,1550.513946,S,04801.891542,W,000.1,,100922,,,A*75
$GPGGA,224434.00,1550.514001,S,04801.891368,W,1,00,    ,1184.17,M,0.0,M,0.0,0000*5E
$GPGSV,3,1,9,10,63,306,37.7,15,20,117,28.4,16,25,228,22.1,18,36,163,33.2*4C
$GPGSV,3,2,9,25,18,016,24.6,26,42,254,30.9,29,43,088,31.3,31,08,314,24.5*41
$GPGSV,3,3,9,32,15,357,28.1*61
$GPRMC,224434.00,A,1550.514001,S,04801.891368,W,000.0,,100922,,,A*70
$GPGGA,224435.00,1550.514130,S,04801.891252,W,1,00,    ,1185.92,M,0.0,M,0.0,0000*58
$GPGSV,3,1,9,10,63,306,36.6,15,20,117,27.8,16,25,228,20.8,18,36,163,33.7*41
$GPGSV,3,2,9,25,18,016,22.3,26,42,254,30.8,29,43,088,31.4,31,08,314,24.6*47
$GPGSV,3,3,9,32,15,357,21.5*6C
$GPRMC,224435.00,A,1550.514130,S,04801.891252,W,000.0,,100922,,,A*7A
$GPGGA,224436.00,1550.514046,S,04801.891347,W,1,00,    ,1186.54,M,0.0,M,0.0,0000*57
$GPGSV,3,1,9,10,63,306,34.2,15,20,117,21.9,16,25,228,19.6,18,36,163,32.4*46
$GPGSV,3,2,9,25,18,016,25.3,26,42,254,28.5,29,43,088,27.2,31,08,314,23.8*4C
$GPGSV,3,3,9,32,15,357,23.6*6D
$GPRMC,224436.00,A,1550.514046,S,04801.891347,W,000.2,,100922,,,A*7E
$GPGGA,224437.00,1550.514005,S,04801.891305,W,1,00,    ,1186.51,M,0.0,M,0.0,0000*52
$GPGSV,2,1,8,10,63,306,34.4,15,20,117,22.2,16,25,228,22.3,18,36,163,32.7*46
$GPGSV,2,2,8,25,18,016,22.7,26,42,254,30.5,29,43,088,23.6,32,15,357,27.5*47
$GPRMC,224437.00,A,1550.514005,S,04801.891305,W,000.1,,100922,,,A*7D
$GPGGA,224438.00,1550.513685,S,04801.891310,W,1,00,    ,1186.61,M,0.0,M,0.0,0000*53
$GPGSV,2,1,7,10,63,306,35.2,16,25,228,22.5,18,36,163,32.4,25,18,016,24.6*41
$GPGSV,2,2,7,26,42,254,31.1,29,43,088,24.7,32,15,357,28.2*63
$GPRMC,224438.00,A,1550.513685,S,04801.891310,W,000.1,,100922,,,A*7F
$GPGGA,224439.00,1550.513723,S,04801.891289,W,1,00,    ,1187.03,M,0.0,M,0.0,0000*5B
$GPGSV,3,1,9,10,63,306,34.2,15,20,117,21.8,16,25,228,22.1,18,36,163,30.7*49
$GPGSV,3,2,9,25,18,016,22.8,26,42,254,29.5,29,43,088,26.5,31,08,314,16.3*4A
$GPGSV,3,3,9,32,15,357,27.9*66
$GPRMC,224439.00,A,1550.513723,S,04801.891289,W,000.4,,100922,,,A*77
$GPGGA,224440.00,1550.513554,S,04801.891378,W,1,00,    ,1186.63,M,0.0,M,0.0,0000*5F
$GPGSV,2,1,8,10,63,306,35.8,15,20,117,26.4,16,25,228,22.9,18,36,163,33.1*44
$GPGSV,2,2,8,25,18,016,18.7,26,42,254,27.5,29,43,088,30.9,32,15,357,23.8*4C
$GPRMC,224440.00,A,1550.513554,S,04801.891378,W,000.1,,100922,,,A*71
$GPGGA,224441.00,1550.513557,S,04801.891610,W,1,00,    ,1187.10,M,0.0,M,0.0,0000*53
$GPGSV,3,1,9,10,63,306,35.6,15,20,117,28.9,16,25,228,23.6,18,36,163,32.1*46
$GPGSV,3,2,9,25,18,016,24.1,26,42,254,30.4,29,43,088,33.1,31,08,314,16.5*4A
$GPGSV,3,3,9,32,15,357,27.1*6E
$GPRMC,224441.00,A,1550.513557,S,04801.891610,W,000.0,,100922,,,A*79
$GPGGA,224442.00,1550.514045,S,04801.891325,W,1,00,    ,1188.75,M,0.0,M,0.0,0000*5E
$GPGSV,3,1,9,10,63,306,36.4,15,20,117,29.0,16,25,228,20.1,18,36,163,32.9*43
$GPGSV,3,2,9,25,18,016,19.0,26,42,254,31.0,29,43,088,32.4,31,08,314,20.0*44
$GPGSV,3,3,9,32,15,357,26.7*69
$GPRMC,224442.00,A,1550.514045,S,04801.891325,W,000.0,,100922,,,A*78
$GPGGA,224443.00,1550.514204,S,04801.891398,W,1,00,    ,1189.75,M,0.0,M,0.0,0000*5F
$GPGSV,3,1,9,10,63,306,37.2,15,20,117,30.1,16,25,228,18.5,18,36,163,33.4*4E
$GPGSV,3,2,9,25,18,016,19.5,26,42,254,30.1,29,43,088,31.3,31,08,314,19.7*48
$GPGSV,3,3,9,32,15,357,26.7*69
$GPRMC,224443.00,A,1550.514204,S,04801.891398,W,000.0,,100922,,,A*78
$GPGGA,224444.00,1550.514491,S,04801.891366,W,1,00,    ,1190.48,M,0.0,M,0.0,0000*55
$GPGSV,2,1,8,10,63,306,36.6,15,20,117,28.8,18,36,163,33.5,25,18,016,21.5*41
$GPGSV,2,2,8,26,42,254,30.4,29,43,088,31.4,31,08,314,22.1,32,15,357,24.7*45
$GPRMC,224444.00,A,1550.514491,S,04801.891366,W,000.1,,100922,,,A*75
$GPGGA,224445.00,1550.514747,S,04801.891342,W,1,00,    ,1190.83,M,0.0,M,0.0,0000*5D
$GPGSV,2,1,8,10,63,306,36.7,15,20,117,29.3,16,25,228,18.3,18,36,163,33.3*41
$GPGSV,2,2,8,26,42,254,30.4,29,43,088,31.3,31,08,314,22.9,32,15,357,28.4*45
$GPRMC,224445.00,A,1550.514747,S,04801.891342,W,000.1,,100922,,,A*7A
$GPGGA,224446.00,1550.514887,S,04801.891179,W,1,00,    ,1191.39,M,0.0,M,0.0,0000*57
$GPGSV,3,1,9,10,63,306,36.0,15,20,117,30.9,16,25,228,19.5,18,36,163,33.4*44
$GPGSV,3,2,9,25,18,016,19.9,26,42,254,30.4,29,43,088,32.2,31,08,314,23.0*4D
$GPGSV,3,3,9,32,15,357,27.8*67
$GPRMC,224446.00,A,1550.514887,S,04801.891179,W,000.0,,100922,,,A*71
$GPGGA,224447.00,1550.515065,S,04801.891067,W,1,00,    ,1191.75,M,0.0,M,0.0,0000*55
$GPGSV,3,1,9,10,63,306,37.0,15,20,117,31.2,16,25,228,19.9,18,36,163,33.7*40
$GPGSV,3,2,9,25,18,016,26.3,26,42,254,29.7,29,43,088,33.1,31,08,314,21.9*49
$GPGSV,3,3,9,32,15,357,24.8*64
$GPRMC,224447.00,A,1550.515065,S,04801.891067,W,000.0,,100922,,,A*7B
$GPGGA,224448.00,1550.515127,S,04801.891003,W,1,00,    ,1191.83,M,0.0,M,0.0,0000*56
$GPGSV,3,1,9,10,63,306,35.2,15,20,117,27.7,16,25,228,19.9,18,36,163,33.1*44
$GPGSV,3,2,9,25,18,016,23.8,26,42,254,29.9,29,43,088,33.3,31,08,314,21.7*45
$GPGSV,3,3,9,32,15,357,26.8*66
$GPRMC,224448.00,A,1550.515127,S,04801.891003,W,000.0,,100922,,,A*71
$GPGGA,224449.00,1550.515342,S,04801.891154,W,1,00,    ,1190.98,M,0.0,M,0.0,0000*5E
$GPGSV,3,1,9,10,63,306,34.0,15,20,117,29.3,16,25,228,20.6,18,36,163,33.8*41
$GPGSV,3,2,9,25,18,016,24.9,26,42,254,30.6,29,43,088,33.5,31,08,314,23.5*42
$GPGSV,3,3,9,32,15,357,26.0*6E
$GPRMC,224449.00,A,1550.515342,S,04801.891154,W,000.1,,100922,,,A*73
$GPGGA,224450.00,1550.515210,S,04801.891130,W,1,00,    ,1190.45,M,0.0,M,0.0,0000*52
$GPGSV,3,1,9,10,63,306,33.6,15,20,117,31.6,16,25,228,22.2,18,36,162,33.2*41
$GPGSV,3,2,9,25,18,016,19.4,26,42,254,33.0,29,43,088,32.5,31,08,314,21.3*41
$GPGSV,3,3,9,32,15,357,26.6*68
$GPRMC,224450.00,A,1550.515210,S,04801.891130,W,000.2,,100922,,,A*7C
$GPGGA,224451.00,1550.515221,S,04801.891147,W,1,00,    ,1189.58,M,0.0,M,0.0,0000*55
$GPGSV,3,1,9,10,63,306,32.4,15,20,117,32.7,16,25,228,20.6,18,36,162,33.7*43
$GPGSV,3,2,9,25,18,016,24.9,26,42,254,33.8,29,43,088,31.5,31,08,314,23.1*49
$GPGSV,3,3,9,32,15,357,27.2*6D
$GPRMC,224451.00,A,1550.515221,S,04801.891147,W,000.1,,100922,,,A*7C
$GPGGA,224452.00,1550.515348,S,04801.890983,W,1,00,    ,1189.76,M,0.0,M,0.0,0000*55
$GPGSV,3,1,9,10,63,306,34.7,15,20,117,33.9,16,25,228,20.2,18,36,162,33.6*4C
$GPGSV,3,2,9,25,18,016,27.1,26,42,254,33.8,29,43,088,33.5,31,08,314,25.3*44
$GPGSV,3,3,9,32,15,357,27.1*6E
$GPRMC,224452.00,A,1550.515348,S,04801.890983,W,000.1,,100922,,,A*70
$GPGGA,224453.00,1550.515397,S,04801.890779,W,1,00,    ,1190.11,M,0.0,M,0.0,0000*54
$GPGSV,3,1,9,10,63,306,36.4,15,20,117,33.2,16,25,228,24.3,18,36,162,33.5*40
$GPGSV,3,2,9,25,18,016,25.1,26,42,254,33.3,29,43,088,31.2,31,08,314,22.1*4D
$GPGSV,3,3,9,32,15,357,28.5*65
$GPRMC,224453.00,A,1550.515397,S,04801.890779,W,000.0,,100922,,,A*79
$GPGGA,224454.00,1550.515375,S,04801.890741,W,1,00,    ,1189.91,M,0.0,M,0.0,0000*54
$GPGSV,3,1,9,10,63,306,37.1,15,20,117,31.3,16,25,228,26.3,18,36,162,34.5*42
$GPGSV,3,2,9,25,18,016,24.6,26,42,254,31.7,29,43,088,29.8,31,08,314,19.8*4F
$GPGSV,3,3,9,32,15,357,31.7*6F
$GPRMC,224454.00,A,1550.515375,S,04801.890741,W,000.1,,100922,,,A*78
$GPGGA,224455.00,1550.515667,S,04801.890742,W,1,00,    ,1190.76,M,0.0,M,0.0,0000*51
$GPGSV,3,1,9,10,63,306,37.2,15,20,117,32.0,16,25,228,26.3,18,36,162,33.2*41
$GPGSV,3,2,9,25,18,016,24.0,26,42,254,32.6,29,43,088,30.8,31,08,314,22.2*41
$GPGSV,3,3,9,32,15,357,30.3*6A
$GPRMC,224455.00,A,1550.515667,S,04801.890742,W,000.1,,100922,,,A*7C
$GPGGA,224456.00,1550.515691,S,04801.890699,W,1,00,    ,1190.43,M,0.0,M,0.0,0000*5A
$GPGSV,3,1,9,10,63,306,34.2,15,20,117,26.3,16,25,228,23.6,18,36,162,31.6*42
$GPGSV,3,2,9,25,18,016,22.7,26,42,254,30.9,29,43,088,24.5,31,08,314,21.6*42
$GPGSV,3,3,9,32,15,357,22.3*69
$GPRMC,224456.00,A,1550.515691,S,04801.890699,W,000.2,,100922,,,A*72
$GPGGA,224457.00,1550.515822,S,04801.890598,W,1,00,    ,1190.91,M,0.0,M,0.0,0000*50
$GPGSV,2,1,8,10,63,306,35.4,15,20,117,23.5,16,25,228,24.1,18,36,162,31.6*46
$GPGSV,2,2,8,26,42,254,30.8,29,43,088,22.3,31,08,314,19.6,32,15,357,26.0*46
$GPRMC,224457.00,A,1550.515822,S,04801.890598,W,000.1,,100922,,,A*74
$GPGGA,224458.00,1550.515879,S,04801.890685,W,1,00,    ,1190.77,M,0.0,M,0.0,0000*56
$GPGSV,2,1,8,10,63,306,32.9,15,20,117,23.9,16,25,228,22.3,18,36,162,28.4*4E
$GPGSV,2,2,8,25,18,016,24.1,26,42,254,30.1,29,43,088,24.5,32,15,357,21.6*42
$GPRMC,224458.00,A,1550.515879,S,04801.890685,W,000.1,,100922,,,A*7A
$GPGGA,224459.00,1550.516249,S,04801.890756,W,1,00,    ,1191.00,M,0.0,M,0.0,0000*53
$GPGSV,3,1,9,10,63,306,34.8,15,20,117,24.9,16,25,228,23.1,18,36,162,28.7*4E
$GPGSV,3,2,9,25,18,016,20.1,26,42,254,29.4,29,43,088,27.2,31,08,315,19.2*49
$GPGSV,3,3,9,32,16,357,29.7*65
$GPRMC,224459.00,A,1550.516249,S,04801.890756,W,000.5,170.3,100922,,,A*51
$GPGGA,224500.00,1550.516439,S,04801.890970,W,1,00,    ,1190.79,M,0.0,M,0.0,0000*5A
$GPGSV,3,1,9,10,63,306,36.7,15,20,118,30.3,16,25,228,24.4,18,36,162,31.2*4C
$GPGSV,3,2,9,25,18,016,23.2,26,42,254,35.2,29,43,088,30.0,31,08,315,18.4*41
$GPGSV,3,3,9,32,16,357,24.1*6E
$GPRMC,224500.00,A,1550.516439,S,04801.890970,W,000.2,,100922,,,A*7B
$GPGGA,224501.00,1550.516288,S,04801.891209,W,1,00,    ,1190.07,M,0.0,M,0.0,0000*5A
$GPGSV,3,1,9,10,63,306,35.8,15,20,118,30.5,16,25,228,23.8,18,36,162,31.6*49
$GPGSV,3,2,9,25,18,016,24.9,26,42,255,33.3,29,43,088,31.7,31,08,315,19.3*4B
$GPGSV,3,3,9,32,16,357,25.3*6D
$GPRMC,224501.00,A,1550.516288,S,04801.891209,W,000.2,,100922,,,A*72
$GPGGA,224502.00,1550.516610,S,04801.891375,W,1,00,    ,1189.88,M,0.0,M,0.0,0000*59
$GPGSV,2,1,8,10,63,306,37.2,15,20,118,27.9,16,25,228,25.6,18,36,162,32.4*42
$GPGSV,2,2,8,25,18,016,25.3,26,42,255,32.4,29,43,088,29.5,32,16,357,30.2*4D
$GPRMC,224502.00,A,1550.516610,S,04801.891375,W,000.1,,100922,,,A*7D
$GPGGA,224503.00,1550.516879,S,04801.891549,W,1,00,    ,1189.72,M,0.0,M,0.0,0000*55
$GPGSV,3,1,9,10,63,306,37.4,15,20,118,31.0,16,25,228,26.8,18,36,162,35.1*45
$GPGSV,3,2,9,25,18,016,25.3,26,42,255,32.5,29,43,088,31.8,31,08,315,18.0*4A
$GPGSV,3,3,9,32,16,357,33.2*6B
$GPRMC,224503.00,A,1550.516879,S,04801.891549,W,000.0,,100922,,,A*75
$GPGGA,224504.00,1550.516928,S,04801.891699,W,1,00,    ,1189.71,M,0.0,M,0.0,0000*5A
$GPGSV,3,1,9,10,63,306,37.0,15,20,118,31.1,16,25,228,25.7,18,36,162,35.3*4E
$GPGSV,3,2,9,25,18,016,26.1,26,42,255,31.7,29,43,088,30.9,31,08,315,19.7*4C
$GPGSV,3,3,9,32,16,357,30.8*62
$GPRMC,224504.00,A,1550.516928,S,04801.891699,W,000.1,,100922,,,A*78
$GPGGA,224505.00,1550.516997,S,04801.891834,W,1,00,    ,1189.28,M,0.0,M,0.0,0000*5A
$GPGSV,3,1,9,10,63,306,37.2,15,20,118,30.6,16,25,228,26.4,18,36,162,35.3*4A
$GPGSV,3,2,9,25,18,016,25.8,26,42,255,32.4,29,43,088,30.4,31,08,315,21.0*47
$GPGSV,3,3,9,32,16,357,31.3*68
$GPRMC,224505.00,A,1550.516997,S,04801.891834,W,000.1,,100922,,,A*74
$GPGGA,224506.00,1550.517317,S,04801.892106,W,1,00,    ,1189.53,M,0.0,M,0.0,0000*5D
$GPGSV,3,1,9,10,63,306,36.9,15,20,118,30.5,16,25,228,26.3,18,36,162,36.0*44
$GPGSV,3,2,9,25,18,016,24.7,26,42,255,32.2,29,43,088,30.5,31,08,315,24.1*4A
$GPGSV,3,3,9,32,16,357,33.7*6E
$GPRMC,224506.00,A,1550.517317,S,04801.892106,W,000.1,,100922,,,A*7F
$GPGGA,224507.00,1550.517558,S,04801.892125,W,1,00,    ,1189.76,M,0.0,M,0.0,0000*57
$GPGSV,3,1,9,10,63,306,37.5,15,20,118,30.6,16,25,228,26.3,18,36,162,35.8*41
$GPGSV,3,2,9,25,18,016,25.9,26,42,255,31.9,29,43,088,30.6,31,08,315,23.7*4F
$GPGSV,3,3,9,32,16,357,32.4*6C
$GPRMC,224507.00,A,1550.517558,S,04801.892125,W,000.0,,100922,,,A*73
$GPGGA,224508.00,1550.517880,S,04801.892381,W,1,00,    ,1189.31,M,0.0,M,0.0,0000*5F
$GPGSV,3,1,9,10,63,306,37.7,15,20,118,30.7,16,25,228,26.2,18,36,162,35.5*4E
$GPGSV,3,2,9,25,18,016,26.1,26,42,255,32.4,29,43,088,30.9,31,08,315,23.7*45
$GPGSV,3,3,9,32,16,357,32.7*6F
$GPRMC,224508.00,A,1550.517880,S,04801.892381,W,000.0,,100922,,,A*78
$GPGGA,224509.00,1550.517973,S,04801.892572,W,1,00,    ,1188.95,M,0.0,M,0.0,0000*56
$GPGSV,3,1,9,10,63,306,36.9,15,20,118,31.3,16,25,228,26.5,18,36,162,35.4*42
$GPGSV,3,2,9,25,18,016,26.7,26,42,255,31.5,29,43,088,30.5,31,08,315,23.6*4C
$GPGSV,3,3,9,32,16,357,31.3*68
$GPRMC,224509.00,A,1550.517973,S,04801.892572,W,000.1,,100922,,,A*7F
$GPGGA,224510.00,1550.518037,S,04801.892755,W,1,00,    ,1188.64,M,0.0,M,0.0,0000*51
$GPGSV,3,1,9,10,63,306,37.5,15,20,118,27.2,16,25,228,26.9,18,36,162,36.2*40
$GPGSV,3,2,9,25,18,016,25.8,26,42,255,30.9,29,43,088,30.7,31,08,315,25.8*47
$GPGSV,3,3,9,32,16,357,32.1*69
$GPRMC,224510.00,A,1550.518037,S,04801.892755,W,000.1,,100922,,,A*76
$GPGGA,224511.00,1550.517964,S,04801.893003,W,1,00,    ,1188.51,M,0.0,M,0.0,0000*53
$GPGSV,3,1,9,10,63,306,36.7,15,20,118,31.2,16,25,228,26.3,18,36,162,36.0*4C
$GPGSV,3,2,9,25,18,016,27.3,26,42,255,30.8,29,43,088,31.4,31,08,315,24.0*44
$GPGSV,3,3,9,32,16,357,32.4*6C
$GPRMC,224511.00,A,1550.517964,S,04801.893003,W,000.0,,100922,,,A*73
$GPGGA,224512.00,1550.517910,S,04801.893048,W,1,00,    ,1188.26,M,0.0,M,0.0,0000*5C
$GPGSV,3,1,9,10,63,306,37.1,15,20,118,30.5,16,25,228,26.4,18,36,162,36.0*4A
$GPGSV,3,2,9,25,18,016,25.3,26,42,255,31.3,29,43,088,30.6,31,08,315,21.8*42
$GPGSV,3,3,9,32,16,357,33.2*6B
$GPRMC,224512.00,A,1550.517910,S,04801.893048,W,000.1,,100922,,,A*7D
$GPGGA,224513.00,1550.518021,S,04801.893179,W,1,00,    ,1187.71,M,0.0,M,0.0,0000*57
$GPGSV,3,1,9,10,63,306,36.6,15,20,118,29.7,16,25,228,25.1,18,36,162,36.0*40
$GPGSV,3,2,9,25,18,016,26.7,26,42,255,31.7,29,43,088,31.4,31,08,315,20.2*49
$GPGSV,3,3,9,32,16,357,33.8*61
$GPRMC,224513.00,A,1550.518021,S,04801.893179,W,000.1,,100922,,,A*7B
$GPGGA,224514.00,1550.518066,S,04801.893417,W,1,00,    ,1187.17,M,0.0,M,0.0,0000*5E
$GPGSV,2,1,8,10,63,306,36.7,15,20,118,29.9,16,25,228,26.5,18,36,162,36.2*4A
$GPGSV,2,2,8,25,18,016,26.1,26,42,255,31.5,29,43,088,30.5,32,16,357,33.2*45
$GPRMC,224514.00,A,1550.518066,S,04801.893417,W,000.0,,100922,,,A*73
$GPGGA,224515.00,1550.517923,S,04801.893473,W,1,00,    ,1186.74,M,0.0,M,0.0,0000*5E
$GPGSV,2,1,8,10,63,306,36.4,15,20,118,30.5,16,25,228,25.9,18,36,162,36.4*44
$GPGSV,2,2,8,25,18,016,25.9,26,42,255,31.0,29,43,088,30.4,32,16,357,31.9*43
$GPRMC,224515.00,A,1550.517923,S,04801.893473,W,000.1,,100922,,,A*76
$GPGGA,224516.00,1550.517877,S,04801.893549,W,1,00,    ,1186.20,M,0.0,M,0.0,0000*54
$GPGSV,2,1,8,10,63,306,35.7,15,20,118,30.0,16,25,228,25.4,18,36,162,36.5*4D
$GPGSV,2,2,8,25,18,016,25.0,26,42,255,31.2,29,43,088,30.2,32,16,357,31.2*45
$GPRMC,224516.00,A,1550.517877,S,04801.893549,W,000.1,,100922,,,A*7D
$GPGGA,224517.00,1550.517770,S,04801.893592,W,1,00,    ,1185.76,M,0.0,M,0.0,0000*5B
$GPGSV,3,1,9,10,63,306,35.8,15,20,118,29.3,16,25,228,24.2,18,36,162,35.7*4F
$GPGSV,3,2,9,25,18,016,25.5,26,42,255,30.9,29,43,088,30.5,31,08,315,16.1*41
$GPGSV,3,3,9,32,16,357,31.9*62
$GPRMC,224517.00,A,1550.517770,S,04801.893592,W,000.1,,100922,,,A*72
$GPGGA,224518.00,1550.517628,S,04801.893373,W,1,00,    ,1186.05,M,0.0,M,0.0,0000*56
$GPGSV,3,1,9,10,63,306,35.5,15,20,118,30.5,16,25,228,24.1,18,36,162,36.4*4F
$GPGSV,3,2,9,25,18,016,23.9,26,42,255,29.9,29,43,088,29.4,31,08,315,23.0*4D
$GPGSV,3,3,9,32,16,357,32.7*6F
$GPRMC,224518.00,A,1550.517628,S,04801.893373,W,000.0,,100922,,,A*79
$GPGGA,224519.00,1550.517811,S,04801.893386,W,1,00,    ,1185.71,M,0.0,M,0.0,0000*59
$GPGSV,3,1,9,10,63,306,35.5,15,20,118,31.8,16,25,228,23.2,18,36,162,35.9*49
$GPGSV,3,2,9,25,18,016,23.5,26,42,255,31.2,29,43,088,28.5,31,08,315,22.9*4B
$GPGSV,3,3,9,32,16,357,33.2*6B
$GPRMC,224519.00,A,1550.517811,S,04801.893386,W,000.1,,100922,,,A*77
$GPGGA,224520.00,1550.518003,S,04801.893539,W,1,00,    ,1185.63,M,0.0,M,0.0,0000*56
$GPGSV,3,1,9,10,63,306,35.9,15,20,118,32.0,16,25,228,23.8,18,36,162,35.8*45
$GPGSV,3,2,9,25,18,016,22.3,26,42,255,30.1,29,43,088,29.2,31,08,315,23.7*47
$GPGSV,3,3,9,32,16,357,32.8*60
$GPRMC,224520.00,A,1550.518003,S,04801.893539,W,000.2,,100922,,,A*78
$GPGGA,224521.00,1550.518286,S,04801.893620,W,1,00,    ,1185.37,M,0.0,M,0.0,0000*52
$GPGSV,3,1,9,10,63,306,36.5,15,20,118,31.3,16,25,228,23.4,18,36,162,35.3*4D
$GPGSV,3,2,9,25,18,016,22.3,26,42,255,30.1,29,43,088,28.9,31,08,315,25.1*4D
$GPGSV,3,3,9,32,16,357,33.1*68
$GPRMC,224521.00,A,1550.518286,S,04801.893620,W,000.0,,100922,,,A*7F
$GPGGA,224522.00,1550.518497,S,04801.893782,W,1,00,    ,1185.00,M,0.0,M,0.0,0000*5A
$GPGSV,3,1,9,10,63,306,36.6,15,20,118,31.5,16,25,228,23.6,18,36,162,34.8*40
$GPGSV,3,2,9,25,18,016,23.9,26,42,255,30.4,29,43,088,28.0,31,08,315,21.4*4B
$GPGSV,3,3,9,32,16,357,33.0*69
$GPRMC,224522.00,A,1550.518497,S,04801.893782,W,000.0,,100922,,,A*73
$GPGGA,224523.00,1550.518604,S,04801.893691,W,1,00,    ,1184.91,M,0.0,M,0.0,0000*59
$GPGSV,3,1,9,10,63,306,36.6,15,20,118,31.1,16,25,228,24.4,18,36,162,35.2*4A
$GPGSV,3,2,9,25,18,016,25.1,26,42,255,31.3,29,43,088,28.8,31,08,315,21.2*4D
$GPGSV,3,3,9,32,16,357,32.8*60
$GPRMC,224523.00,A,1550.518604,S,04801.893691,W,000.1,,100922,,,A*78
$GPGGA,224524.00,1550.518696,S,04801.893749,W,1,00,    ,1184.70,M,0.0,M,0.0,0000*5E
$GPGSV,3,1,9,10,63,306,36.7,15,20,118,32.1,16,25,228,24.8,18,36,162,35.2*44
$GPGSV,3,2,9,25,18,016,24.4,26,42,255,31.5,29,43,088,27.9,31,08,315,19.7*4F
$GPGSV,3,3,9,32,16,357,33.3*6A
$GPRMC,224524.00,A,1550.518696,S,04801.893749,W,000.0,,100922,,,A*71
$GPGGA,224525.00,1550.518959,S,04801.893840,W,1,00,    ,1184.55,M,0.0,M,0.0,0000*52
$GPGSV,3,1,9,10,63,306,36.7,15,20,118,32.2,16,25,228,24.8,18,36,162,34.8*4C
$GPGSV,3,2,9,25,18,016,25.1,26,42,255,31.4,29,43,088,28.6,31,08,315,18.5*49
$GPGSV,3,3,9,32,16,357,32.9*61
$GPRMC,224525.00,A,1550.518959,S,04801.893840,W,000.0,,100922,,,A*7A
$GPGGA,224526.00,1550.519079,S,04801.893917,W,1,00,    ,1184.31,M,0.0,M,0.0,0000*5A
$GPGSV,2,1,8,10,63,306,36.7,15,20,118,32.0,16,25,228,24.5,18,36,162,35.2*48
$GPGSV,2,2,8,25,18,016,24.1,26,42,255,31.4,29,43,088,27.2,32,16,357,33.5*40
$GPRMC,224526.00,A,1550.519079,S,04801.893917,W,000.0,,100922,,,A*70
$GPGGA,224527.00,1550.519024,S,04801.893872,W,1,00,    ,1184.54,M,0.0,M,0.0,0000*52
$GPGSV,3,1,9,10,63,306,36.3,15,20,118,31.2,16,25,228,24.9,18,36,162,35.2*41
$GPGSV,3,2,9,25,18,016,23.8,26,42,255,31.1,29,43,088,27.0,31,08,315,16.5*44
$GPGSV,3,3,9,32,16,357,33.3*6A
$GPRMC,224527.00,A,1550.519024,S,04801.893872,W,000.1,,100922,,,A*7A
$GPGGA,224528.00,1550.519080,S,04801.893835,W,1,00,    ,1184.74,M,0.0,M,0.0,0000*52
$GPGSV,3,1,9,10,63,306,35.9,15,20,118,31.4,16,25,228,25.4,18,36,162,35.5*45
$GPGSV,3,2,9,25,18,016,25.2,26,42,255,31.6,29,43,088,26.8,31,08,315,19.4*48
$GPGSV,3,3,9,32,16,357,33.4*6D
$GPRMC,224528.00,A,1550.519080,S,04801.893835,W,000.0,,100922,,,A*79
$GPGGA,224529.00,1550.519103,S,04801.893842,W,1,00,    ,1184.84,M,0.0,M,0.0,0000*56
$GPGSV,3,1,9,10,63,306,35.7,15,20,118,31.1,16,25,228,24.6,18,36,162,35.6*4E
$GPGSV,3,2,9,25,18,016,25.2,26,42,255,32.8,29,43,088,27.7,31,08,315,24.6*47
$GPGSV,3,3,9,32,16,357,34.0*6E
$GPRMC,224529.00,A,1550.519103,S,04801.893842,W,000.0,,100922,,,A*72
$GPGGA,224530.00,1550.519008,S,04801.893719,W,1,00,    ,1185.27,M,0.0,M,0.0,0000*5D
$GPGSV,3,1,9,10,63,306,36.2,15,20,118,31.7,16,25,228,26.1,18,36,162,35.3*4E
$GPGSV,3,2,9,25,18,016,25.6,26,42,255,31.8,29,43,088,28.8,31,08,315,25.2*45
$GPGSV,3,3,9,32,16,357,32.6*6E
$GPRMC,224530.00,A,1550.519008,S,04801.893719,W,000.1,,100922,,,A*70
$GPGGA,224531.00,1550.518883,S,04801.893548,W,1,00,    ,1185.83,M,0.0,M,0.0,0000*5E
$GPGSV,3,1,9,10,63,306,37.2,15,20,118,29.1,16,25,228,27.7,18,36,162,35.6*42
$GPGSV,3,2,9,25,18,016,24.1,26,42,255,31.6,29,43,087,28.3,31,08,315,24.8*42
$GPGSV,3,3,9,32,16,357,33.9*60
$GPRMC,224531.00,A,1550.518883,S,04801.893548,W,000.1,,100922,,,A*7D
$GPGGA,224532.00,1550.518761,S,04801.893413,W,1,00,    ,1186.19,M,0.0,M,0.0,0000*51
$GPGSV,3,1,9,10,63,306,36.3,15,20,118,31.2,16,25,228,26.9,18,36,162,35.5*44
$GPGSV,3,2,9,25,18,016,23.2,26,42,255,32.2,29,43,087,27.5,31,08,315,24.6*46
$GPGSV,3,3,9,32,16,357,33.8*61
$GPRMC,224532.00,A,1550.518761,S,04801.893413,W,000.0,,100922,,,A*73
$GPGGA,224533.00,1550.518799,S,04801.893424,W,1,00,    ,1186.54,M,0.0,M,0.0,0000*5A
$GPGSV,3,1,9,10,63,305,36.6,15,20,118,31.3,16,25,228,26.8,18,36,162,35.6*41
$GPGSV,3,2,9,25,18,016,24.0,26,42,255,32.4,29,43,087,29.6,31,08,315,24.4*4A
$GPGSV,3,3,9,32,16,357,33.2*6B
$GPRMC,224533.00,A,1550.518799,S,04801.893424,W,000.1,,100922,,,A*70
$GPGGA,224534.00,1550.518786,S,04801.893549,W,1,00,    ,1186.53,M,0.0,M,0.0,0000*5E
$GPGSV,3,1,9,10,63,305,35.9,15,20,118,31.4,16,25,228,26.5,18,36,162,35.8*49
$GPGSV,3,2,9,25,18,016,24.4,26,42,255,31.6,29,43,087,30.7,31,08,315,21.4*43
$GPGSV,3,3,9,32,16,357,31.7*6C
$GPRMC,224534.00,A,1550.518786,S,04801.893549,W,000.0,,100922,,,A*72
$GPGGA,224535.00,1550.518589,S,04801.893328,W,1,00,    ,1186.72,M,0.0,M,0.0,0000*50
$GPGSV,3,1,9,10,63,305,37.0,15,20,118,30.3,16,25,228,29.2,18,36,162,35.9*4D
$GPGSV,3,2,9,25,18,016,22.8,26,42,255,31.4,29,43,087,31.5,31,08,315,23.2*4C
$GPGSV,3,3,9,32,16,357,32.6*6E
$GPRMC,224535.00,A,1550.518589,S,04801.893328,W,000.2,,100922,,,A*7D
$GPGGA,224536.00,1550.518682,S,04801.893165,W,1,00,    ,1186.37,M,0.0,M,0.0,0000*51
$GPGSV,3,1,9,10,63,305,37.1,15,20,118,29.0,16,25,228,27.6,18,36,162,33.8*4A
$GPGSV,3,2,9,25,18,016,21.9,26,42,255,29.7,29,43,087,33.2,31,08,315,27.7*40
$GPGSV,3,3,9,32,16,357,32.8*60
$GPRMC,224536.00,A,1550.518682,S,04801.893165,W,000.8,093.0,100922,,,A*53
$GPGGA,224537.00,1550.518822,S,04801.892854,W,1,00,    ,1185.94,M,0.0,M,0.0,0000*54
$GPGSV,3,1,9,10,63,305,38.0,15,20,118,30.9,16,25,228,27.3,18,36,162,31.0*4A
$GPGSV,3,2,9,25,18,016,22.8,26,42,255,33.8,29,43,087,35.6,31,08,315,25.4*45
$GPGSV,3,3,9,32,16,357,34.9*67
$GPRMC,224537.00,A,1550.518822,S,04801.892854,W,002.1,096.1,100922,,,A*53
$GPGGA,224538.00,1550.518884,S,04801.892304,W,1,00,    ,1185.52,M,0.0,M,0.0,0000*53
$GPGSV,3,1,9,10,63,305,39.0,15,20,118,32.6,16,25,228,22.9,18,36,162,28.2*43
$GPGSV,3,2,9,25,18,016,21.9,26,42,255,36.3,29,43,087,35.4,31,08,315,25.4*4B
$GPGSV,3,3,9,32,16,357,36.2*6E
$GPRMC,224538.00,A,1550.518884,S,04801.892304,W,003.4,100.0,100922,,,A*55
$GPGGA,224539.00,1550.519090,S,04801.891395,W,1,00,    ,1184.92,M,0.0,M,0.0,0000*58
$GPGSV,2,1,8,10,63,305,38.9,15,20,118,27.8,16,25,228,17.6,18,36,162,27.1*44
$GPGSV,2,2,8,26,42,255,37.2,29,43,087,36.0,31,08,315,29.2,32,16,357,32.5*46
$GPRMC,224539.00,A,1550.519090,S,04801.891395,W,004.5,098.0,100922,,,A*55
$GPGGA,224540.00,1550.519297,S,04801.890165,W,1,00,    ,1184.23,M,0.0,M,0.0,0000*55
$GPGSV,2,1,8,10,63,305,38.8,15,20,118,18.8,16,25,228,18.5,18,36,162,28.0*4B
$GPGSV,2,2,8,26,42,255,37.1,29,43,087,34.0,31,08,315,27.8,32,16,357,29.6*4A
$GPRMC,224540.00,A,1550.519297,S,04801.890165,W,006.1,098.9,100922,,,A*5D
$GPGGA,224541.00,1550.519512,S,04801.888528,W,1,00,    ,1183.61,M,0.0,M,0.0,0000*5B
$GPGSV,2,1,7,10,63,305,38.9,16,25,228,22.8,18,36,162,28.9,26,42,255,36.6*44
$GPGSV,2,2,7,29,43,087,30.8,31,08,315,30.4,32,16,357,31.9*6E
$GPRMC,224541.00,A,1550.519512,S,04801.888528,W,006.6,096.3,100922,,,A*51
$GPGGA,224542.00,1550.519729,S,04801.886585,W,1,00,    ,1183.10,M,0.0,M,0.0,0000*5D
$GPGSV,2,1,8,10,63,305,38.4,15,20,118,16.4,16,25,228,21.4,18,36,162,28.2*4C
$GPGSV,2,2,8,26,42,255,35.6,29,42,087,35.4,31,08,315,28.7,32,16,357,31.5*41
$GPRMC,224542.00,A,1550.519729,S,04801.886585,W,006.5,094.6,100922,,,A*55
$GPGGA,224543.00,1550.519834,S,04801.884670,W,1,00,    ,1182.74,M,0.0,M,0.0,0000*57
$GPGSV,2,1,7,10,63,305,28.7,16,25,228,20.5,18,36,162,29.7,26,42,255,34.7*48
$GPGSV,2,2,7,29,42,087,36.3,31,08,315,27.3,32,16,357,30.3*68
$GPRMC,224543.00,A,1550.519834,S,04801.884670,W,007.0,093.2,100922,,,A*5B
$GPGGA,224544.00,1550.519913,S,04801.882599,W,1,00,    ,1182.29,M,0.0,M,0.0,0000*5E
$GPGSV,2,1,7,10,63,305,26.8,16,25,228,19.9,18,36,162,28.6,26,42,255,31.9*44
$GPGSV,2,2,7,29,42,087,30.4,31,08,315,24.3,32,16,357,25.1*6C
$GPRMC,224544.00,A,1550.519913,S,04801.882599,W,006.9,081.6,100922,,,A*55
$GPGGA,224545.00,1550.519628,S,04801.880647,W,1,00,    ,1181.93,M,0.0,M,0.0,0000*58
$GPGSV,2,1,8,10,63,305,22.7,15,20,118,17.2,16,25,228,18.6,18,36,162,27.9*4F
$GPGSV,2,2,8,26,42,255,31.3,29,42,087,27.9,31,08,315,24.8,32,16,357,25.4*49
$GPRMC,224545.00,A,1550.519628,S,04801.880647,W,006.1,086.4,100922,,,A*5C
$GPGGA,224546.00,1550.519432,S,04801.878999,W,1,00,    ,1181.20,M,0.0,M,0.0,0000*51
$GPGSV,2,1,7,10,63,305,26.3,16,25,228,22.8,18,36,162,22.9,26,42,255,34.1*4E
$GPGSV,2,2,7,29,42,087,25.8,31,08,315,29.3,32,16,357,26.2*69
$GPRMC,224546.00,A,1550.519432,S,04801.878999,W,002.9,035.8,100922,,,A*55
$GPGGA,224547.00,1550.518902,S,04801.878181,W,1,00,    ,1180.70,M,0.0,M,0.0,0000*5A
$GPGSV,2,1,7,10,63,305,25.1,15,20,118,17.2,16,25,228,22.2,26,42,255,36.2*4E
$GPGSV,2,2,7,29,42,087,35.0,31,08,315,24.7,32,16,357,26.0*6B
$GPRMC,224547.00,A,1550.518902,S,04801.878181,W,004.3,069.9,100922,,,A*5E
$GPGGA,224548.00,1550.518409,S,04801.876923,W,1,00,    ,1180.15,M,0.0,M,0.0,0000*5E
$GPGSV,2,1,7,10,63,305,23.0,16,25,228,22.8,18,36,162,20.0,26,42,255,31.0*47
$GPGSV,2,2,7,29,42,087,35.4,31,08,315,25.7,32,16,357,26.6*68
$GPRMC,224548.00,A,1550.518409,S,04801.876923,W,003.6,060.3,100922,,,A*58
$GPGGA,224549.00,1550.517092,S,04801.875808,W,1,00,    ,1179.95,M,0.0,M,0.0,0000*53
$GPGSV,2,1,8,10,63,305,28.2,16,25,228,27.0,18,36,162,22.1,25,18,016,11.1*45
$GPGSV,2,2,8,26,42,255,23.2,29,42,087,37.6,31,08,315,25.2,32,16,357,34.3*49
$GPRMC,224549.00,A,1550.517092,S,04801.875808,W,003.9,013.6,100922,,,A*55
$GPGGA,224550.00,1550.515724,S,04801.875342,W,1,00,    ,1180.16,M,0.0,M,0.0,0000*5B
$GPGSV,2,1,8,10,63,305,33.2,15,20,118,14.2,16,25,228,27.8,18,36,162,28.8*45
$GPGSV,2,2,8,26,42,255,20.6,29,42,087,39.9,31,08,315,32.4,32,16,357,31.7*4E
$GPRMC,224550.00,A,1550.515724,S,04801.875342,W,005.5,012.1,100922,,,A*5C
$GPGGA,224551.00,1550.513931,S,04801.874839,W,1,00,    ,1179.04,M,0.0,M,0.0,0000*55
$GPGSV,2,1,7,10,63,305,29.8,16,25,228,22.8,18,36,162,34.2,26,42,255,21.5*46
$GPGSV,2,2,7,29,42,087,38.0,31,08,315,34.0,32,16,357,30.1*66
$GPRMC,224551.00,A,1550.513931,S,04801.874839,W,006.1,004.4,100922,,,A*52
$GPGGA,224552.00,1550.511803,S,04801.874536,W,1,00,    ,1178.99,M,0.0,M,0.0,0000*53
$GPGSV,2,1,7,10,63,305,34.3,16,25,228,24.7,18,36,162,29.7,26,42,255,22.4*43
$GPGSV,2,2,7,29,42,087,34.5,31,08,315,37.0,32,16,357,33.2*6C
$GPRMC,224552.00,A,1550.511803,S,04801.874536,W,006.5,001.1,100922,,,A*55
$GPGGA,224553.00,1550.509566,S,04801.874233,W,1,00,    ,1179.39,M,0.0,M,0.0,0000*5C
$GPGSV,2,1,7,10,63,305,36.5,16,25,228,22.2,18,36,162,29.1,26,42,255,23.2*45
$GPGSV,2,2,7,29,42,087,33.5,31,08,315,34.1,32,16,357,33.5*6E
$GPRMC,224553.00,A,1550.509566,S,04801.874233,W,006.9,359.4,100922,,,A*56
$GPGGA,224554.00,1550.507178,S,04801.873.00,W,1,00,    ,1178.64,M,0.0,M,0.0,0000*5B
$GPGSV,2,1,8,10,63,305,36.4,15,20,118,13.7,16,25,228,23.2,18,36,162,30.9*42
$GPGSV,2,2,8,26,42,255,22.0,29,42,087,34.6,31,08,315,32.6,32,16,357,32.3*4D
$GPRMC,224554.00,A,1550.507178,S,04801.873.00,W,005.5,001.5,100922,,,A*58
$GPGGA,224555.00,1550.505071,S,04801.873507,W,1,00,    ,1179.00,M,0.0,M,0.0,0000*58
$GPGSV,2,1,7,10,63,305,34.0,16,25,228,25.0,18,36,162,31.7,26,42,255,21.4*4C
$GPGSV,2,2,7,29,42,087,35.2,31,08,315,28.8,32,16,357,31.2*6E
$GPRMC,224555.00,A,1550.505071,S,04801.873507,W,004.4,012.0,100922,,,A*5F
$GPGGA,224556.00,1550.503645,S,04801.872948,W,1,00,    ,1178.93,M,0.0,M,0.0,0000*51
$GPGSV,2,1,7,10,63,305,34.6,16,25,228,26.8,18,36,162,32.5,26,42,255,28.9*44
$GPGSV,2,2,7,29,42,087,34.1,31,08,315,29.9,32,16,357,26.6*6E
$GPRMC,224556.00,A,1550.503645,S,04801.872948,W,002.8,011.5,100922,,,A*51
$GPGGA,224557.00,1550.503047,S,04801.872558,W,1,00,    ,1179.08,M,0.0,M,0.0,0000*5A
$GPGSV,2,1,7,10,63,305,38.2,16,25,228,29.3,18,36,162,34.3,26,42,255,33.4*4F
$GPGSV,2,2,7,29,42,087,34.4,31,08,315,28.1,32,16,357,20.1*63
$GPRMC,224557.00,A,1550.503047,S,04801.872558,W,002.4,009.7,100922,,,A*5E
$GPGGA,224558.00,1550.502208,S,04801.872239,W,1,00,    ,1178.85,M,0.0,M,0.0,0000*59
$GPGSV,2,1,7,10,63,305,36.6,16,25,228,31.5,18,36,162,35.8,26,42,255,34.4*47
$GPGSV,2,2,7,29,42,087,37.0,31,08,315,29.4,32,16,357,23.7*65
$GPRMC,224558.00,A,1550.502208,S,04801.872239,W,001.6,011.9,100922,,,A*5F
$GPGGA,224559.00,1550.501937,S,04801.872006,W,1,00,    ,1177.94,M,0.0,M,0.0,0000*5D
$GPGSV,2,1,8,10,63,305,29.5,15,20,118,13.3,16,25,228,28.3,18,36,162,35.3*4C
$GPGSV,2,2,8,26,42,255,32.9,29,42,087,37.2,31,08,315,31.5,32,16,357,19.5*4D
$GPRMC,224559.00,A,1550.501937,S,04801.872006,W,002.1,028.5,100922,,,A*56
$GPGGA,224600.00,1550.501425,S,04801.871701,W,1,00,    ,1177.27,M,0.0,M,0.0,0000*57
$GPGSV,2,1,7,10,63,305,24.6,16,25,228,26.9,18,36,162,37.1,26,42,255,31.4*40
$GPGSV,2,2,7,29,42,087,37.2,31,08,315,33.1,32,16,357,23.0*6E
$GPRMC,224600.00,A,1550.501425,S,04801.871701,W,002.5,026.4,100922,,,A*5F
$GPGGA,224601.00,1550.500558,S,04801.871241,W,1,00,    ,1176.46,M,0.0,M,0.0,0000*5B
$GPGSV,2,1,8,10,63,305,30.4,16,25,228,25.0,18,36,162,34.0,25,18,016,8.0*77
$GPGSV,2,2,8,26,42,255,31.4,29,42,087,38.9,31,08,315,34.0,32,16,357,18.2*41
$GPRMC,224601.00,A,1550.500558,S,04801.871241,W,002.8,036.6,100922,,,A*5B
$GPGGA,224602.00,1550.499746,S,04801.870815,W,1,00,    ,1175.89,M,0.0,M,0.0,0000*5E
$GPGSV,2,1,7,10,63,305,24.5,16,25,228,24.7,18,36,162,34.9,26,42,255,33.1*43
$GPGSV,2,2,7,29,42,087,37.0,31,08,315,33.2,32,16,357,19.7*61
$GPRMC,224602.00,A,1550.499746,S,04801.870815,W,003.2,042.6,100922,,,A*56
$GPGGA,224603.00,1550.498934,S,04801.870107,W,1,00,    ,1175.18,M,0.0,M,0.0,0000*57
$GPGSV,2,1,7,10,63,305,29.0,15,20,118,14.9,16,25,228,26.9,18,36,162,34.0*4D
$GPGSV,2,2,7,26,42,255,35.0,29,42,087,35.8,31,08,315,28.6*6B
$GPRMC,224603.00,A,1550.498934,S,04801.870107,W,004.6,054.2,100922,,,A*57
$GPGGA,224604.00,1550.497484,S,04801.869072,W,1,00,    ,1175.10,M,0.0,M,0.0,0000*5A
$GPGSV,2,1,7,10,63,305,26.1,16,25,228,32.2,18,36,162,33.4,26,42,255,35.6*4C
$GPGSV,2,2,7,29,42,087,35.7,31,08,315,30.2,32,16,357,15.3*6F
$GPRMC,224604.00,A,1550.497484,S,04801.869072,W,004.7,077.4,100922,,,A*54
$GPGGA,224605.00,1550.497330,S,04801.867781,W,1,00,    ,1173.80,M,0.0,M,0.0,0000*59
$GPGSV,2,1,6,10,63,305,26.8,16,25,228,30.7,18,36,162,32.5,26,42,255,33.8*4B
$GPGSV,2,2,6,29,42,087,37.2,31,08,315,30.2*47
$GPRMC,224605.00,A,1550.497330,S,04801.867781,W,005.4,077.8,100922,,,A*56
$GPGGA,224606.00,1550.497026,S,04801.866473,W,1,00,    ,1173.34,M,0.0,M,0.0,0000*5E
$GPGSV,2,1,6,10,64,305,34.1,16,25,228,34.9,18,36,162,36.4,26,42,255,34.8*4E
$GPGSV,2,2,6,29,42,087,27.2,31,08,315,27.6*44
$GPRMC,224606.00,A,1550.497026,S,04801.866473,W,005.1,097.8,100922,,,A*55
$GPGGA,224607.00,1550.497286,S,04801.865121,W,1,00,    ,1173.37,M,0.0,M,0.0,0000*55
$GPGSV,2,1,6,10,64,305,35.5,16,25,228,34.8,18,36,162,37.7,26,42,255,32.9*4F
$GPGSV,2,2,6,29,42,087,27.9,31,08,315,28.4*42
$GPRMC,224607.00,A,1550.497286,S,04801.865121,W,005.5,091.0,100922,,,A*57
$GPGGA,224608.00,1550.497316,S,04801.863460,W,1,00,    ,1173.05,M,0.0,M,0.0,0000*55
$GPGSV,2,1,8,10,64,305,37.7,15,20,118,13.2,16,25,228,36.7,18,36,162,34.3*4D
$GPGSV,2,2,8,26,42,255,26.4,29,42,087,33.4,31,08,315,28.3,32,16,357,14.2*43
$GPRMC,224608.00,A,1550.497316,S,04801.863460,W,005.7,092.6,100922,,,A*51
$GPGGA,224609.00,1550.497452,S,04801.861979,W,1,00,    ,1172.92,M,0.0,M,0.0,0000*5B
$GPGSV,2,1,6,10,64,305,36.9,16,25,228,35.4,18,36,162,36.4,26,42,255,18.8*46
$GPGSV,2,2,6,29,42,087,35.9,31,08,315,29.0*44
$GPRMC,224609.00,A,1550.497452,S,04801.861979,W,004.6,092.5,100922,,,A*53
$GPGGA,224610.00,1550.497410,S,04801.860655,W,1,00,    ,1172.62,M,0.0,M,0.0,0000*5A
$GPGSV,2,1,7,10,64,305,37.0,16,25,228,36.2,18,36,162,36.6,25,18,016,12.7*44
$GPGSV,2,2,7,26,42,255,22.6,29,42,087,34.6,31,08,315,31.8*62
$GPRMC,224610.00,A,1550.497410,S,04801.860655,W,002.9,093.6,100922,,,A*56
$GPGGA,224611.00,1550.497505,S,04801.859936,W,1,00,    ,1172.23,M,0.0,M,0.0,0000*5B
$GPGSV,2,1,7,10,64,305,38.4,15,20,118,16.6,16,25,228,37.2,18,36,162,34.6*4E
$GPGSV,2,2,7,26,42,255,25.3,29,42,087,33.8,31,08,315,29.8*60
$GPRMC,224611.00,A,1550.497505,S,04801.859936,W,002.2,088.8,100922,,,A*5D
$GPGGA,224612.00,1550.497406,S,04801.859421,W,1,00,    ,1172.08,M,0.0,M,0.0,0000*58
$GPGSV,2,1,6,10,64,305,38.0,16,25,228,36.3,18,36,162,35.5,26,42,255,22.4*42
$GPGSV,2,2,6,29,42,087,32.4,31,08,315,29.2*4C
$GPRMC,224612.00,A,1550.497406,S,04801.859421,W,001.6,090.5,100922,,,A*54
$GPGGA,224613.00,1550.497363,S,04801.859192,W,1,00,    ,1171.89,M,0.0,M,0.0,0000*5A
$GPGSV,3,1,9,10,64,305,37.9,15,20,118,16.8,16,25,228,37.5,18,36,162,37.0*4F
$GPGSV,3,2,9,25,18,016,16.2,26,42,255,24.4,29,42,087,31.4,31,08,315,29.8*45
$GPGSV,3,3,9,32,16,357,13.7*6C
$GPRMC,224613.00,A,1550.497363,S,04801.859192,W,001.7,089.7,100922,,,A*57
$GPGGA,224614.00,1550.497337,S,04801.858760,W,1,00,    ,1171.53,M,0.0,M,0.0,0000*51
$GPGSV,2,1,6,10,64,305,37.7,16,25,228,37.8,18,36,162,37.5,26,42,255,26.6*44
$GPGSV,2,2,6,29,42,087,31.3,31,08,315,28.8*43
$GPRMC,224614.00,A,1550.497337,S,04801.858760,W,002.2,081.7,100922,,,A*55
$GPGGA,224615.00,1550.497257,S,04801.858280,W,1,00,    ,1171.21,M,0.0,M,0.0,0000*59
$GPGSV,2,1,7,10,64,305,38.2,15,20,118,18.8,16,25,228,36.4,18,36,162,36.7*4C
$GPGSV,2,2,7,26,42,255,26.3,29,42,087,30.6,31,08,315,30.9*67
$GPRMC,224615.00,A,1550.497257,S,04801.858280,W,003.2,087.6,100922,,,A*5E
$GPGGA,224616.00,1550.497.00,S,04801.857367,W,1,00,    ,1170.34,M,0.0,M,0.0,0000*59
$GPGSV,2,1,6,10,64,305,37.8,16,25,228,35.9,18,36,162,36.1,26,42,255,30.8*44
$GPGSV,2,2,6,29,42,087,31.2,31,08,315,30.9*4A
$GPRMC,224616.00,A,1550.497.00,S,04801.857367,W,005.4,086.4,100922,,,A*58
$GPGGA,224617.00,1550.497022,S,04801.855757,W,1,00,    ,1169.75,M,0.0,M,0.0,0000*51
$GPGSV,2,1,6,10,64,305,37.5,16,25,228,35.6,18,36,162,37.1,26,42,255,29.9*4E
$GPGSV,2,2,6,29,42,087,30.7,31,08,315,30.8*4F
$GPRMC,224617.00,A,1550.497022,S,04801.855757,W,007.6,088.6,100922,,,A*51
$GPGGA,224618.00,1550.496907,S,04801.853707,W,1,00,    ,1169.50,M,0.0,M,0.0,0000*55
$GPGSV,3,1,9,10,64,305,36.0,15,20,118,16.3,16,25,228,36.5,18,36,162,37.1*4C
$GPGSV,3,2,9,25,18,016,14.3,26,42,255,30.8,29,42,087,34.0,31,08,315,31.2*4D
$GPGSV,3,3,9,32,16,357,16.2*6C
$GPRMC,224618.00,A,1550.496907,S,04801.853707,W,008.7,090.7,100922,,,A*54
$GPGGA,224619.00,1550.497118,S,04801.851275,W,1,00,    ,1169.64,M,0.0,M,0.0,0000*56
$GPGSV,3,1,9,10,64,305,37.3,15,20,118,18.3,16,25,228,36.1,18,36,162,37.1*44
$GPGSV,3,2,9,25,18,016,25.9,26,42,255,27.2,29,42,087,32.9,31,08,315,31.1*45
$GPGSV,3,3,9,32,16,357,30.0*6A
$GPRMC,224619.00,A,1550.497118,S,04801.851275,W,010.5,090.9,100922,,,A*55
$GPGGA,224620.00,1550.497325,S,04801.848364,W,1,00,    ,1169.23,M,0.0,M,0.0,0000*5A
$GPGSV,3,1,9,10,64,305,35.8,15,20,118,18.2,16,25,228,37.0,18,36,162,28.9*4A
$GPGSV,3,2,9,25,18,016,21.5,26,42,255,27.7,29,42,087,31.8,31,08,315,23.9*41
$GPGSV,3,3,9,32,16,357,29.0*62
$GPRMC,224620.00,A,1550.497325,S,04801.848364,W,012.4,091.5,100922,,,A*54
$GPGGA,224621.00,1550.497537,S,04801.844696,W,1,00,    ,1169.07,M,0.0,M,0.0,0000*5C
$GPGSV,3,1,9,10,64,305,36.6,15,20,118,21.0,16,25,228,38.0,18,36,162,17.7*42
$GPGSV,3,2,9,25,17,016,17.7,26,42,255,27.9,29,42,087,35.0,31,07,315,19.7*43
$GPGSV,3,3,9,32,16,357,26.1*6C
$GPRMC,224621.00,A,1550.497537,S,04801.844696,W,013.9,089.9,100922,,,A*5D
$GPGGA,224622.00,1550.497752,S,04801.840480,W,1,00,    ,1167.48,M,0.0,M,0.0,0000*5A
$GPGSV,2,1,7,10,64,305,36.1,15,20,118,20.2,16,25,228,37.3,26,42,255,28.8*4F
$GPGSV,2,2,7,29,42,087,33.8,31,07,315,26.1,32,16,357,27.8*67
$GPRMC,224622.00,A,1550.497752,S,04801.840480,W,014.1,080.2,100922,,,A*53
$GPGGA,224623.00,1550.497396,S,04801.836311,W,1,00,    ,1167.15,M,0.0,M,0.0,0000*51
$GPGSV,2,1,6,10,64,305,35.7,15,20,118,23.9,16,25,228,35.3,26,42,255,31.8*49
$GPGSV,2,2,6,29,42,087,33.2,32,16,357,30.8*43
$GPRMC,224623.00,A,1550.497396,S,04801.836311,W,015.3,090.1,100922,,,A*51
$GPGGA,224624.00,1550.497648,S,04801.831783,W,1,00,    ,1166.82,M,0.0,M,0.0,0000*57
$GPGSV,2,1,8,10,64,305,37.4,15,20,118,34.4,16,25,228,35.6,25,17,016,20.6*40
$GPGSV,2,2,8,26,42,255,27.8,29,42,087,33.9,31,07,315,22.0,32,16,357,20.0*40
$GPRMC,224624.00,A,1550.497648,S,04801.831783,W,015.4,087.9,100922,,,A*51
$GPGGA,224625.00,1550.497668,S,04801.827277,W,1,00,    ,1166.29,M,0.0,M,0.0,0000*5C
$GPGSV,2,1,6,10,64,305,36.4,15,20,118,32.0,16,25,228,18.9,25,17,016,24.0*4F
$GPGSV,2,2,6,26,42,255,30.1,29,42,087,31.7*4A
$GPRMC,224625.00,A,1550.497668,S,04801.827277,W,016.6,090.6,100922,,,A*53
$GPGGA,224626.00,1550.497724,S,04801.817413,W,1,00,    ,,M,0.0,M,0.0,0000*4F
$GPRMC,224626.00,A,,,,,,,100922,,,A*6B
$GPGGA,224627.00,1550.497724,S,04801.817413,W,1,00,    ,1165.13,M,0.0,M,0.0,0000*5A
$GPGSV,2,1,7,10,64,305,37.4,15,20,118,18.6,16,25,228,21.9,18,36,162,22.2*40
$GPGSV,2,2,7,26,42,255,27.9,29,42,087,31.5,32,16,357,17.0*68
$GPRMC,224627.00,A,1550.497724,S,04801.817413,W,016.9,089.3,100922,,,A*5D
$GPGGA,224628.00,1550.497668,S,04801.812431,W,1,00,    ,1164.54,M,0.0,M,0.0,0000*5B
$GPGSV,2,1,6,10,64,305,36.7,15,20,118,19.5,18,36,162,24.0,25,17,016,15.7*42
$GPGSV,2,2,6,26,42,255,21.1,29,42,087,29.7*43
$GPRMC,224628.00,A,1550.497668,S,04801.812431,W,017.1,089.5,100922,,,A*51
$GPGGA,224629.00,1550.497949,S,04801.807284,W,1,00,    ,1164.02,M,0.0,M,0.0,0000*59
$GPGSV,2,1,6,10,64,305,36.9,15,20,118,21.2,18,36,162,33.0,25,17,016,18.5*49
$GPGSV,2,2,6,26,42,255,23.0,29,42,087,29.4*43
$GPRMC,224629.00,A,1550.497949,S,04801.807284,W,017.5,089.8,100922,,,A*59
$GPGGA,224630.00,1550.498151,S,04801.802.00,W,1,00,    ,1163.48,M,0.0,M,0.0,0000*5D
$GPGSV,2,1,6,10,64,305,35.6,18,36,162,38.5,25,17,016,19.9,26,42,255,22.3*4A
$GPGSV,2,2,6,29,42,087,31.4,32,16,357,22.9*45
$GPRMC,224630.00,A,1550.498151,S,04801.802.00,W,017.3,090.1,100922,,,A*53
$GPGGA,224631.00,1550.498464,S,04801.796904,W,1,00,    ,1162.89,M,0.0,M,0.0,0000*5C
$GPGSV,2,1,7,10,64,305,27.1,15,20,118,17.5,18,36,162,37.9,25,17,016,23.7*45
$GPGSV,2,2,7,26,42,255,24.2,29,42,087,30.1,32,16,357,28.4*6D
$GPRMC,224631.00,A,1550.498464,S,04801.796904,W,017.4,091.0,100922,,,A*59
$GPGGA,224632.00,1550.498599,S,04801.791632,W,1,00,    ,1162.10,M,0.0,M,0.0,0000*51
$GPGSV,2,1,6,10,64,305,34.1,18,36,162,30.5,25,17,016,25.6,26,42,255,31.3*46
$GPGSV,2,2,6,29,42,087,32.9,32,16,357,27.8*4F
$GPRMC,224632.00,A,1550.498599,S,04801.791632,W,016.9,091.2,100922,,,A*5A
$GPGGA,224633.00,1550.498802,S,04801.786638,W,1,00,    ,1161.63,M,0.0,M,0.0,0000*54
$GPGSV,2,1,6,10,64,305,36.7,18,36,162,18.3,25,17,016,31.4,26,42,255,30.1*4A
$GPGSV,2,2,6,29,42,087,32.3,32,16,357,29.0*43
$GPRMC,224633.00,A,1550.498802,S,04801.786638,W,016.3,090.5,100922,,,A*54
$GPGGA,224634.00,1550.498966,S,04801.781871,W,1,00,    ,1161.52,M,0.0,M,0.0,0000*56
$GPGSV,2,1,6,10,64,305,35.8,25,17,016,33.2,26,42,255,33.0,29,42,087,31.9*4A
$GPGSV,2,2,6,31,07,315,12.4,32,16,357,32.5*49
$GPRMC,224634.00,A,1550.498966,S,04801.781871,W,016.1,090.4,100922,,,A*57
$GPGGA,224635.00,1550.499208,S,04801.777153,W,1,00,    ,1160.59,M,0.0,M,0.0,0000*5F
$GPGSV,2,1,6,10,64,305,36.7,15,20,118,16.4,25,17,016,29.4,26,42,255,35.0*49
$GPGSV,2,2,6,29,42,087,30.6,32,16,357,24.9*40
$GPRMC,224635.00,A,1550.499208,S,04801.777153,W,015.9,088.2,100922,,,A*50
$GPGGA,224636.00,1550.498876,S,04801.772591,W,1,00,    ,1160.06,M,0.0,M,0.0,0000*5B
$GPGSV,2,1,6,10,64,305,36.9,15,20,118,21.5,25,17,016,27.2,26,42,256,32.7*49
$GPGSV,2,2,6,29,42,087,30.8,32,16,357,27.2*46
$GPRMC,224636.00,A,1550.498876,S,04801.772591,W,015.5,087.9,100922,,,A*56
$GPGGA,224637.00,1550.498233,S,04801.768206,W,1,00,    ,1159.85,M,0.0,M,0.0,0000*52
$GPGSV,2,1,6,10,64,305,39.0,15,20,118,23.8,25,17,016,31.5,26,42,256,28.9*45
$GPGSV,2,2,6,29,42,087,30.0,32,16,357,19.9*48
$GPRMC,224637.00,A,1550.498233,S,04801.768206,W,015.7,089.6,100922,,,A*5D
$GPGGA,224638.00,1550.498291,S,04801.763591,W,1,00,    ,1159.83,M,0.0,M,0.0,0000*51
$GPGSV,2,1,5,10,64,305,38.4,15,20,118,22.3,25,17,016,29.0,26,42,256,30.6*43
$GPGSV,2,2,5,29,42,087,31.6*64
$GPRMC,224638.00,A,1550.498291,S,04801.763591,W,015.9,091.5,100922,,,A*5C
$GPGGA,224639.00,1550.498478,S,04801.758946,W,1,00,    ,1159.70,M,0.0,M,0.0,0000*53
$GPGSV,2,1,8,10,64,305,38.9,15,20,118,19.2,16,25,228,7.2,25,17,016,28.7*77
$GPGSV,2,2,8,26,42,256,31.5,29,42,087,30.6,31,07,315,13.7,32,16,357,17.7*43
$GPRMC,224639.00,A,1550.498478,S,04801.758946,W,015.8,090.7,100922,,,A*50
$GPGGA,224640.00,1550.498692,S,04801.754099,W,1,00,    ,1159.38,M,0.0,M,0.0,0000*50
$GPGSV,2,1,7,10,64,304,37.0,15,20,118,21.9,25,17,016,30.0,26,42,256,29.8*4C
$GPGSV,2,2,7,29,42,087,31.4,31,07,315,20.0,32,16,357,19.4*6F
$GPRMC,224640.00,A,1550.498692,S,04801.754099,W,016.1,090.4,100922,,,A*56
$GPGGA,224641.00,1550.498902,S,04801.749367,W,1,00,    ,1156.52,M,0.0,M,0.0,0000*5A
$GPGSV,2,1,7,10,64,304,35.9,15,20,118,26.8,25,17,016,29.8,26,42,256,27.4*43
$GPGSV,2,2,7,29,42,087,32.4,31,07,315,26.1,32,16,357,20.9*6C
$GPRMC,224641.00,A,1550.498902,S,04801.749367,W,014.4,096.4,100922,,,A*5E
$GPGGA,224642.00,1550.499519,S,04801.745091,W,1,00,    ,1153.72,M,0.0,M,0.0,0000*5F
$GPGSV,2,1,7,10,64,304,37.9,15,20,118,26.8,25,17,016,30.1,26,42,256,28.0*4B
$GPGSV,2,2,7,29,42,087,33.2,31,07,315,26.3,32,16,357,21.3*62
$GPRMC,224642.00,A,1550.499519,S,04801.745091,W,013.7,094.9,100922,,,A*57
$GPGGA,224643.00,1550.499733,S,04801.741057,W,1,00,    ,1152.91,M,0.0,M,0.0,0000*56
$GPGSV,2,1,8,10,64,304,37.7,15,20,118,27.3,18,36,162,19.5,25,17,016,25.9*41
$GPGSV,2,2,8,26,42,256,29.8,29,42,087,32.8,31,07,315,21.9,32,16,357,24.8*4B
$GPRMC,224643.00,A,1550.499733,S,04801.741057,W,013.8,090.1,100922,,,A*51
$GPGGA,224644.00,1550.499361,S,04801.736952,W,1,00,    ,1153.49,M,0.0,M,0.0,0000*5A
$GPGSV,2,1,8,10,64,304,36.4,15,20,118,29.2,18,36,162,29.4,25,17,016,29.4*4F
$GPGSV,2,2,8,26,42,256,27.6,29,42,087,35.1,31,07,315,25.3,32,16,357,23.7*43
$GPRMC,224644.00,A,1550.499361,S,04801.736952,W,013.3,093.0,100922,,,A*50
$GPGGA,224645.00,1550.499697,S,04801.733125,W,1,00,    ,1154.32,M,0.0,M,0.0,0000*51
$GPGSV,3,1,9,10,64,304,37.9,15,20,118,30.3,16,25,228,13.9,18,36,162,35.4*4D
$GPGSV,3,2,9,25,17,016,29.7,26,42,256,27.3,29,42,087,35.0,31,07,315,22.6*4E
$GPGSV,3,3,9,32,16,357,29.3*61
$GPRMC,224645.00,A,1550.499697,S,04801.733125,W,012.7,091.6,100922,,,A*51
$GPGGA,224646.00,1550.500039,S,04801.729351,W,1,00,    ,1154.69,M,0.0,M,0.0,0000*55
$GPGSV,3,1,9,10,64,304,36.8,15,20,118,28.8,16,25,228,18.2,18,36,162,36.4*4C
$GPGSV,3,2,9,25,17,016,29.3,26,42,256,27.0,29,42,087,32.9,31,07,315,22.6*47
$GPGSV,3,3,9,32,16,357,27.9*65
$GPRMC,224646.00,A,1550.500039,S,04801.729351,W,012.4,090.0,100922,,,A*5F
$GPGGA,224647.00,1550.500031,S,04801.725656,W,1,00,    ,1154.00,M,0.0,M,0.0,0000*5D
$GPGSV,2,1,8,10,64,304,35.8,15,20,118,28.4,18,36,162,36.4,25,17,016,22.7*41
$GPGSV,2,2,8,26,42,256,25.6,29,42,087,33.7,31,07,315,23.3,32,16,357,25.7*41
$GPRMC,224647.00,A,1550.500031,S,04801.725656,W,012.3,094.1,100922,,,A*5A
$GPGGA,224648.00,1550.500228,S,04801.722054,W,1,00,    ,1154.28,M,0.0,M,0.0,0000*51
$GPGSV,2,1,8,10,64,304,38.4,15,20,118,26.1,16,25,228,16.2,18,36,162,35.8*48
$GPGSV,2,2,8,26,42,256,23.9,29,42,087,34.5,31,07,315,27.9,32,16,357,25.5*41
$GPRMC,224648.00,A,1550.500228,S,04801.722054,W,012.2,093.4,100922,,,A*5F
$GPGGA,224649.00,1550.500235,S,04801.718491,W,1,00,    ,1154.16,M,0.0,M,0.0,0000*55
$GPGSV,2,1,8,10,64,304,37.0,15,20,118,27.9,16,25,228,25.5,18,36,162,36.9*4F
$GPGSV,2,2,8,26,42,256,25.5,29,42,087,34.9,31,07,315,25.1,32,16,357,25.2*4A
$GPRMC,224649.00,A,1550.500235,S,04801.718491,W,012.1,091.2,100922,,,A*51
$GPGGA,224650.00,1550.500248,S,04801.715252,W,1,00,    ,1154.07,M,0.0,M,0.0,0000*53
$GPGSV,2,1,8,10,64,304,37.8,15,20,118,24.1,16,25,228,37.3,18,36,162,38.7*49
$GPGSV,2,2,8,26,42,256,24.3,29,42,087,34.0,31,07,315,31.0,32,16,357,25.8*4A
$GPRMC,224650.00,A,1550.500248,S,04801.715252,W,012.3,090.9,100922,,,A*5F
$GPGGA,224651.00,1550.500410,S,04801.712239,W,1,00,    ,1154.34,M,0.0,M,0.0,0000*53
$GPGSV,2,1,8,10,64,304,36.8,15,20,118,24.0,16,25,228,37.8,18,36,161,38.2*44
$GPGSV,2,2,8,25,17,016,22.2,26,42,256,23.2,29,42,087,34.5,31,07,315,32.3*45
$GPRMC,224651.00,A,1550.500410,S,04801.712239,W,012.1,091.0,100922,,,A*55
$GPGGA,224652.00,1550.501974,S,04801.709338,W,1,00,    ,1155.30,M,0.0,M,0.0,0000*51
$GPGSV,3,1,9,10,64,304,37.5,15,20,118,23.3,16,25,228,35.8,18,36,161,39.1*4C
$GPGSV,3,2,9,25,17,016,25.1,26,42,256,25.9,29,42,087,34.0,31,07,315,28.2*43
$GPGSV,3,3,9,32,16,357,23.6*6E
$GPRMC,224652.00,A,1550.501974,S,04801.709338,W,012.0,089.2,100922,,,A*58
$GPGGA,224653.00,1550.501631,S,04801.706021,W,1,00,    ,1155.03,M,0.0,M,0.0,0000*5A
$GPGSV,2,1,8,10,64,304,36.6,15,20,118,25.5,16,26,228,35.9,18,36,161,38.5*49
$GPGSV,2,2,8,26,42,256,24.9,29,42,087,34.9,31,07,315,27.8,32,16,357,21.2*48
$GPRMC,224653.00,A,1550.501631,S,04801.706021,W,011.4,091.4,100922,,,A*5B
$GPGGA,224654.00,1550.501866,S,04801.702821,W,1,00,    ,1155.21,M,0.0,M,0.0,0000*5D
$GPGSV,2,1,8,10,64,304,37.2,15,20,118,25.9,16,26,228,38.5,18,36,161,37.4*4F
$GPGSV,2,2,8,26,42,256,27.1,29,42,087,34.1,31,07,315,17.2,32,16,357,28.8*41
$GPRMC,224654.00,A,1550.501866,S,04801.702821,W,010.5,091.8,100922,,,A*50
$GPGGA,224655.00,1550.501820,S,04801.699886,W,1,00,    ,1154.77,M,0.0,M,0.0,0000*52
$GPGSV,2,1,8,10,64,304,37.4,15,20,118,25.1,16,26,228,38.1,18,36,161,35.9*4A
$GPGSV,2,2,8,25,17,016,16.3,26,42,256,30.7,29,42,087,31.9,32,16,357,24.0*4C
$GPRMC,224655.00,A,1550.501820,S,04801.699886,W,009.9,092.2,100922,,,A*50
$GPGGA,224656.00,1550.501782,S,04801.697278,W,1,00,    ,1154.43,M,0.0,M,0.0,0000*54
$GPGSV,2,1,6,10,64,304,37.8,15,20,118,30.8,16,26,228,38.6,18,36,161,37.0*49
$GPGSV,2,2,6,26,42,256,31.1,29,42,087,32.9*45
$GPRMC,224656.00,A,1550.501782,S,04801.697278,W,008.9,092.1,100922,,,A*53
$GPGGA,224657.00,1550.501776,S,04801.694838,W,1,00,    ,1154.18,M,0.0,M,0.0,0000*5D
$GPGSV,2,1,7,10,64,304,38.0,15,20,118,31.5,16,26,228,36.9,18,36,161,38.8*45
$GPGSV,2,2,7,26,42,256,32.7,29,42,087,31.8,31,07,315,16.4*6C
$GPRMC,224657.00,A,1550.501776,S,04801.694838,W,007.6,091.1,100922,,,A*57
$GPGGA,224658.00,1550.501934,S,04801.692652,W,1,00,    ,1154.03,M,0.0,M,0.0,0000*54
$GPGSV,2,1,7,10,64,304,37.0,15,20,118,33.4,16,26,228,36.0,18,36,161,38.3*4B
$GPGSV,2,2,7,26,42,256,34.0,29,42,087,32.2,32,16,357,17.3*67
$GPRMC,224658.00,A,1550.501934,S,04801.692652,W,005.8,088.7,100922,,,A*56
$GPGGA,224659.00,1550.501810,S,04801.691100,W,1,00,    ,1153.90,M,0.0,M,0.0,0000*5C
$GPGSV,2,1,7,10,64,304,37.7,15,20,118,33.8,16,26,228,33.6,18,36,161,36.7*49
$GPGSV,2,2,7,25,17,016,14.8,26,42,256,30.2,29,42,087,32.6*6C
$GPRMC,224659.00,A,1550.501810,S,04801.691100,W,003.8,093.4,100922,,,A*5C
$GPGGA,224700.00,1550.501840,S,04801.689974,W,1,00,    ,1153.90,M,0.0,M,0.0,0000*56
$GPGSV,2,1,7,10,64,304,37.5,15,20,118,29.8,16,26,228,36.5,18,36,161,36.2*43
$GPGSV,2,2,7,26,42,256,30.8,29,42,087,30.8,31,07,315,14.8*6E
$GPRMC,224700.00,A,1550.501840,S,04801.689974,W,002.2,098.9,100922,,,A*5B
$GPGGA,224701.00,1550.502391,S,04801.689383,W,1,00,    ,1154.53,M,0.0,M,0.0,0000*59
$GPGSV,2,1,7,10,64,304,38.0,15,20,118,32.1,16,26,228,39.4,18,36,161,35.4*41
$GPGSV,2,2,7,26,42,256,34.6,29,42,087,30.5,32,16,357,19.2*6B
$GPRMC,224701.00,A,1550.502391,S,04801.689383,W,001.3,095.2,100922,,,A*58
$GPGGA,224702.00,1550.503169,S,04801.688599,W,1,00,    ,1155.69,M,0.0,M,0.0,0000*5A
$GPGSV,2,1,7,10,64,304,38.2,15,20,118,38.2,16,26,228,39.6,18,36,161,34.5*48
$GPGSV,2,2,7,26,42,256,33.3,29,42,087,31.5,32,16,357,19.2*68
$GPRMC,224702.00,A,1550.503169,S,04801.688599,W,001.2,092.1,100922,,,A*56
$GPGGA,224703.00,1550.503171,S,04801.688338,W,1,00,    ,1155.66,M,0.0,M,0.0,0000*50
$GPGSV,2,1,6,10,64,304,38.1,15,20,118,36.9,16,26,228,40.6,18,36,161,35.8*4D
$GPGSV,2,2,6,26,42,256,32.0,29,42,086,32.1*4E
$GPRMC,224703.00,A,1550.503171,S,04801.688338,W,002.4,092.8,100922,,,A*5F
$GPGGA,224704.00,1550.503295,S,04801.687791,W,1,00,    ,1155.87,M,0.0,M,0.0,0000*59
$GPGSV,2,1,7,10,64,304,37.6,15,20,118,31.6,16,26,228,39.9,18,36,161,37.1*46
$GPGSV,2,2,7,26,42,256,32.2,29,42,086,33.9,32,16,357,16.2*68
$GPRMC,224704.00,A,1550.503295,S,04801.687791,W,003.7,092.0,100922,,,A*53
$GPGGA,224705.00,1550.503806,S,04801.686654,W,1,00,    ,1156.12,M,0.0,M,0.0,0000*5E
$GPGSV,2,1,7,10,64,304,38.9,15,20,118,30.3,16,26,228,38.5,18,36,161,36.8*47
$GPGSV,2,2,7,26,42,256,34.2,29,42,086,32.5,32,16,357,18.4*6B
$GPRMC,224705.00,A,1550.503806,S,04801.686654,W,004.4,085.7,100922,,,A*5E
$GPGGA,224706.00,1550.503653,S,04801.685321,W,1,00,    ,1155.77,M,0.0,M,0.0,0000*57
$GPGSV,2,1,7,10,64,304,38.4,15,20,118,33.1,16,26,228,36.3,18,36,161,35.5*4D
$GPGSV,2,2,7,25,17,016,13.0,26,42,256,34.2,29,42,086,30.1*63
$GPRMC,224706.00,A,1550.503653,S,04801.685321,W,004.5,085.2,100922,,,A*53
$GPGGA,224707.00,1550.503542,S,04801.683982,W,1,00,    ,1155.59,M,0.0,M,0.0,0000*5C
$GPGSV,2,1,6,10,64,304,37.2,15,20,118,35.0,16,26,228,33.0,18,36,161,36.4*46
$GPGSV,2,2,6,26,42,256,34.6,29,42,086,30.9*44
$GPRMC,224707.00,A,1550.503542,S,04801.683982,W,006.5,088.9,100922,,,A*50
$GPGGA,224708.00,1550.503403,S,04801.682157,W,1,00,    ,1155.24,M,0.0,M,0.0,0000*5C
$GPGSV,2,1,7,10,64,304,38.7,15,20,118,33.9,16,26,228,31.3,18,36,161,36.3*44
$GPGSV,2,2,7,26,42,256,33.0,29,42,086,29.8,32,16,357,16.9*6A
$GPRMC,224708.00,A,1550.503403,S,04801.682157,W,007.5,089.1,100922,,,A*52
$GPGGA,224709.00,1550.503332,S,04801.679881,W,1,00,    ,1155.14,M,0.0,M,0.0,0000*5D
$GPGSV,2,1,7,10,64,304,38.3,15,20,118,32.1,16,26,228,34.3,18,36,161,36.5*4A
$GPGSV,2,2,7,26,42,256,32.2,29,42,086,30.5,32,16,357,24.3*67
$GPRMC,224709.00,A,1550.503332,S,04801.679881,W,008.8,089.0,100922,,,A*53
$GPGGA,224710.00,1550.503197,S,04801.677276,W,1,00,    ,1154.95,M,0.0,M,0.0,0000*5C
$GPGSV,2,1,8,10,64,304,36.6,15,20,118,33.2,16,26,228,32.8,18,36,161,36.6*42
$GPGSV,2,2,8,25,17,016,14.5,26,42,256,32.8,29,42,086,31.8,32,16,357,18.8*42
$GPRMC,224710.00,A,1550.503197,S,04801.677276,W,009.6,090.9,100922,,,A*54
$GPGGA,224711.00,1550.503170,S,04801.674352,W,1,00,    ,1154.85,M,0.0,M,0.0,0000*51
$GPGSV,2,1,7,10,64,304,36.6,15,20,118,33.2,16,26,228,33.2,18,36,161,36.3*43
$GPGSV,2,2,7,25,17,016,18.4,26,42,256,31.9,29,42,086,32.8*69
$GPRMC,224711.00,A,1550.503170,S,04801.674352,W,010.6,090.5,100922,,,A*5C
$GPGGA,224712.00,1550.503124,S,04801.671174,W,1,00,    ,1154.59,M,0.0,M,0.0,0000*51
$GPGSV,2,1,8,10,64,304,37.5,15,20,118,33.0,16,26,228,31.4,18,36,161,37.8*42
$GPGSV,2,2,8,25,17,016,25.0,26,42,256,32.8,29,42,086,32.6,31,07,315,12.1*4E
$GPRMC,224712.00,A,1550.503124,S,04801.671174,W,011.6,089.5,100922,,,A*54
$GPGGA,224713.00,1550.502842,S,04801.667805,W,1,00,    ,1154.23,M,0.0,M,0.0,0000*5D
$GPGSV,2,1,8,10,64,304,37.2,15,20,118,35.3,16,26,228,28.9,18,36,161,38.7*45
$GPGSV,2,2,8,25,17,016,21.2,26,42,256,32.3,29,42,086,32.9,32,16,357,19.3*40
$GPRMC,224713.00,A,1550.502842,S,04801.667805,W,011.8,088.5,100922,,,A*5A
$GPGGA,224714.00,1550.502852,S,04801.664198,W,1,00,    ,1154.42,M,0.0,M,0.0,0000*52
$GPGSV,3,1,9,10,64,304,37.1,15,20,118,32.6,16,26,228,29.7,18,36,161,31.7*42
$GPGSV,3,2,9,25,17,016,21.3,26,42,256,32.7,29,42,086,32.1,31,07,315,16.6*42
$GPGSV,3,3,9,32,16,357,28.7*64
$GPRMC,224714.00,A,1550.502852,S,04801.664198,W,013.1,088.8,100922,,,A*54
$GPGGA,224715.00,1550.502822,S,04801.660406,W,1,00,    ,1154.00,M,0.0,M,0.0,0000*54
$GPGSV,2,1,8,10,64,304,34.9,15,20,118,32.4,16,26,228,33.8,18,36,161,22.0*4A
$GPGSV,2,2,8,25,17,016,20.8,26,42,256,35.3,29,42,086,34.1,32,16,357,29.0*42
$GPRMC,224715.00,A,1550.502822,S,04801.660406,W,014.8,091.6,100922,,,A*5C
$GPGGA,224716.00,1550.503131,S,04801.656080,W,1,00,    ,1154.10,M,0.0,M,0.0,0000*53
$GPGSV,2,1,8,10,64,304,37.1,15,20,118,35.4,16,26,228,38.0,18,36,161,21.6*40
$GPGSV,2,2,8,25,17,016,19.6,26,42,256,35.7,29,42,086,34.2,32,16,357,29.0*41
$GPRMC,224716.00,A,1550.503131,S,04801.656080,W,016.0,089.9,100922,,,A*56
$GPGGA,224717.00,1550.503475,S,04801.651273,W,1,00,    ,1154.98,M,0.0,M,0.0,0000*5E
$GPGSV,2,1,8,10,64,304,37.5,15,20,118,35.9,16,26,228,35.4,18,36,161,21.7*41
$GPGSV,2,2,8,25,17,016,22.6,26,42,256,36.6,29,42,086,35.6,32,16,357,27.0*40
$GPRMC,224717.00,A,1550.503475,S,04801.651273,W,017.5,092.1,100922,,,A*5D
$GPGGA,224718.00,1550.505047,S,04801.645710,W,1,00,    ,1156.74,M,0.0,M,0.0,0000*57
$GPGSV,2,1,8,10,64,304,35.5,15,20,118,31.9,16,26,228,37.2,18,36,161,19.1*4E
$GPGSV,2,2,8,25,17,016,25.4,26,42,256,31.7,29,42,086,35.3,32,16,357,22.3*40
$GPRMC,224718.00,A,1550.505047,S,04801.645710,W,018.1,091.4,100922,,,A*59
$GPGGA,224719.00,1550.506153,S,04801.640160,W,1,00,    ,1158.04,M,0.0,M,0.0,0000*5C
$GPGSV,2,1,8,10,64,304,36.4,15,20,118,26.4,16,26,228,38.8,18,36,161,23.6*4C
$GPGSV,2,2,8,25,17,016,22.0,26,42,256,32.7,29,42,086,33.9,32,16,357,23.4*4A
$GPRMC,224719.00,A,1550.506153,S,04801.640160,W,018.1,092.0,100922,,,A*5C
$GPGGA,224720.00,1550.507630,S,04801.634813,W,1,00,    ,1159.79,M,0.0,M,0.0,0000*50
$GPGSV,2,1,8,10,64,304,37.7,15,20,118,29.5,16,26,228,38.6,18,36,161,24.8*47
$GPGSV,2,2,8,25,17,016,24.7,26,42,256,32.1,29,42,086,31.9,32,16,357,23.2*49
$GPRMC,224720.00,A,1550.507630,S,04801.634813,W,018.5,094.4,100922,,,A*5D
$GPGGA,224721.00,1550.508762,S,04801.629754,W,1,00,    ,1160.83,M,0.0,M,0.0,0000*57
$GPGSV,2,1,8,10,64,304,37.7,15,20,118,30.1,16,26,228,39.0,18,36,161,37.9*4F
$GPGSV,2,2,8,25,17,016,23.6,26,42,256,33.1,29,42,086,32.8,32,16,357,22.9*46
$GPRMC,224721.00,A,1550.508762,S,04801.629754,W,018.5,091.7,100922,,,A*53
$GPGGA,224722.00,1550.509155,S,04801.624508,W,1,00,    ,1161.45,M,0.0,M,0.0,0000*5A
$GPGSV,2,1,8,10,64,304,37.3,15,20,118,30.0,16,26,228,36.5,18,36,161,38.2*44
$GPGSV,2,2,8,25,17,016,19.7,26,42,256,33.7,29,42,086,33.1,32,16,357,22.2*4B
$GPRMC,224722.00,A,1550.509155,S,04801.624508,W,018.7,091.6,100922,,,A*56
$GPGGA,224723.00,1550.509616,S,04801.619068,W,1,00,    ,1161.64,M,0.0,M,0.0,0000*55
$GPGSV,2,1,8,10,64,304,37.8,15,20,118,33.2,16,26,229,36.7,18,36,161,37.5*45
$GPGSV,2,2,8,25,17,016,23.8,26,42,256,32.4,29,42,086,34.3,32,16,357,23.3*4A
$GPRMC,224723.00,A,1550.509616,S,04801.619068,W,019.0,090.9,100922,,,A*52
$GPGGA,224724.00,1550.509164,S,04801.613631,W,1,00,    ,1161.20,M,0.0,M,0.0,0000*50
$GPGSV,2,1,8,10,64,304,36.9,15,20,118,37.1,16,26,229,38.4,18,36,161,36.8*43
$GPGSV,2,2,8,25,17,016,31.2,26,42,256,32.3,29,42,086,32.5,32,16,357,21.8*4D
$GPRMC,224724.00,A,1550.509164,S,04801.613631,W,019.4,091.2,100922,,,A*59
$GPGGA,224725.00,1550.508772,S,04801.608030,W,1,00,    ,1160.68,M,0.0,M,0.0,0000*51
$GPGSV,2,1,8,10,64,304,36.4,15,20,118,33.1,16,26,229,37.4,18,36,161,37.0*4C
$GPGSV,2,2,8,25,17,016,20.7,26,42,256,34.3,29,42,086,32.5,32,16,357,27.9*49
$GPRMC,224725.00,A,1550.508772,S,04801.608030,W,019.4,091.2,100922,,,A*55
$GPGGA,224726.00,1550.508472,S,04801.602428,W,1,00,    ,1160.84,M,0.0,M,0.0,0000*54
$GPGSV,2,1,8,10,64,304,37.7,15,20,118,33.7,16,26,229,28.9,18,36,161,35.5*4C
$GPGSV,2,2,8,26,42,256,34.1,29,42,086,32.0,31,07,316,10.6,32,16,357,28.5*48
$GPRMC,224726.00,A,1550.508472,S,04801.602428,W,020.0,090.0,100922,,,A*5F
$GPGGA,224727.00,1550.508053,S,04801.596486,W,1,00,    ,1160.88,M,0.0,M,0.0,0000*54
$GPGSV,2,1,8,10,64,304,37.3,15,20,119,30.3,16,26,229,19.3,18,36,161,35.6*45
$GPGSV,2,2,8,25,17,016,18.2,26,42,256,32.8,29,42,086,33.9,32,16,357,29.0*40
$GPRMC,224727.00,A,1550.508053,S,04801.596486,W,019.8,091.5,100922,,,A*55
$GPGGA,224728.00,1550.508267,S,04801.590559,W,1,00,    ,1161.02,M,0.0,M,0.0,0000*58
$GPGSV,2,1,6,10,64,304,37.1,15,20,119,33.8,18,36,161,36.3,26,42,256,32.7*43
$GPGSV,2,2,6,29,42,086,33.3,31,07,316,15.8*42
$GPRMC,224728.00,A,1550.508267,S,04801.590559,W,019.5,091.0,100922,,,A*52
$GPGGA,224729.00,1550.508695,S,04801.584624,W,1,00,    ,1161.66,M,0.0,M,0.0,0000*5E
$GPGSV,2,1,7,10,64,304,37.0,15,20,119,32.5,16,26,229,20.0,18,36,161,35.8*4A
$GPGSV,2,2,7,26,42,256,33.0,29,42,086,30.6,31,07,316,18.4*69
$GPRMC,224729.00,A,1550.508695,S,04801.584624,W,019.0,090.7,100922,,,A*55
$GPGGA,224730.00,1550.509502,S,04801.578864,W,1,00,    ,1162.42,M,0.0,M,0.0,0000*56
$GPGSV,2,1,8,10,64,304,35.8,15,20,119,33.1,16,26,229,21.5,18,36,161,38.5*4E
$GPGSV,2,2,8,25,17,016,17.0,26,42,256,31.7,29,42,086,29.8,32,16,357,21.4*47
$GPRMC,224730.00,A,1550.509502,S,04801.578864,W,018.7,090.7,100922,,,A*5E
$GPGGA,224731.00,1550.512546,S,04801.572659,W,1,00,    ,1160.63,M,0.0,M,0.0,0000*56
$GPGSV,2,1,8,10,64,304,34.1,15,20,119,33.0,16,26,229,23.0,18,36,161,36.5*4E
$GPGSV,2,2,8,26,42,256,31.9,29,42,086,30.6,31,07,316,16.2,32,16,357,27.3*4A
$GPRMC,224731.00,A,1550.512546,S,04801.572659,W,018.0,077.2,100922,,,A*54
$GPGGA,224732.00,1550.512374,S,04801.567245,W,1,00,    ,1161.30,M,0.0,M,0.0,0000*58
$GPGSV,2,1,8,10,64,304,37.0,15,20,119,32.7,16,26,229,23.5,18,36,161,35.8*41
$GPGSV,2,2,8,25,17,016,19.6,26,42,256,32.9,29,42,086,31.8,32,16,357,21.7*48
$GPRMC,224732.00,A,1550.512374,S,04801.567245,W,018.4,090.1,100922,,,A*53
$GPGGA,224733.00,1550.512111,S,04801.561974,W,1,00,    ,1160.80,M,0.0,M,0.0,0000*5D
$GPGSV,2,1,7,10,64,304,36.8,15,20,119,29.6,16,26,229,24.6,18,36,161,35.6*46
$GPGSV,2,2,7,25,17,016,23.9,26,43,256,32.8,29,42,086,30.1*64
$GPRMC,224733.00,A,1550.512111,S,04801.561974,W,018.1,090.9,100922,,,A*51
$GPGGA,224734.00,1550.512108,S,04801.556686,W,1,00,    ,1160.82,M,0.0,M,0.0,0000*56
$GPGSV,2,1,8,10,64,304,37.0,15,20,119,32.8,16,26,229,24.8,18,36,161,35.2*4E
$GPGSV,2,2,8,25,17,016,26.0,26,43,256,32.3,29,42,086,30.1,32,16,357,18.5*49
$GPRMC,224734.00,A,1550.512108,S,04801.556686,W,017.8,090.7,100922,,,A*50
$GPGGA,224735.00,1550.512406,S,04801.551704,W,1,00,    ,1160.73,M,0.0,M,0.0,0000*5E
$GPGSV,2,1,8,10,64,304,37.0,15,20,119,33.7,16,26,229,25.4,18,36,161,36.3*4F
$GPGSV,2,2,8,25,17,016,28.2,26,43,256,33.2,29,42,086,28.2,32,16,357,31.0*41
$GPRMC,224735.00,A,1550.512406,S,04801.551704,W,017.3,088.9,100922,,,A*5A
$GPGGA,224736.00,1550.512126,S,04801.546722,W,1,00,    ,1162.17,M,0.0,M,0.0,0000*58
$GPGSV,2,1,8,10,64,304,37.0,15,20,119,35.8,16,26,229,32.4,18,36,161,34.8*49
$GPGSV,2,2,8,25,17,016,25.8,26,43,256,35.2,29,42,086,28.0,32,16,357,30.5*46
