$GPGGA,224424.00,1550.51345,S,04801.89476,W,1,08,0.89,1189.9,M,-11.9,M,,*4E
$GPGSA,A,3,10,29,26,18,16,25,15,32,,,,,2.05,0.89,1.84*0B
$GPGSV,3,1,11,10,63,306,15,15,20,117,26,16,24,227,20,18,36,163,25*70
$GPGSV,3,2,11,23,78,188,,25,19,015,31,26,42,253,27,27,03,221,*7A
$GPGSV,3,3,11,29,43,088,32,31,08,314,27,32,15,356,33*48
$GPGLL,1550.51345,S,04801.89476,W,224424.00,A,A*6E
$GPGRS,224424.00,1,13.2,3.4,-5.0,5.6,6.3,-0.2,-9.3,-2.0,,,,*76
$GPGST,224424.00,39,,,,4.5,4.8,14*7D
$GPZDA,224424.00,10,09,2022,00,00*6A
$GPGBS,224424.00,4.5,4.8,13.7,,,,*7F
$GPDTM,W84,,0.0,N,0.0,E,0.0,W84*6F
$GPRMC,224425.00,A,1550.51345,S,04801.89478,W,0.361,,100922,,,A*74
$GPVTG,,T,,M,0.361,N,0.669,K,A*2E
$GPGGA,224425.00,1550.51345,S,04801.89478,W,1,08,0.89,1190.3,M,-11.9,M,,*43
$GPGSA,A,3,10,29,26,18,16,25,15,32,,,,,2.05,0.89,1.84*0B
$GPGSV,3,1,11,10,63,306,18,15,20,117,27,16,25,227,19,18,36,163,26*74
$GPGSV,3,2,11,23,78,188,,25,19,015,31,26,42,253,28,27,03,221,*75
$GPGSV,3,3,11,29,43,088,33,31,08,314,27,32,15,356,34*4E
$GPGLL,1550.51345,S,04801.89478,W,224425.00,A,A*61
$GPGRS,224425.00,1,11.4,3.4,-3.6,3.4,5.5,0.0,-6.5,-2.2,,,,*56
$GPGST,224425.00,35,,,,4.5,4.8,14*70
$GPZDA,224425.00,10,09,2022,00,00*6B
$GPGBS,224425.00,4.5,4.8,13.8,,,,*71
$PUBX,00,224425.00,1550.51345,S,04801.89478,W,1178.442,G3,6.6,14,0.669,268.87,-0.080,,0.89,1
$PUBX,03,12,10,U,306,63,18,000,15,U,117,20,27,000,16,U,227,25,19,000,18,U,163,36,26,000,22,-
$PUBX,04,224425.00,100922,600265.00,2226,18,-660886,-3404.210,21*29
$GPDTM,W84,,0.0,N,0.0,E,0.0,W84*6F
$GPRMC,224426.00,A,1550.51349,S,04801.89476,W,0.075,,100922,,,A*73
$GPVTG,,T,,M,0.075,N,0.138,K,A*2B
$GPGGA,224426.00,1550.51349,S,04801.89476,W,1,08,0.89,1190.3,M,-11.9,M,,*42
$GPGSA,A,3,10,29,26,18,16,25,15,32,,,,,2.05,0.89,1.84*0B
$GPGSV,3,1,11,10,63,306,19,15,20,117,28,16,25,227,18,18,36,163,27*7A
$GPGSV,3,2,11,23,78,188,,25,19,015,31,26,42,253,30,27,03,221,*7C
$GPGSV,3,3,11,29,43,088,32,31,08,314,27,32,15,356,34*4F
$GPGLL,1550.51349,S,04801.89476,W,224426.00,A,A*60
$GPGRS,224426.00,1,7.6,2.7,-1.0,0.7,5.7,0.4,-4.3,-2.2,,,,*64
$GPGST,224426.00,34,,,,4.5,4.8,14*72
$GPZDA,224426.00,10,09,2022,00,00*68
$GPGBS,224426.00,4.5,4.8,13.8,,,,*72
$PUBX,00,224426.00,1550.51349,S,04801.89476,W,1178.372,G3,6.6,14,0.138,268.87,0.042,,0.89,1.
$GPDTM,W84,,0.0,N,0.0,E,0.0,W84*6F
$GPRMC,224427.00,A,1550.51345,S,04801.89475,W,0.030,,100922,,,A*7C
$GPVTG,,T,,M,0.030,N,0.056,K,A*23
$GPGGA,224427.00,1550.51345,S,04801.89475,W,1,08,0.89,1190.9,M,-11.9,M,,*46
$GPGSA,A,3,10,29,26,18,16,25,15,32,,,,,2.05,0.89,1.84*0B
$GPGSV,3,1,11,10,63,306,21,15,20,117,28,16,25,227,18,18,36,162,27*70
$GPGSV,3,2,11,23,78,188,,25,19,015,31,26,42,253,29,27,03,221,*74
$GPGSV,3,3,11,29,43,088,32,31,08,314,27,32,15,356,33*48
$GPGLL,1550.51345,S,04801.89475,W,224427.00,A,A*6E
$GPGRS,224427.00,1,4.9,2.9,-0.1,-0.9,4.3,0.4,-1.2,-2.0,,,,*47
$GPGST,224427.00,33,,,,4.5,4.7,14*7B
$GPZDA,224427.00,10,09,2022,00,00*69
$GPGBS,224427.00,4.5,4.7,13.8,,,,*7C
$PUBX,00,224427.00,1550.51345,S,04801.89475,W,1178.968,G3,6.5,14,0.056,268.87,-0.024,,0.89,1
$GPTXT,01,01,00,txbuf alloc*7F
$GPDTM,W84,,0.0,N,0.0,E,0.0,W84*6F
$GPRMC,224428.00,A,1550.51344,S,04801.89474,W,0.064,,100922,,,A*72
$GPVTG,,T,,M,0.064,N,0.118,K,A*29
$GPGGA,224428.00,1550.51344,S,04801.89474,W,1,08,0.89,1191.1,M,-11.9,M,,*40
$GPGSA,A,3,10,29,26,18,16,25,15,32,,,,,2.05,0.89,1.84*0B
$GPGSV,3,1,11,10,63,306,21,15,20,117,28,16,25,227,20,18,36,162,27*7B
$GPGSV,3,2,11,23,78,188,,25,19,015,31,26,42,253,28,27,03,221,*75
$GPGSV,3,3,11,29,43,088,33,31,08,314,27,32,15,356,33*49
$GPGLL,1550.51344,S,04801.89474,W,224428.00,A,A*61
$GPGRS,224428.00,1,3.3,3.1,-0.4,-3.0,4.4,0.5,-2.5,-1.2,,,,*40
$GPGST,224428.00,33,,,,4.5,4.7,14*74
$GPZDA,224428.00,10,09,2022,00,00*66
$GPGBS,224428.00,4.5,4.7,13.8,,,,*73
$PUBX,00,224428.00,1550.51344,S,04801.89474,W,1179.206,G3,6.5,14,0.118,268.87,-0.003,,0.89,1
$PUBX,03,12,10,U,306,63,21,000,15,U,117,20,28,000,16,U,227,25,20,000,18,U,162,36,27,000,22,-
$PUBX,04,224428.00,100922,600268.00,2226,18,-671092,-3402.070,21*26
$GPDTM,W84,,0.0,N,0.0,E,0.0,W84*6F
$GPRMC,224429.00,A,1550.51341,S,04801.89466,W,0.157,,100922,,,A*74
$GPVTG,,T,,M,0.157,N,0.291,K,A*2A
$GPGGA,224429.00,1550.51341,S,04801.89466,W,1,08,0.89,1191.6,M,-11.9,M,,*40
$GPGSA,A,3,10,29,26,18,16,25,15,32,,,,,2.05,0.89,1.84*0B
$GPGSV,3,1,11,10,63,306,21,15,20,117,28,16,25,227,21,18,36,162,27*7A
$GPGSV,3,2,11,23,78,188,,25,19,015,31,26,42,253,27,27,03,221,*7A
$GPGSV,3,3,11,29,43,088,34,31,08,314,27,32,15,356,36*4B
$GPGLL,1550.51341,S,04801.89466,W,224429.00,A,A*66
$GPGRS,224429.00,1,3.0,2.5,-2.5,-1.9,0.7,0.0,1.5,-2.1,,,,*63
$GPGST,224429.00,32,,,,4.5,4.7,14*74
$GPZDA,224429.00,10,09,2022,00,00*67
$GPGBS,224429.00,4.5,4.7,13.7,,,,*7D
$PUBX,00,224429.00,1550.51341,S,04801.89466,W,1179.708,G3,6.5,14,0.291,268.87,-0.024,,0.89,1
$PUBX,03,12,10,U,306,63,21,000,15,U,117,20,28,000,16,U,227,25,21,000,18,U,162,36,27,000,22,-
$PUBX,04,224429.00,100922,600269.00,2226,18,-674491,-3399.846,21*2C
$GPDTM,W84,,0.0,N,0.0,E,0.0,W84*6F
$GPRMC,224430.00,A,1550.51338,S,04801.89462,W,0.109,,100922,,,A*7D
$GPVTG,,T,,M,0.109,N,0.201,K,A*28
$GPGGA,224430.00,1550.51338,S,04801.89462,W,1,08,0.89,1192.0,M,-11.9,M,,*47
$GPGSA,A,3,10,29,26,18,16,25,15,32,,,,,2.05,0.89,1.84*0B
$GPGSV,3,1,11,10,63,306,19,15,20,117,27,16,25,227,21,18,36,162,27*7E
$GPGSV,3,2,11,23,78,188,,25,19,015,32,26,42,253,27,27,03,221,*79
$GPGSV,3,3,11,29,43,088,34,31,08,314,26,32,15,356,36*4A
$GPGLL,1550.51338,S,04801.89462,W,224430.00,A,A*64
$GPGRS,224430.00,1,2.2,1.9,0.4,-2.8,1.4,-0.1,-2.0,-2.9,,,,*46
$GPGST,224430.00,33,,,,4.5,4.6,14*7C
$GPZDA,224430.00,10,09,2022,00,00*6F
$GPGBS,224430.00,4.5,4.6,13.7,,,,*74
$PUBX,00,224430.00,1550.51338,S,04801.89462,W,1180.125,G3,6.5,14,0.201,268.87,-0.001,,0.89,1
$PUBX,03,12,10,U,306,63,19,000,15,U,117,20,27,000,16,U,227,25,21,000,18,U,162,36,27,000,22,-
$GPDTM,W84,,0.0,N,0.0,E,0.0,W84*6F
$GPRMC,224431.00,A,1550.51337,S,04801.89454,W,0.188,,100922,,,A*7F
$GPVTG,,T,,M,0.188,N,0.348,K,A*2D
$GPGGA,224431.00,1550.51337,S,04801.89454,W,1,08,0.89,1192.6,M,-11.9,M,,*4A
$GPGSA,A,3,10,29,26,18,16,25,15,32,,,,,2.05,0.89,1.84*0B
$GPGSV,3,1,11,10,63,306,21,15,20,117,28,16,25,227,22,18,36,162,28*76
$GPGSV,3,2,11,23,78,188,,25,19,015,33,26,42,253,26,27,03,221,*79
$GPGSV,3,3,11,29,43,088,34,31,08,314,27,32,15,356,39*44
$GPGLL,1550.51337,S,04801.89454,W,224431.00,A,A*6F
$GPGRS,224431.00,1,3.8,1.8,0.7,-2.5,0.9,0.4,-4.1,-3.6,,,,*6E
$GPGST,224431.00,32,,,,4.5,4.6,14*7C
$GPZDA,224431.00,10,09,2022,00,00*6E
$GPGBS,224431.00,4.5,4.6,13.6,,,,*74
$PUBX,00,224431.00,1550.51337,S,04801.89454,W,1180.716,G3,6.4,14,0.348,268.87,0.011,,0.89,1.
$PUBX,03,12,10,U,306,63,21,000,15,U,117,20,28,000,16,U,227,25,22,000,18,U,162,36,28,000,22,-
$PUBX,04,224431.00,100922,600271.00,2226,18,-681284,-3397.176,21*20
$GPTXT,01,01,00,txbuf alloc*7F
$GPDTM,W84,,0.0,N,0.0,E,0.0,W84*6F
$GPRMC,224432.00,A,1550.51333,S,04801.89453,W,0.043,,100922,,,A*79
$GPVTG,,T,,M,0.043,N,0.080,K,A*2C
$GPGGA,224432.00,1550.51333,S,04801.89453,W,1,08,0.89,1193.3,M,-11.9,M,,*4E
$GPGSA,A,3,10,29,26,18,16,25,15,32,,,,,2.05,0.89,1.84*0B
$GPGSV,3,1,11,10,63,306,23,15,20,117,28,16,25,227,22,18,36,162,28*74
$GPGSV,3,2,11,23,78,187,,25,19,015,31,26,42,253,25,27,03,221,*77
$GPGSV,3,3,11,29,43,088,34,31,08,314,27,32,15,356,36*4B
$GPGLL,1550.51333,S,04801.89453,W,224432.00,A,A*6F
$GPGRS,224432.00,1,5.0,1.6,0.3,-2.3,0.3,0.3,-6.5,-4.0,,,,*65
$GPGST,224432.00,31,,,,4.5,4.6,14*7C
$GPZDA,224432.00,10,09,2022,00,00*6D
$GPGBS,224432.00,4.5,4.6,13.6,,,,*77
$PUBX,00,224432.00,1550.51333,S,04801.89453,W,1181.382,G3,6.4,14,0.080,268.87,-0.012,,0.89,1
$PUBX,03,12,10,U,306,63,23,000,15,U,117,20,28,000,16,U,227,25,22,000,18,U,162,36,28,000,22,-
$GPDTM,W84,,0.0,N,0.0,E,0.0,W84*6F
$GPRMC,224433.00,A,1550.51325,S,04801.89450,W,0.077,,100922,,,A*7B
$GPVTG,,T,,M,0.077,N,0.143,K,A*25
$GPGGA,224433.00,1550.51325,S,04801.89450,W,1,08,0.89,1194.0,M,-11.9,M,,*4F
$GPGSA,A,3,10,29,26,18,16,25,15,32,,,,,2.05,0.89,1.84*0B
$GPGSV,3,1,11,10,63,306,21,15,20,117,28,16,25,227,23,18,36,162,29*76
$GPGSV,3,2,11,23,78,187,,25,19,015,30,26,42,253,28,27,03,221,*7B
$GPGSV,3,3,11,29,43,088,35,31,08,314,27,32,15,356,36*4A
$GPGLL,1550.51325,S,04801.89450,W,224433.00,A,A*6A
$GPGRS,224433.00,1,-19.2,1.2,0.0,-2.2,-0.1,0.1,-8.7,-4.5,,,,*54
$GPGST,224433.00,30,,,,4.4,4.5,13*79
$GPZDA,224433.00,10,09,2022,00,00*6C
$GPGBS,224433.00,4.4,4.5,13.5,,,,*77
$GPDTM,W84,,0.0,N,0.0,E,0.0,W84*6F
$GPRMC,224434.00,A,1550.51320,S,04801.89441,W,0.046,,100922,,,A*7B
$GPVTG,,T,,M,0.046,N,0.086,K,A*2F
$GPGGA,224434.00,1550.51320,S,04801.89441,W,1,08,0.89,1194.5,M,-11.9,M,,*48
$GPGSA,A,3,10,29,26,18,16,25,15,32,,,,,2.05,0.89,1.84*0B
$GPGSV,3,1,11,10,63,306,20,15,20,117,27,16,25,227,23,18,36,162,29*78
$GPGSV,3,2,11,23,78,187,,25,18,015,31,26,42,253,28,27,03,221,*7B
$GPGSV,3,3,11,29,43,088,34,31,08,314,26,32,15,356,38*44
$GPGLL,1550.51320,S,04801.89441,W,224434.00,A,A*68
$GPGRS,224434.00,1,-16.4,1.2,1.1,-2.3,-1.1,0.7,-9.3,-4.5,,,,*59
$GPGST,224434.00,31,,,,4.4,4.5,13*7F
$GPZDA,224434.00,10,09,2022,00,00*6B
$GPGBS,224434.00,4.4,4.5,13.5,,,,*70
$PUBX,00,224434.00,1550.51320,S,04801.89441,W,1182.605,G3,6.3,13,0.086,268.87,-0.075,,0.89,1
$GPDTM,W84,,0.0,N,0.0,E,0.0,W84*6F
$GPRMC,224435.00,A,1550.51313,S,04801.89437,W,0.088,,100922,,,A*79
$GPVTG,,T,,M,0.088,N,0.162,K,A*26
$GPGGA,224435.00,1550.51313,S,04801.89437,W,1,08,0.89,1195.2,M,-11.9,M,,*4E
$GPGSA,A,3,10,29,26,18,16,25,15,32,,,,,2.05,0.89,1.84*0B
$GPGSV,3,1,11,10,63,306,19,15,20,117,26,16,25,227,23,18,36,162,29*73
$GPGSV,3,2,11,23,78,187,,25,18,015,29,26,42,254,28,27,03,221,*75
$GPGSV,3,3,11,29,43,088,33,31,08,314,27,32,15,356,37*4D
$GPGLL,1550.51313,S,04801.89437,W,224435.00,A,A*68
$GPGRS,224435.00,1,-22.0,1.0,1.2,-3.2,-1.3,0.8,-7.6,-4.9,,,,*50
$GPGST,224435.00,33,,,,4.4,4.5,13*7C
$GPZDA,224435.00,10,09,2022,00,00*6A
$GPGBS,224435.00,4.4,4.5,13.5,,,,*71
$GPDTM,W84,,0.0,N,0.0,E,0.0,W84*6F
$GPRMC,224436.00,A,1550.51323,S,04801.89427,W,0.046,,100922,,,A*7A
$GPVTG,,T,,M,0.046,N,0.086,K,A*2F
$GPGGA,224436.00,1550.51323,S,04801.89427,W,1,08,0.89,1194.6,M,-11.9,M,,*4A
$GPGSA,A,3,10,29,26,18,16,25,15,32,,,,,2.05,0.89,1.84*0B
$GPGSV,3,1,11,10,63,306,22,15,20,117,24,16,25,227,22,18,36,162,28*79
$GPGSV,3,2,11,23,78,187,,25,18,015,29,26,42,254,28,27,04,220,*73
$GPGSV,3,3,11,29,43,088,33,31,08,314,28,32,15,356,37*42
$GPGLL,1550.51323,S,04801.89427,W,224436.00,A,A*69
$GPGRS,224436.00,1,-28.4,1.3,0.5,-5.9,-0.6,-0.8,-8.7,-4.7,,,,*7C
$GPGST,224436.00,33,,,,4.4,4.5,14*78
$GPZDA,224436.00,10,09,2022,00,00*69
$GPGBS,224436.00,4.4,4.5,13.5,,,,*72
$PUBX,00,224436.00,1550.51323,S,04801.89427,W,1182.763,G3,6.3,14,0.086,268.87,-0.055,,0.89,1
$GPTXT,01,01,00,txbuf alloc*7F
$GPDTM,W84,,0.0,N,0.0,E,0.0,W84*6F
$GPRMC,224437.00,A,1550.51329,S,04801.89414,W,0.040,,100922,,,A*77
$GPVTG,,T,,M,0.040,N,0.074,K,A*24
$GPGGA,224437.00,1550.51329,S,04801.89414,W,1,08,0.89,1194.3,M,-11.9,M,,*44
$GPGSA,A,3,10,29,26,18,16,25,15,32,,,,,2.05,0.89,1.84*0B
$GPGSV,3,1,11,10,63,306,23,15,20,117,24,16,25,227,21,18,36,162,28*7B
$GPGSV,3,2,11,23,78,187,,25,18,015,30,26,42,254,30,27,04,220,*72
$GPGSV,3,3,11,29,43,088,32,31,08,314,28,32,15,356,38*4C
$GPGLL,1550.51329,S,04801.89414,W,224437.00,A,A*62
$GPGRS,224437.00,1,-29.6,1.7,1.0,-7.4,-1.8,-0.7,-7.7,-4.5,,,,*7C
$GPGST,224437.00,32,,,,4.4,4.5,14*78
$GPZDA,224437.00,10,09,2022,00,00*68
$GPGBS,224437.00,4.4,4.5,13.6,,,,*70
$PUBX,00,224437.00,1550.51329,S,04801.89414,W,1182.392,G3,6.3,14,0.074,268.87,-0.008,,0.89,1
$PUBX,03,12,10,U,306,63,23,000,15,U,117,20,24,000,16,U,227,25,21,000,18,U,162,36,28,000,22,-
$GPDTM,W84,,0.0,N,0.0,E,0.0,W84*6F
$GPRMC,224438.00,A,1550.51335,S,04801.89402,W,0.109,,100922,,,A*7E
$GPVTG,,T,,M,0.109,N,0.203,K,A*2A
$GPGGA,224438.00,1550.51335,S,04801.89402,W,1,08,0.89,1194.1,M,-11.9,M,,*43
$GPGSA,A,3,10,29,26,18,16,25,15,32,,,,,2.05,0.89,1.84*0B
$GPGSV,3,1,11,10,63,306,24,15,20,117,24,16,25,227,22,18,36,162,28*7F
$GPGSV,3,2,11,23,78,187,,25,18,015,30,26,42,254,31,27,04,220,*73
$GPGSV,3,3,11,29,43,088,33,31,08,314,28,32,15,356,38*4D
$GPGLL,1550.51335,S,04801.89402,W,224438.00,A,A*67
$GPGRS,224438.00,1,-20.7,1.7,1.1,-5.4,-1.1,0.6,-5.2,-4.7,,,,*58
$GPGST,224438.00,31,,,,4.5,4.4,14*74
$GPZDA,224438.00,10,09,2022,00,00*67
$GPGBS,224438.00,4.5,4.4,13.6,,,,*7F
$PUBX,00,224438.00,1550.51335,S,04801.89402,W,1182.252,G3,6.3,14,0.203,268.87,0.028,,0.89,1.
$PUBX,03,12,10,U,306,63,24,000,15,U,117,20,24,000,16,U,227,25,22,000,18,U,162,36,28,000,22,-
$GPDTM,W84,,0.0,N,0.0,E,0.0,W84*6F
$GPRMC,224439.00,A,1550.51346,S,04801.89387,W,0.181,,100922,,,A*71
$GPVTG,,T,,M,0.181,N,0.335,K,A*2E
$GPGGA,224439.00,1550.51346,S,04801.89387,W,1,08,0.89,1193.5,M,-11.9,M,,*4F
$GPGSA,A,3,10,29,26,18,16,25,15,32,,,,,2.05,0.89,1.84*0B
$GPGSV,3,1,11,10,63,306,25,15,20,117,25,16,25,227,22,18,36,162,28*7F
$GPGSV,3,2,11,23,78,187,,25,18,015,31,26,42,254,31,27,04,220,*72
$GPGSV,3,3,11,29,43,088,32,31,08,314,28,32,15,356,38*4C
$GPGLL,1550.51346,S,04801.89387,W,224439.00,A,A*68
$GPGRS,224439.00,1,-23.2,2.0,1.3,-4.3,-1.9,2.0,-1.3,-4.6,,,,*57
$GPGST,224439.00,30,,,,4.5,4.4,14*74
$GPZDA,224439.00,10,09,2022,00,00*66
$GPGBS,224439.00,4.5,4.4,13.6,,,,*7E
$PUBX,00,224439.00,1550.51346,S,04801.89387,W,1181.661,G3,6.2,14,0.335,268.87,0.114,,0.89,1.
$PUBX,03,12,10,U,306,63,25,000,15,U,117,20,25,000,16,U,227,25,22,000,18,U,162,36,28,000,22,-
$PUBX,04,224439.00,100922,600279.00,2226,18,-708453,-3393.372,21*2E
$GPDTM,W84,,0.0,N,0.0,E,0.0,W84*6F
$GPRMC,224440.00,A,1550.51349,S,04801.89386,W,0.102,,100922,,,A*7A
$GPVTG,,T,,M,0.102,N,0.188,K,A*21
$GPGGA,224440.00,1550.51349,S,04801.89386,W,1,08,0.89,1193.8,M,-11.9,M,,*42
$GPGSA,A,3,10,29,26,18,16,25,15,32,,,,,2.05,0.89,1.84*0B
$GPGSV,3,1,11,10,63,306,25,15,20,117,25,16,25,227,22,18,36,162,28*7F
$GPGSV,3,2,11,23,78,187,,25,18,015,32,26,42,254,30,27,04,220,*70
$GPGSV,3,3,11,29,43,088,32,31,08,314,26,32,15,356,37*4D
$GPGLL,1550.51349,S,04801.89386,W,224440.00,A,A*68
$GPGRS,224440.00,1,-1.7,2.2,4.1,-2.8,-3.8,2.6,-2.7,-4.6,,,,*66
$GPGST,224440.00,30,,,,4.5,4.3,14*7D
$GPZDA,224440.00,10,09,2022,00,00*68
$GPGBS,224440.00,4.5,4.3,13.7,,,,*76
$PUBX,00,224440.00,1550.51349,S,04801.89386,W,1181.938,G3,6.2,14,0.188,268.87,0.116,,0.89,1.
$PUBX,03,12,10,U,306,63,25,000,15,U,117,20,25,000,16,U,227,25,22,000,18,U,162,36,28,000,22,-
$PUBX,04,224440.00,100922,600280.00,2226,18,-711846,-3393.728,21*2D
$GPTXT,01,01,00,txbuf alloc*7F
$GPDTM,W84,,0.0,N,0.0,E,0.0,W84*6F
$GPRMC,224441.00,A,1550.51338,S,04801.89379,W,0.203,,100922,,,A*7F
$GPVTG,,T,,M,0.203,N,0.375,K,A*23
$GPGGA,224441.00,1550.51338,S,04801.89379,W,1,08,0.89,1194.6,M,-11.9,M,,*4C
$GPGSA,A,3,10,29,26,18,16,25,15,32,,,,,2.05,0.89,1.84*0B
$GPGSV,3,1,11,10,63,306,23,15,20,117,24,16,25,227,21,18,36,162,28*7B
$GPGSV,3,2,11,23,78,187,,25,18,015,31,26,42,254,27,27,04,220,*75
$GPGSV,3,3,11,29,43,088,33,31,08,314,27,32,15,356,37*4D
$GPGLL,1550.51338,S,04801.89379,W,224441.00,A,A*6F
$GPGRS,224441.00,1,1.9,2.5,-1.6,-2.6,-1.8,6.5,-3.1,-4.1,,,,*67
$GPGST,224441.00,33,,,,4.5,4.4,14*78
$GPZDA,224441.00,10,09,2022,00,00*69
$GPGBS,224441.00,4.5,4.4,13.8,,,,*7F
$PUBX,00,224441.00,1550.51338,S,04801.89379,W,1182.684,G3,6.3,14,0.375,268.87,0.011,,0.89,1.
$PUBX,03,12,10,U,306,63,23,000,15,U,117,20,24,000,16,U,227,25,21,000,18,U,162,36,28,000,22,-
$PUBX,04,224441.00,100922,600281.00,2226,18,-715239,-3395.123,21*20
$GPDTM,W84,,0.0,N,0.0,E,0.0,W84*6F
$GPRMC,224442.00,A,1550.51336,S,04801.89385,W,0.686,,100922,,,A*78
$GPVTG,,T,,M,0.686,N,1.271,K,A*2E
$GPGGA,224442.00,1550.51336,S,04801.89385,W,1,08,0.89,1195.4,M,-11.9,M,,*41
$GPGSA,A,3,10,29,26,18,16,25,15,32,,,,,2.05,0.89,1.85*0A
$GPGSV,3,1,11,10,63,306,21,15,20,117,24,16,25,227,22,18,36,162,28*7A
$GPGSV,3,2,11,23,78,187,,25,18,015,31,26,42,254,25,27,04,220,*77
$GPGSV,3,3,11,29,43,088,34,31,08,314,28,32,15,356,37*45
$GPGLL,1550.51336,S,04801.89385,W,224442.00,A,A*61
$GPGRS,224442.00,1,5.3,1.7,-0.2,-5.3,-1.4,0.6,-2.7,-4.8,,,,*6B
$GPGST,224442.00,34,,,,4.5,4.4,14*7C
$GPZDA,224442.00,10,09,2022,00,00*6A
$GPGBS,224442.00,4.5,4.4,13.9,,,,*7D
$PUBX,00,224442.00,1550.51336,S,04801.89385,W,1183.521,G3,6.3,14,1.271,268.87,-0.027,,0.89,1
$PUBX,03,12,10,U,306,63,21,000,15,U,117,20,24,000,16,U,227,25,22,000,18,U,162,36,28,000,22,-
$PUBX,04,224442.00,100922,600282.00,2226,18,-718631,-3393.000,21*27
$GPDTM,W84,,0.0,N,0.0,E,0.0,W84*6F
$GPRMC,224443.00,A,1550.51332,S,04801.89389,W,0.500,,100922,,,A*7C
$GPVTG,,T,,M,0.500,N,0.926,K,A*2B
$GPGGA,224443.00,1550.51332,S,04801.89389,W,1,08,0.89,1196.4,M,-11.9,M,,*4B
$GPGSA,A,3,10,29,26,18,16,25,15,32,,,,,2.05,0.89,1.85*0A
$GPGSV,3,1,11,10,63,306,22,15,20,117,25,16,25,227,23,18,36,162,27*76
$GPGSV,3,2,11,23,78,187,,25,18,015,29,26,42,254,24,27,04,220,*7F
$GPGSV,3,3,11,29,43,088,34,31,08,314,28,32,15,356,39*4B
$GPGLL,1550.51332,S,04801.89389,W,224443.00,A,A*68
$GPGRS,224443.00,1,5.3,1.2,1.1,-7.0,-1.1,3.3,-2.2,-4.5,,,,*4A
$GPGST,224443.00,34,,,,4.6,4.5,14*7F
$GPZDA,224443.00,10,09,2022,00,00*6B
$GPGBS,224443.00,4.6,4.5,14.0,,,,*70
$GPDTM,W84,,0.0,N,0.0,E,0.0,W84*6F
$GPRMC,224444.00,A,1550.51330,S,04801.89384,W,0.137,,100922,,,A*74
$GPVTG,,T,,M,0.137,N,0.254,K,A*25
$GPGGA,224444.00,1550.51330,S,04801.89384,W,1,08,0.89,1197.0,M,-11.9,M,,*46
$GPGSA,A,3,10,29,26,18,16,25,15,32,,,,,2.05,0.89,1.85*0A
$GPGSV,3,1,11,10,63,306,24,15,20,117,24,16,25,227,21,18,36,162,27*73
$GPGSV,3,2,11,23,78,187,,25,18,015,28,26,42,254,26,27,04,220,*7C
$GPGSV,3,3,11,29,43,088,32,31,08,314,28,32,15,356,39*4D
$GPGLL,1550.51330,S,04801.89384,W,224444.00,A,A*60
$GPGRS,224444.00,1,3.6,1.9,-4.3,-8.3,-0.9,-0.3,-3.1,-4.0,,,,*43
$GPGST,224444.00,34,,,,4.6,4.5,14*78
$GPZDA,224444.00,10,09,2022,00,00*6C
$GPGBS,224444.00,4.6,4.5,14.1,,,,*76
$PUBX,00,224444.00,1550.51330,S,04801.89384,W,1185.086,G3,6.4,14,0.254,268.87,-0.050,,0.89,1
$GPTXT,01,01,00,txbuf alloc*7F
$GPDTM,W84,,0.0,N,0.0,E,0.0,W84*6F
$GPRMC,224445.00,A,1550.51315,S,04801.89382,W,0.121,,100922,,,A*73
$GPVTG,,T,,M,0.121,N,0.224,K,A*25
$GPGGA,224445.00,1550.51315,S,04801.89382,W,1,08,0.89,1198.0,M,-11.9,M,,*49
$GPGSA,A,3,10,29,26,18,16,25,15,32,,,,,2.05,0.89,1.85*0A
$GPGSV,3,1,11,10,63,306,24,15,20,117,25,16,25,227,22,18,36,162,27*71
$GPGSV,3,2,11,23,78,187,,25,18,015,28,26,42,254,26,27,04,220,*7C
$GPGSV,3,3,11,29,43,088,32,31,08,314,29,32,15,356,39*4C
$GPGLL,1550.51315,S,04801.89382,W,224445.00,A,A*60
$GPGRS,224445.00,1,2.5,1.7,-8.0,-8.0,-0.1,0.0,-5.7,-3.2,,,,*61
$GPGST,224445.00,33,,,,4.6,4.5,14*7E
$GPZDA,224445.00,10,09,2022,00,00*6D
$GPGBS,224445.00,4.6,4.5,14.1,,,,*77
$GPDTM,W84,,0.0,N,0.0,E,0.0,W84*6F
$GPRMC,224446.00,A,1550.51308,S,04801.89377,W,0.193,,100922,,,A*7F
$GPVTG,,T,,M,0.193,N,0.357,K,A*29
$GPGGA,224446.00,1550.51308,S,04801.89377,W,1,08,0.89,1198.6,M,-11.9,M,,*4A
$GPGSA,A,3,10,29,26,18,16,25,15,32,,,,,2.05,0.89,1.85*0A
$GPGSV,3,1,11,10,63,306,27,15,20,117,26,16,25,227,22,18,36,162,27*71
$GPGSV,3,2,11,23,78,187,,25,18,015,28,26,42,254,26,27,04,220,*7C
$GPGSV,3,3,11,29,43,088,32,31,08,314,29,32,15,356,38*4D
$GPGLL,1550.51308,S,04801.89377,W,224446.00,A,A*65
$GPGRS,224446.00,1,2.0,2.7,-9.4,-6.5,0.4,0.0,-7.1,-3.5,,,,*41
$GPGST,224446.00,31,,,,4.6,4.5,14*7F
$GPZDA,224446.00,10,09,2022,00,00*6E
$GPGBS,224446.00,4.6,4.5,14.0,,,,*75
$GPDTM,W84,,0.0,N,0.0,E,0.0,W84*6F
$GPRMC,224447.00,A,1550.51303,S,04801.89375,W,0.446,,100922,,,A*7A
$GPVTG,,T,,M,0.446,N,0.827,K,A*28
$GPGGA,224447.00,1550.51303,S,04801.89375,W,1,08,0.89,1199.1,M,-11.9,M,,*44
$GPGSA,A,3,10,29,26,18,16,25,15,32,,,,,2.05,0.89,1.85*0A
$GPGSV,3,1,11,10,63,306,26,15,20,117,25,16,25,227,21,18,36,162,26*71
$GPGSV,3,2,11,23,78,187,,25,18,015,29,26,42,254,25,27,04,220,*7E
$GPGSV,3,3,11,29,43,088,32,31,08,314,29,32,15,356,38*4D
$GPGLL,1550.51303,S,04801.89375,W,224447.00,A,A*6D
$GPGRS,224447.00,1,1.3,3.0,-6.8,-5.3,-0.3,1.6,-9.1,-3.7,,,,*61
$GPGST,224447.00,33,,,,4.6,4.6,14*7F
$GPZDA,224447.00,10,09,2022,00,00*6F
$GPGBS,224447.00,4.6,4.6,13.9,,,,*79
$PUBX,00,224447.00,1550.51303,S,04801.89375,W,1187.219,G3,6.5,14,0.827,268.87,-0.060,,0.89,1
$PUBX,03,12,10,U,306,63,26,000,15,U,117,20,25,000,16,U,227,25,21,000,18,U,162,36,26,000,22,-
$GPDTM,W84,,0.0,N,0.0,E,0.0,W84*6F
$GPRMC,224448.00,A,1550.51305,S,04801.89364,W,0.185,,100922,,,A*79
$GPVTG,,T,,M,0.185,N,0.343,K,A*2B
$GPGGA,224448.00,1550.51305,S,04801.89364,W,1,08,0.89,1199.1,M,-11.9,M,,*4D
$GPGSA,A,3,10,29,26,18,16,25,15,32,,,,,2.05,0.89,1.85*0A
$GPGSV,3,1,11,10,63,306,25,15,20,117,22,16,25,227,21,18,36,162,25*76
$GPGSV,3,2,11,23,78,187,,25,18,015,30,26,42,254,27,27,04,220,*74
$GPGSV,3,3,11,29,43,088,30,31,08,314,29,32,15,356,37*40
$GPGLL,1550.51305,S,04801.89364,W,224448.00,A,A*64
$GPGRS,224448.00,1,1.9,3.7,-5.0,-2.7,-0.1,2.4,-7.1,-3.7,,,,*66
$GPGST,224448.00,35,,,,4.7,4.6,14*77
$GPZDA,224448.00,10,09,2022,00,00*60
$GPGBS,224448.00,4.7,4.6,14.0,,,,*79
$PUBX,00,224448.00,1550.51305,S,04801.89364,W,1187.195,G3,6.6,14,0.343,268.87,0.042,,0.89,1.
$PUBX,03,12,10,U,306,63,25,000,15,U,117,20,22,000,16,U,227,25,21,000,18,U,162,36,25,000,22,-
$PUBX,04,224448.00,100922,600288.00,2226,18,-738948,-3381.934,21*29
$GPTXT,01,01,00,txbuf alloc*7F
$GPDTM,W84,,0.0,N,0.0,E,0.0,W84*6F
$GPRMC,224449.00,A,1550.51296,S,04801.89362,W,0.236,,100922,,,A*7E
$GPVTG,,T,,M,0.236,N,0.436,K,A*25
$GPGGA,224449.00,1550.51296,S,04801.89362,W,1,09,0.83,1200.2,M,-11.9,M,,*4A
$GPGSA,A,3,10,29,26,18,16,25,15,32,31,,,,1.79,0.83,1.59*0B
$GPGSV,3,1,11,10,63,306,22,15,20,117,18,16,25,227,21,18,36,162,24*79
$GPGSV,3,2,11,23,78,187,,25,18,015,30,26,42,254,28,27,04,220,*7B
$GPGSV,3,3,11,29,43,088,30,31,08,314,28,32,15,356,38*4E
$GPGLL,1550.51296,S,04801.89362,W,224449.00,A,A*68
$GPGRS,224449.00,1,2.4,3.6,-2.3,1.6,0.3,2.4,-2.2,-2.9,-8.0,,,*6E
$GPGST,224449.00,38,,,,4.7,4.6,14*7B
$GPZDA,224449.00,10,09,2022,00,00*61
$GPGBS,224449.00,4.7,4.6,14.1,,,,*79
$PUBX,00,224449.00,1550.51296,S,04801.89362,W,1188.308,G3,6.6,14,0.436,268.87,-0.094,,0.83,1
$PUBX,03,12,10,U,306,63,22,000,15,U,117,20,18,000,16,U,227,25,21,000,18,U,162,36,24,000,22,-
$PUBX,04,224449.00,100922,600289.00,2226,18,-742327,-3381.342,21*2C
$GPDTM,W84,,0.0,N,0.0,E,0.0,W84*6F
$GPRMC,224450.00,A,1550.51299,S,04801.89358,W,0.024,,100922,,,A*71
$GPVTG,,T,,M,0.024,N,0.045,K,A*24
$GPGGA,224450.00,1550.51299,S,04801.89358,W,1,09,0.83,1200.5,M,-11.9,M,,*43
$GPGSA,A,3,10,29,26,18,16,25,15,32,31,,,,1.79,0.83,1.59*0B
$GPGSV,3,1,11,10,63,306,21,15,20,117,16,16,25,227,20,18,36,162,24*75
$GPGSV,3,2,11,23,78,187,,25,18,015,30,26,42,254,29,27,04,220,*7A
$GPGSV,3,3,11,29,43,088,30,31,08,314,26,32,15,356,38*40
$GPGLL,1550.51299,S,04801.89358,W,224450.00,A,A*66
$GPGRS,224450.00,1,1.4,4.0,1.5,2.4,4.6,-0.7,3.9,-2.6,-9.3,,,*4A
$GPGST,224450.00,40,,,,4.8,4.6,14*73
$GPZDA,224450.00,10,09,2022,00,00*69
$GPGBS,224450.00,4.8,4.6,14.3,,,,*7C
$PUBX,00,224450.00,1550.51299,S,04801.89358,W,1188.653,G3,6.6,14,0.045,268.87,-0.079,,0.83,1
$PUBX,03,12,10,U,306,63,21,000,15,U,117,20,16,000,16,U,227,25,20,000,18,U,162,36,24,000,22,-
$PUBX,04,224450.00,100922,600290.00,2226,18,-745708,-3380.763,21*24
$GPDTM,W84,,0.0,N,0.0,E,0.0,W84*6F
$GPRMC,224451.00,A,1550.51301,S,04801.89354,W,0.227,,100922,,,A*7D
$GPVTG,,T,,M,0.227,N,0.421,K,A*23
$GPGGA,224451.00,1550.51301,S,04801.89354,W,1,09,0.83,1201.2,M,-11.9,M,,*48
$GPGSA,A,3,10,29,26,18,16,25,15,32,31,,,,1.79,0.83,1.59*0B
$GPGSV,3,1,11,10,63,306,22,15,20,117,17,16,25,227,22,18,36,162,25*74
$GPGSV,3,2,11,23,78,187,,25,18,015,30,26,42,254,29,27,04,220,*7A
$GPGSV,3,3,11,29,43,088,29,31,08,314,24,32,15,356,38*4A
$GPGLL,1550.51301,S,04801.89354,W,224451.00,A,A*6B
$GPGRS,224451.00,1,1.9,4.5,4.6,2.3,-1.2,1.7,8.7,-3.4,-9.0,,,*47
$GPGST,224451.00,38,,,,4.9,4.6,14*7C
$GPZDA,224451.00,10,09,2022,00,00*68
$GPGBS,224451.00,4.9,4.6,14.5,,,,*7A
$PUBX,00,224451.00,1550.51301,S,04801.89354,W,1189.295,G3,6.7,14,0.421,268.87,-0.083,,0.83,1
$PUBX,03,12,10,U,306,63,22,000,15,U,117,20,17,000,16,U,227,25,22,000,18,U,162,36,25,000,22,-
$PUBX,04,224451.00,100922,600291.00,2226,18,-749086,-3377.607,21*22
$GPDTM,W84,,0.0,N,0.0,E,0.0,W84*6F
$GPRMC,224452.00,A,1550.51307,S,04801.89348,W,0.198,,100922,,,A*72
$GPVTG,,T,,M,0.198,N,0.367,K,A*21
$GPGGA,224452.00,1550.51307,S,04801.89348,W,1,09,0.83,1201.6,M,-11.9,M,,*44
$GPGSA,A,3,10,29,26,18,16,25,15,32,31,,,,1.79,0.83,1.59*0B
$GPGSV,3,1,11,10,63,306,23,15,20,117,16,16,25,227,21,18,36,162,25*77
$GPGSV,3,2,11,23,78,187,,25,18,015,30,26,42,254,29,27,04,220,*7A
$GPGSV,3,3,11,29,43,088,29,31,08,314,22,32,15,356,38*4C
$GPGLL,1550.51307,S,04801.89348,W,224452.00,A,A*63
$GPGRS,224452.00,1,2.6,7.0,5.1,4.7,-5.5,4.2,13.3,-3.5,-9.3,,,*75
$GPGST,224452.00,40,,,,4.9,4.6,15*71
$GPZDA,224452.00,10,09,2022,00,00*6B
$GPGBS,224452.00,4.9,4.6,14.7,,,,*7B
$PUBX,00,224452.00,1550.51307,S,04801.89348,W,1189.718,G3,6.7,15,0.367,268.87,-0.054,,0.83,1
$PUBX,03,12,10,U,306,63,23,000,15,U,117,20,16,000,16,U,227,25,21,000,18,U,162,36,25,000,22,-
$PUBX,04,224452.00,100922,600292.00,2226,18,-752461,-3374.655,21*21
$GPDTM,W84,,0.0,N,0.0,E,0.0,W84*6F
$GPRMC,224453.00,A,1550.51314,S,04801.89349,W,0.358,,100922,,,A*7E
$GPVTG,,T,,M,0.358,N,0.663,K,A*2E
$GPGGA,224453.00,1550.51314,S,04801.89349,W,1,09,0.83,1201.9,M,-11.9,M,,*49
$GPGSA,A,3,10,29,26,18,16,25,15,32,31,,,,1.79,0.83,1.59*0B
$GPGSV,3,1,11,10,63,306,23,15,20,117,15,16,25,227,20,18,36,162,26*76
$GPGSV,3,2,11,23,78,187,,25,18,015,30,26,42,254,29,27,04,220,*7A
$GPGSV,3,3,11,29,43,088,30,31,08,314,19,32,15,356,38*4C
$GPGLL,1550.51314,S,04801.89349,W,224453.00,A,A*61
$GPGRS,224453.00,1,3.2,6.7,2.8,6.5,-6.4,6.8,13.8,-3.7,-7.2,,,*75
$GPGST,224453.00,45,,,,5.0,4.6,15*7D
$GPZDA,224453.00,10,09,2022,00,00*6A
$GPTXT,01,01,00,txbuf alloc*7F
$GPDTM,W84,,0.0,N,0.0,E,0.0,W84*6F
$GPRMC,224454.00,A,1550.51338,S,04801.89354,W,0.718,,100922,,,A*7B
$GPVTG,,T,,M,0.718,N,1.329,K,A*24
$GPGGA,224454.00,1550.51338,S,04801.89354,W,1,09,0.83,1201.6,M,-11.9,M,,*43
$GPGSA,A,3,10,29,26,18,16,25,15,32,31,,,,1.79,0.83,1.59*0B
$GPGSV,3,1,11,10,63,306,23,15,20,117,16,16,25,227,19,18,36,162,26*7F
$GPGSV,3,2,11,23,78,187,,25,18,015,29,26,42,254,21,27,04,220,*7A
$GPGSV,3,3,11,29,43,088,30,31,08,314,17,32,15,356,38*42
$GPGLL,1550.51338,S,04801.89354,W,224454.00,A,A*64
$GPGRS,224454.00,1,2.7,7.4,2.8,5.3,9.8,2.9,15.6,-3.6,-35.6,,,*66
$GPGST,224454.00,45,,,,5.0,4.7,15*7B
$GPZDA,224454.00,10,09,2022,00,00*6D
$GPGBS,224454.00,5.0,4.7,15.1,,,,*73
$PUBX,00,224454.00,1550.51338,S,04801.89354,W,1189.712,G3,6.9,15,1.329,268.87,0.059,,0.83,1.
$GPDTM,W84,,0.0,N,0.0,E,0.0,W84*6F
$GPRMC,224455.00,A,1550.51356,S,04801.89349,W,0.301,,100922,,,A*72
$GPVTG,,T,,M,0.301,N,0.557,K,A*26
$GPGGA,224455.00,1550.51356,S,04801.89349,W,1,09,0.99,1201.4,M,-11.9,M,,*4F
$GPGSA,A,3,10,29,26,18,16,25,15,32,31,,,,1.96,0.99,1.69*02
$GPGSV,3,1,11,10,63,306,25,15,20,117,20,16,25,227,17,18,36,162,27*73
$GPGSV,3,2,11,23,78,187,,25,18,015,29,26,42,254,23,27,04,220,*78
$GPGSV,3,3,11,29,43,088,30,31,08,314,15,32,15,356,38*40
$GPGLL,1550.51356,S,04801.89349,W,224455.00,A,A*61
$GPGRS,224455.00,1,1.8,5.2,3.8,4.8,22.9,2.6,13.3,-3.4,-16.3,,,*56
$GPGST,224455.00,44,,,,5.1,4.9,15*74
$GPZDA,224455.00,10,09,2022,00,00*6C
$GPGBS,224455.00,5.1,4.9,15.1,,,,*7D
$GPDTM,W84,,0.0,N,0.0,E,0.0,W84*6F
$GPRMC,224456.00,A,1550.51380,S,04801.89345,W,0.498,,100922,,,A*71
$GPVTG,,T,,M,0.498,N,0.922,K,A*2F
$GPGGA,224456.00,1550.51380,S,04801.89345,W,1,09,0.99,1200.5,M,-11.9,M,,*4B
$GPGSA,A,3,10,29,26,18,16,25,15,32,31,,,,1.96,0.99,1.69*02
$GPGSV,3,1,11,10,63,306,26,15,20,117,24,16,25,227,19,18,36,162,28*75
$GPGSV,3,2,11,23,78,187,,25,18,015,28,26,42,254,25,27,04,220,*7F
$GPGSV,3,3,11,29,43,088,31,31,08,314,16,32,15,356,39*43
$GPGLL,1550.51380,S,04801.89345,W,224456.00,A,A*65
$GPGRS,224456.00,1,0.0,1.3,2.6,-0.6,26.8,3.1,13.0,-3.4,13.6,,,*5C
$GPGST,224456.00,40,,,,5.1,4.9,15*73
$GPZDA,224456.00,10,09,2022,00,00*6F
$GPGBS,224456.00,5.1,4.9,15.0,,,,*7F
$PUBX,00,224456.00,1550.51380,S,04801.89345,W,1188.619,G3,7.1,15,0.922,268.87,0.227,,0.99,1.
$GPDTM,W84,,0.0,N,0.0,E,0.0,W84*6F
$GPRMC,224457.00,A,1550.51392,S,04801.89337,W,0.218,,100922,,,A*78
$GPVTG,,T,,M,0.218,N,0.404,K,A*28
$GPGGA,224457.00,1550.51392,S,04801.89337,W,1,09,0.83,1200.3,M,-11.9,M,,*41
$GPGSA,A,3,10,29,26,18,16,25,15,32,31,,,,1.79,0.83,1.59*0B
$GPGSV,3,1,11,10,63,306,30,15,20,117,23,16,25,227,19,18,36,162,28*75
$GPGSV,3,2,11,23,78,187,,25,18,015,29,26,42,254,24,27,04,220,*7F
$GPGSV,3,3,11,29,43,088,31,31,08,314,18,32,15,356,40*43
$GPGLL,1550.51392,S,04801.89337,W,224457.00,A,A*62
$GPGRS,224457.00,1,-0.6,-0.3,2.6,-3.7,19.6,2.7,10.5,-3.6,-23.5,,,*74
$GPGST,224457.00,39,,,,5.1,4.9,15*7C
$GPZDA,224457.00,10,09,2022,00,00*6E
$GPGBS,224457.00,5.1,4.9,14.7,,,,*78
$PUBX,00,224457.00,1550.51392,S,04801.89337,W,1188.405,G3,7.1,15,0.404,268.87,0.218,,0.83,1.
$PUBX,03,12,10,U,306,63,30,000,15,U,117,20,23,000,16,U,227,25,19,000,18,U,162,36,28,000,22,-
$PUBX,04,224457.00,100922,600297.00,2226,18,-769329,-3370.921,21*2A
$GPTXT,01,01,00,txbuf alloc*7F
$GPDTM,W84,,0.0,N,0.0,E,0.0,W84*6F
$GPRMC,224458.00,A,1550.51390,S,04801.89287,W,1.494,330.21,100922,,,A*61
$GPVTG,330.21,T,,M,1.494,N,2.768,K,A*3D
$GPGGA,224458.00,1550.51390,S,04801.89287,W,1,09,0.83,1199.6,M,-11.9,M,,*40
$GPGSA,A,3,10,29,26,18,16,25,15,32,31,,,,1.79,0.83,1.59*0B
$GPGSV,3,1,11,10,63,306,21,15,20,117,21,16,25,227,18,18,36,162,29*77
$GPGSV,3,2,11,23,78,187,,25,18,015,29,26,42,254,25,27,04,220,*7E
$GPGSV,3,3,11,29,43,088,31,31,08,314,20,32,15,356,39*46
$GPGLL,1550.51390,S,04801.89287,W,224458.00,A,A*65
$GPGRS,224458.00,1,-13.6,-0.9,0.0,-2.5,9.9,3.6,9.2,-3.2,-45.8,,,*4C
$GPGST,224458.00,40,,,,5.1,5.0,15*75
$GPZDA,224458.00,10,09,2022,00,00*61
$GPGBS,224458.00,5.1,5.0,14.8,,,,*70
$PUBX,00,224458.00,1550.51390,S,04801.89287,W,1187.720,G3,7.1,15,2.768,330.21,0.284,,0.83,1.
$PUBX,03,12,10,U,306,63,21,000,15,U,117,20,21,000,16,U,227,25,18,000,18,U,162,36,29,000,22,-
$GPDTM,W84,,0.0,N,0.0,E,0.0,W84*6F
$GPRMC,224459.00,A,1550.51387,S,04801.89251,W,0.582,,100922,,,A*77
$GPVTG,,T,,M,0.582,N,1.079,K,A*23
$GPGGA,224459.00,1550.51387,S,04801.89251,W,1,09,0.83,1199.4,M,-11.9,M,,*4E
$GPGSA,A,3,10,29,26,18,16,25,15,32,31,,,,1.79,0.83,1.59*0B
$GPGSV,3,1,11,10,63,306,21,15,20,117,18,16,25,227,18,18,36,162,29*7D
$GPGSV,3,2,11,23,78,187,,25,18,015,29,26,42,254,27,27,04,220,*7C
$GPGSV,3,3,11,29,43,088,31,31,08,314,18,32,15,356,39*4D
$GPGLL,1550.51387,S,04801.89251,W,224459.00,A,A*69
$GPGRS,224459.00,1,-23.6,5.2,1.1,-1.2,9.6,2.7,4.7,-3.3,-52.5,,,*64
$GPGST,224459.00,43,,,,5.1,5.0,15*77
$GPZDA,224459.00,10,09,2022,00,00*60
$GPGBS,224459.00,5.1,5.0,15.0,,,,*78
$PUBX,00,224459.00,1550.51387,S,04801.89251,W,1187.561,G3,7.1,15,1.079,330.21,0.240,,0.83,1.
$PUBX,03,12,10,U,306,63,21,000,15,U,117,20,18,000,16,U,227,25,18,000,18,U,162,36,29,000,22,-
$PUBX,04,224459.00,100922,600299.00,2226,18,-776075,-3374.541,21*20
$GPDTM,W84,,0.0,N,0.0,E,0.0,W84*6F
$GPRMC,224500.00,A,1550.51388,S,04801.89225,W,0.274,,100922,,,A*78
$GPVTG,,T,,M,0.274,N,0.507,K,A*20
$GPGGA,224500.00,1550.51388,S,04801.89225,W,1,09,0.99,1199.1,M,-11.9,M,,*41
$GPGSA,A,3,10,29,26,18,16,25,15,32,31,,,,1.96,0.99,1.69*02
$GPGSV,3,1,11,10,63,306,23,15,20,117,16,16,25,227,18,18,36,162,30*79
$GPGSV,3,2,11,23,78,187,,25,18,015,30,26,42,254,27,27,04,220,*74
$GPGSV,3,3,11,29,43,088,31,31,08,314,17,32,15,356,40*4C
$GPGLL,1550.51388,S,04801.89225,W,224500.00,A,A*68
$GPGRS,224500.00,1,-26.4,2.5,3.2,-2.7,20.8,4.9,6.5,-3.2,-53.1,,,*50
$GPGST,224500.00,47,,,,5.1,5.0,15*7E
$GPZDA,224500.00,10,09,2022,00,00*6D
$GPGBS,224500.00,5.1,5.0,15.1,,,,*74
$PUBX,00,224500.00,1550.51388,S,04801.89225,W,1187.175,G3,7.2,15,0.507,330.21,0.225,,0.99,1.
$PUBX,03,12,10,U,306,63,23,000,15,U,117,20,16,000,16,e,227,25,18,000,18,U,162,36,30,000,22,-
$PUBX,04,224500.00,100922,600300.00,2226,18,-779449,-3374.256,21*29
$GPDTM,W84,,0.0,N,0.0,E,0.0,W84*6F
$GPRMC,224501.00,A,1550.51398,S,04801.89201,W,0.129,,100922,,,A*75
$GPVTG,,T,,M,0.129,N,0.239,K,A*21
$GPGGA,224501.00,1550.51398,S,04801.89201,W,1,09,0.83,1198.3,M,-11.9,M,,*4F
$GPGSA,A,3,10,29,26,18,16,25,15,32,31,,,,1.79,0.83,1.59*0B
$GPGSV,3,1,11,10,63,306,22,15,20,117,16,16,25,227,17,18,36,162,29*7F
$GPGSV,3,2,11,23,78,187,,25,18,015,29,26,42,254,28,27,04,220,20*71
$GPGSV,3,3,11,29,43,088,31,31,08,314,14,32,15,356,40*4F
$GPGLL,1550.51398,S,04801.89201,W,224501.00,A,A*6E
$GPGRS,224501.00,1,-54.5,5.6,4.1,-4.3,18.9,3.2,6.0,-3.1,-60.4,,,*52
$GPGST,224501.00,54,,,,5.1,5.0,15*7D
$GPZDA,224501.00,10,09,2022,00,00*6C
$GPGBS,224501.00,5.1,5.0,15.3,,,,*77
$PUBX,00,224501.00,1550.51398,S,04801.89201,W,1186.408,G3,7.2,15,0.239,330.21,0.211,,0.83,1.
$PUBX,03,12,10,U,306,63,22,000,15,U,117,20,16,000,16,U,227,25,17,000,18,U,162,36,29,000,22,-
$PUBX,04,224501.00,100922,600301.00,2226,18,-782824,-3374.200,21*29
$GPTXT,01,01,00,txbuf alloc*7F
$GPDTM,W84,,0.0,N,0.0,E,0.0,W84*6F
$GPRMC,224502.00,A,1550.51389,S,04801.89200,W,0.249,,100922,,,A*72
$GPVTG,,T,,M,0.249,N,0.461,K,A*2F
$GPGGA,224502.00,1550.51389,S,04801.89200,W,1,09,0.91,1199.2,M,-11.9,M,,*4E
$GPGSA,A,3,10,29,26,18,16,25,15,32,31,,,,2.57,0.91,2.40*0C
$GPGSV,3,1,11,10,63,306,20,15,20,117,17,16,25,227,15,18,36,162,29*7E
$GPGSV,3,2,11,23,78,187,,25,18,015,29,26,42,254,29,27,04,220,18*7B
$GPGSV,3,3,11,29,43,088,31,31,08,314,12,32,15,356,39*47
$GPGLL,1550.51389,S,04801.89200,W,224502.00,A,A*6C
$GPGRS,224502.00,1,-51.0,6.0,5.0,-6.6,14.7,2.5,5.4,-2.5,-54.0,,,*56
$GPGST,224502.00,53,,,,5.2,5.0,16*79
$GPZDA,224502.00,10,09,2022,00,00*6F
$GPGBS,224502.00,5.2,5.0,15.6,,,,*72
$GPDTM,W84,,0.0,N,0.0,E,0.0,W84*6F
$GPRMC,224503.00,A,1550.51377,S,04801.89193,W,0.388,,100922,,,A*77
$GPVTG,,T,,M,0.388,N,0.719,K,A*2F
$GPGGA,224503.00,1550.51377,S,04801.89193,W,1,09,0.91,1199.9,M,-11.9,M,,*4C
$GPGSA,A,3,10,29,26,18,16,25,15,32,31,,,,2.57,0.91,2.40*0C
$GPGSV,3,1,11,10,63,306,21,15,20,117,21,16,25,227,13,18,36,162,29*7C
$GPGSV,3,2,11,23,78,187,,25,18,015,29,26,42,254,29,27,04,220,17*74
$GPGSV,3,3,11,29,43,088,29,31,08,314,13,32,15,356,39*4F
$GPGLL,1550.51377,S,04801.89193,W,224503.00,A,A*65
$GPGRS,224503.00,1,-53.6,6.9,2.7,-6.9,16.2,2.6,5.9,-2.2,-49.9,,,*5E
$GPGST,224503.00,51,,,,5.2,5.0,16*7A
$GPZDA,224503.00,10,09,2022,00,00*6E
$GPGBS,224503.00,5.2,5.0,15.9,,,,*7C
$PUBX,00,224503.00,1550.51377,S,04801.89193,W,1188.055,G3,7.2,16,0.719,330.21,-0.031,,0.91,2
$GPDTM,W84,,0.0,N,0.0,E,0.0,W84*6F
$GPRMC,224504.00,A,1550.51387,S,04801.89177,W,0.084,,100922,,,A*7A
$GPVTG,,T,,M,0.084,N,0.155,K,A*2E
$GPGGA,224504.00,1550.51387,S,04801.89177,W,1,09,0.83,1198.9,M,-11.9,M,,*4C
$GPGSA,A,3,10,29,26,18,16,25,15,32,31,,,,1.79,0.83,1.59*0B
$GPGSV,3,1,11,10,63,306,23,15,20,117,21,16,25,227,11,18,36,162,29*7C
$GPGSV,3,2,11,23,78,187,,25,18,015,28,26,42,254,29,27,04,220,*73
$GPGSV,3,3,11,29,43,088,28,31,08,314,16,32,15,356,38*4A
$GPGLL,1550.51387,S,04801.89177,W,224504.00,A,A*67
$GPGRS,224504.00,1,-40.3,6.2,3.4,-4.4,15.7,2.0,4.4,-2.8,-6.4,,,*68
$GPGST,224504.00,48,,,,5.2,5.0,16*75
$GPZDA,224504.00,10,09,2022,00,00*69
$GPGBS,224504.00,5.2,5.0,15.9,,,,*7B
$GPDTM,W84,,0.0,N,0.0,E,0.0,W84*6F
$GPRMC,224505.00,A,1550.51409,S,04801.89161,W,0.220,,100922,,,A*71
$GPVTG,,T,,M,0.220,N,0.407,K,A*20
$GPGGA,224505.00,1550.51409,S,04801.89161,W,1,08,0.99,1197.4,M,-11.9,M,,*43
$GPGSA,A,3,10,29,26,18,25,15,32,31,,,,,1.96,0.99,1.69*05
$GPGSV,3,1,11,10,63,306,25,15,20,117,20,16,25,227,09,18,36,162,28*73
$GPGSV,3,2,11,23,78,187,,25,18,015,28,26,42,254,29,27,04,220,*73
$GPGSV,3,3,11,29,43,088,27,31,08,314,20,32,15,356,38*40
$GPGLL,1550.51409,S,04801.89161,W,224505.00,A,A*60
$GPGRS,224505.00,1,-25.7,7.3,2.9,-2.9,3.3,5.7,-2.7,0.7,,,,*53
$GPGST,224505.00,36,,,,5.3,5.1,16*7D
$GPZDA,224505.00,10,09,2022,00,00*68
$GPGBS,224505.00,5.3,5.1,15.9,,,,*7A
$GPDTM,W84,,0.0,N,0.0,E,0.0,W84*6F
$GPRMC,224506.00,A,1550.51423,S,04801.89151,W,0.029,,100922,,,A*72
$GPVTG,,T,,M,0.029,N,0.053,K,A*2E
$GPGGA,224506.00,1550.51423,S,04801.89151,W,1,09,0.83,1196.2,M,-11.9,M,,*46
$GPGSA,A,3,10,29,26,18,16,25,15,32,31,,,,1.79,0.83,1.59*0B
$GPGSV,3,1,11,10,63,306,26,15,20,117,21,16,25,227,12,18,36,162,28*7B
$GPGSV,3,2,11,23,78,187,,25,18,015,28,26,42,254,29,27,04,220,*73
$GPGSV,3,3,11,29,43,088,27,31,08,314,24,32,15,356,36*4A
$GPGLL,1550.51423,S,04801.89151,W,224506.00,A,A*68
$GPGRS,224506.00,1,-19.4,6.6,2.4,-4.5,10.1,4.9,5.3,-1.5,8.3,,,*45
$GPGST,224506.00,43,,,,5.2,5.1,16*7D
$GPZDA,224506.00,10,09,2022,00,00*6B
$GPGBS,224506.00,5.2,5.1,15.8,,,,*79
$PUBX,04,224506.00,100922,600306.00,2226,18,-799722,-3379.211,21*27
$GPTXT,01,01,00,txbuf alloc*7F
$GPDTM,W84,,0.0,N,0.0,E,0.0,W84*6F
$GPRMC,224507.00,A,1550.51429,S,04801.89137,W,0.103,,100922,,,A*70
$GPVTG,,T,,M,0.103,N,0.191,K,A*28
$GPGGA,224507.00,1550.51429,S,04801.89137,W,1,09,0.83,1195.6,M,-11.9,M,,*4A
$GPGSA,A,3,10,29,26,18,16,25,15,32,31,,,,1.79,0.83,1.59*0B
$GPGSV,3,1,11,10,63,306,31,15,20,117,22,16,25,227,13,18,36,162,32*74
$GPGSV,3,2,11,23,78,187,,25,18,015,29,26,42,254,29,27,04,220,*72
$GPGSV,3,3,11,29,43,088,31,31,08,314,25,32,15,356,39*43
$GPGLL,1550.51429,S,04801.89137,W,224507.00,A,A*63
$GPGRS,224507.00,1,-7.7,7.1,2.0,-4.3,6.7,4.9,6.0,-1.7,8.7,,,*4B
$GPGST,224507.00,40,,,,5.1,5.0,15*7E
$GPZDA,224507.00,10,09,2022,00,00*6A
$GPGBS,224507.00,5.1,5.0,15.1,,,,*73
$PUBX,00,224507.00,1550.51429,S,04801.89137,W,1183.755,G3,7.2,15,0.191,330.21,0.055,,0.83,1.
$PUBX,03,12,10,U,306,63,31,000,15,U,117,20,22,000,16,U,227,25,13,000,18,U,162,36,32,000,22,-
$PUBX,04,224507.00,100922,600307.00,2226,18,-803104,-3381.633,21*2A
$GPDTM,W84,,0.0,N,0.0,E,0.0,W84*6F
$GPRMC,224508.00,A,1550.51435,S,04801.89137,W,0.092,,100922,,,A*7B
$GPVTG,,T,,M,0.092,N,0.170,K,A*2E
$GPGGA,224508.00,1550.51435,S,04801.89137,W,1,09,0.83,1195.5,M,-11.9,M,,*4B
$GPGSA,A,3,10,29,26,18,16,25,15,32,31,,,,1.79,0.83,1.59*0B
$GPGSV,3,1,11,10,63,306,25,15,20,117,23,16,25,227,15,18,36,162,31*75
$GPGSV,3,2,11,23,78,187,,25,18,015,28,26,42,254,29,27,04,220,19*7B
$GPGSV,3,3,11,29,43,088,29,31,08,314,27,32,15,356,37*46
$GPGLL,1550.51435,S,04801.89137,W,224508.00,A,A*61
$GPGRS,224508.00,1,-2.3,8.9,1.3,-4.0,6.5,6.2,7.5,-2.1,15.9,,,*79
$GPGST,224508.00,36,,,,5.0,5.0,15*71
$GPZDA,224508.00,10,09,2022,00,00*65
$GPGBS,224508.00,5.0,5.0,15.0,,,,*7C
$PUBX,00,224508.00,1550.51435,S,04801.89137,W,1183.584,G3,7.1,15,0.170,330.21,0.016,,0.83,1.
$PUBX,03,12,10,U,306,63,25,000,15,U,117,20,23,000,16,U,227,25,15,000,18,U,162,36,31,000,22,-
$PUBX,04,224508.00,100922,600308.00,2226,18,-806486,-3382.787,21*2D
$GPDTM,W84,,0.0,N,0.0,E,0.0,W84*6F
$GPRMC,224509.00,A,1550.51432,S,04801.89129,W,0.131,,100922,,,A*7A
$GPVTG,,T,,M,0.131,N,0.243,K,A*25
$GPGGA,224509.00,1550.51432,S,04801.89129,W,1,09,0.83,1195.7,M,-11.9,M,,*40
$GPGSA,A,3,10,29,26,18,16,25,15,32,31,,,,1.79,0.83,1.59*0B
$GPGSV,3,1,11,10,63,306,24,15,20,117,24,16,25,227,17,18,36,162,29*78
$GPGSV,3,2,11,23,78,187,,25,18,015,28,26,42,254,29,27,04,220,*73
$GPGSV,3,3,11,29,43,088,28,31,08,314,27,32,15,356,39*49
$GPGLL,1550.51432,S,04801.89129,W,224509.00,A,A*68
$GPGRS,224509.00,1,-0.5,10.2,-0.9,-8.4,7.5,5.8,9.6,-2.2,4.8,,,*57
$GPGST,224509.00,38,,,,5.0,5.0,15*7E
$GPZDA,224509.00,10,09,2022,00,00*64
$GPGBS,224509.00,5.0,5.0,15.1,,,,*7C
$PUBX,00,224509.00,1550.51432,S,04801.89129,W,1183.773,G3,7.1,15,0.243,330.21,0.017,,0.83,1.
$PUBX,03,12,10,U,306,63,24,000,15,U,117,20,24,000,16,U,227,25,17,000,18,U,162,36,29,000,22,-
$PUBX,04,224509.00,100922,600309.00,2226,18,-809867,-3380.497,21*21
$GPDTM,W84,,0.0,N,0.0,E,0.0,W84*6F
$GPRMC,224510.00,A,1550.51435,S,04801.89125,W,0.236,,100922,,,A*7D
$GPVTG,,T,,M,0.236,N,0.437,K,A*24
$GPGGA,224510.00,1550.51435,S,04801.89125,W,1,09,0.83,1195.5,M,-11.9,M,,*41
$GPGSA,A,3,10,29,26,18,16,25,15,32,31,,,,1.79,0.83,1.59*0B
$GPGSV,3,1,11,10,63,306,22,15,20,117,22,16,25,227,18,18,36,162,29*77
$GPGSV,3,2,11,23,78,187,,25,18,015,26,26,42,254,28,27,04,220,*7C
$GPGSV,3,3,11,29,43,088,28,31,08,314,27,32,15,356,38*48
$GPGLL,1550.51435,S,04801.89125,W,224510.00,A,A*6B
$GPGRS,224510.00,1,-10.1,10.3,0.0,-9.8,3.8,5.9,8.2,-2.5,16.3,,,*70
$GPGST,224510.00,40,,,,5.0,5.0,15*79
$GPZDA,224510.00,10,09,2022,00,00*6C
$GPGBS,224510.00,5.0,5.0,15.2,,,,*77
$PUBX,00,224510.00,1550.51435,S,04801.89125,W,1183.607,G3,7.1,15,0.437,330.21,0.024,,0.83,1.
$PUBX,03,12,10,U,306,63,22,000,15,U,117,20,22,000,16,U,227,25,18,000,18,U,162,36,29,000,22,-
$PUBX,04,224510.00,100922,600310.00,2226,18,-813246,-3378.148,21*23
$GPDTM,W84,,0.0,N,0.0,E,0.0,W84*6F
$GPRMC,224511.00,A,1550.51428,S,04801.89114,W,0.109,,100922,,,A*7D
$GPVTG,,T,,M,0.109,N,0.203,K,A*2A
$GPGGA,224511.00,1550.51428,S,04801.89114,W,1,09,0.83,1195.9,M,-11.9,M,,*42
$GPGSA,A,3,10,29,26,18,16,25,15,32,31,,,,1.79,0.83,1.59*0B
$GPGSV,3,1,11,10,63,306,21,15,20,117,22,16,25,227,17,18,36,162,29*7B
$GPGSV,3,2,11,23,78,187,,25,18,015,26,26,42,254,28,27,04,220,*7C
$GPGSV,3,3,11,29,43,088,28,31,08,314,26,32,15,356,38*49
$GPGLL,1550.51428,S,04801.89114,W,224511.00,A,A*64
$GPGRS,224511.00,1,-12.4,11.1,-1.0,-8.8,4.6,4.9,8.3,-2.9,4.2,,,*6F
$GPGST,224511.00,40,,,,5.0,5.1,15*79
$GPZDA,224511.00,10,09,2022,00,00*6D
$GPGBS,224511.00,5.0,5.1,15.3,,,,*76
$PUBX,00,224511.00,1550.51428,S,04801.89114,W,1184.047,G3,7.1,15,0.203,330.21,-0.054,,0.83,1
$PUBX,03,12,10,U,306,63,21,000,15,U,117,20,22,000,16,U,227,25,17,000,18,U,162,36,29,000,22,-
$PUBX,04,224511.00,100922,600311.00,2226,18,-816623,-3378.062,21*28
$GPDTM,W84,,0.0,N,0.0,E,0.0,W84*6F
$GPRMC,224512.00,A,1550.51417,S,04801.89104,W,0.212,,100922,,,A*7A
$GPVTG,,T,,M,0.212,N,0.393,K,A*2B
$GPGGA,224512.00,1550.51417,S,04801.89104,W,1,09,0.83,1196.6,M,-11.9,M,,*40
$GPGSA,A,3,10,29,26,18,16,25,15,32,31,,,,1.79,0.83,1.59*0B
$GPGSV,3,1,11,10,63,306,22,15,20,117,23,16,25,227,17,18,36,162,29*79
$GPGSV,3,2,11,23,78,187,,25,18,015,26,26,42,254,27,27,04,220,*73
$GPGSV,3,3,11,29,43,088,28,31,08,314,26,32,15,356,38*49
$GPGLL,1550.51417,S,04801.89104,W,224512.00,A,A*6A
$GPGRS,224512.00,1,-4.6,10.6,1.2,-9.3,-16.3,5.4,9.6,-2.9,1.0,,,*6E
$GPGST,224512.00,38,,,,5.0,5.1,15*75
$GPZDA,224512.00,10,09,2022,00,00*6E
$GPGBS,224512.00,5.0,5.1,15.4,,,,*72
$PUBX,00,224512.00,1550.51417,S,04801.89104,W,1184.735,G3,7.1,15,0.393,330.21,-0.109,,0.83,1
$PUBX,03,12,10,U,306,63,22,000,15,U,117,20,23,000,16,U,227,25,17,000,18,U,162,36,29,000,22,-
$PUBX,04,224512.00,100922,600312.00,2226,18,-820001,-3378.529,21*21
$GPDTM,W84,,0.0,N,0.0,E,0.0,W84*6F
$GPRMC,224513.00,A,1550.51416,S,04801.89109,W,0.481,,100922,,,A*7B
$GPVTG,,T,,M,0.481,N,0.890,K,A*2F
$GPGGA,224513.00,1550.51416,S,04801.89109,W,1,09,0.99,1196.7,M,-11.9,M,,*47
$GPGSA,A,3,10,29,26,18,16,25,15,32,31,,,,1.96,0.99,1.69*02
$GPGSV,3,1,11,10,63,306,22,15,20,117,23,16,25,227,18,18,36,162,29*76
$GPGSV,3,2,11,23,78,187,,25,18,015,25,26,42,254,27,27,04,220,*70
$GPGSV,3,3,11,29,43,088,28,31,08,314,25,32,15,356,37*45
$GPGLL,1550.51416,S,04801.89109,W,224513.00,A,A*67
$GPGRS,224513.00,1,-2.5,11.0,3.1,-10.3,-33.8,7.7,6.9,-3.0,7.1,,,*56
$GPGST,224513.00,34,,,,5.0,5.1,15*78
$GPZDA,224513.00,10,09,2022,00,00*6F
$GPGBS,224513.00,5.0,5.1,15.5,,,,*72
$PUBX,00,224513.00,1550.51416,S,04801.89109,W,1184.837,G3,7.2,15,0.890,330.21,-0.047,,0.99,1
$PUBX,03,12,10,U,306,63,22,000,15,U,117,20,23,000,16,e,227,25,18,000,18,U,162,36,29,000,22,-
$PUBX,04,224513.00,100922,600313.00,2226,18,-823378,-3376.989,21*27
$GPDTM,W84,,0.0,N,0.0,E,0.0,W84*6F
$GPRMC,224514.00,A,1550.51412,S,04801.89107,W,0.304,,100922,,,A*7C
$GPVTG,,T,,M,0.304,N,0.564,K,A*23
$GPGGA,224514.00,1550.51412,S,04801.89107,W,1,09,0.99,1196.7,M,-11.9,M,,*4A
$GPGSA,A,3,10,29,26,18,16,25,15,32,31,,,,1.96,0.99,1.69*02
$GPGSV,3,1,11,10,63,306,23,15,20,117,25,16,25,227,20,18,36,162,30*72
$GPGSV,3,2,11,23,78,187,,25,18,015,26,26,42,254,26,27,04,220,*72
$GPGSV,3,3,11,29,43,088,28,31,08,314,25,32,15,356,39*4B
$GPGLL,1550.51412,S,04801.89107,W,224514.00,A,A*6A
$GPGRS,224514.00,1,-8.0,10.0,3.3,-11.5,-24.0,8.6,7.3,-3.1,13.5,,,*61
$GPGST,224514.00,33,,,,5.0,5.2,16*78
$GPZDA,224514.00,10,09,2022,00,00*68
$GPGBS,224514.00,5.0,5.2,15.5,,,,*76
$PUBX,00,224514.00,1550.51412,S,04801.89107,W,1184.846,G3,7.2,16,0.564,330.21,0.015,,0.99,1.
$GPTXT,01,01,00,txbuf alloc*7F
$GPDTM,W84,,0.0,N,0.0,E,0.0,W84*6F
$GPRMC,224515.00,A,1550.51409,S,04801.89105,W,0.176,,100922,,,A*72
$GPVTG,,T,,M,0.176,N,0.326,K,A*24
$GPGGA,224515.00,1550.51409,S,04801.89105,W,1,09,0.99,1197.0,M,-11.9,M,,*45
$GPGSA,A,3,10,29,26,18,16,25,15,32,31,,,,1.96,0.99,1.69*02
$GPGSV,3,1,11,10,63,306,23,15,20,117,25,16,25,227,21,18,36,162,29*7B
$GPGSV,3,2,11,23,78,187,,25,18,015,26,26,42,254,25,27,04,220,*71
$GPGSV,3,3,11,29,43,088,28,31,08,314,26,32,15,356,39*48
$GPGLL,1550.51409,S,04801.89105,W,224515.00,A,A*63
$GPGRS,224515.00,1,1.4,10.0,3.7,-9.8,-33.1,10.0,6.7,-2.4,12.1,,,*4C
$GPGST,224515.00,33,,,,5.0,5.2,16*79
$GPZDA,224515.00,10,09,2022,00,00*69
$GPGBS,224515.00,5.0,5.2,15.6,,,,*74
$PUBX,00,224515.00,1550.51409,S,04801.89105,W,1185.141,G3,7.2,16,0.326,330.21,0.013,,0.99,1.
$GPDTM,W84,,0.0,N,0.0,E,0.0,W84*6F
$GPRMC,224516.00,A,1550.51411,S,04801.89098,W,0.040,,100922,,,A*79
$GPVTG,,T,,M,0.040,N,0.074,K,A*24
$GPGGA,224516.00,1550.51411,S,04801.89098,W,1,09,0.99,1196.9,M,-11.9,M,,*42
$GPGSA,A,3,10,29,26,18,16,25,15,32,31,,,,1.96,0.99,1.69*02
$GPGSV,3,1,11,10,63,306,23,15,20,117,25,16,25,227,21,18,36,162,29*7B
$GPGSV,3,2,11,23,78,187,,25,18,015,27,26,42,254,26,27,04,220,*73
$GPGSV,3,3,11,29,43,088,27,31,08,314,27,32,15,356,39*46
$GPGLL,1550.51411,S,04801.89098,W,224516.00,A,A*6C
$GPGRS,224516.00,1,-5.4,11.0,4.1,-10.4,-66.8,10.3,7.0,-3.2,8.9,,,*6A
$GPGST,224516.00,32,,,,5.0,5.2,16*7B
$GPZDA,224516.00,10,09,2022,00,00*6A
$GPGBS,224516.00,5.0,5.2,15.6,,,,*77
$PUBX,00,224516.00,1550.51411,S,04801.89098,W,1184.973,G3,7.2,16,0.074,330.21,0.045,,0.99,1.
$GPDTM,W84,,0.0,N,0.0,E,0.0,W84*6F
$GPRMC,224517.00,A,1550.51410,S,04801.89084,W,0.417,,100922,,,A*72
$GPVTG,,T,,M,0.417,N,0.771,K,A*20
$GPGGA,224517.00,1550.51410,S,04801.89084,W,1,09,0.99,1196.7,M,-11.9,M,,*41
$GPGSA,A,3,10,29,26,18,16,25,15,32,31,,,,1.96,0.99,1.69*02
$GPGSV,3,1,11,10,63,306,23,15,20,117,25,16,25,227,21,18,36,162,29*7B
$GPGSV,3,2,11,23,78,187,,25,18,015,27,26,42,254,25,27,04,220,*70
$GPGSV,3,3,11,29,43,088,26,31,08,314,26,32,15,356,38*47
$GPGLL,1550.51410,S,04801.89084,W,224517.00,A,A*61
$GPGRS,224517.00,1,-7.7,10.9,5.7,-9.8,-66.7,9.4,7.4,-3.5,10.5,,,*57
$GPGST,224517.00,33,,,,5.0,5.2,16*7B
$GPZDA,224517.00,10,09,2022,00,00*6B
$GPGBS,224517.00,5.0,5.2,15.6,,,,*76
$GPDTM,W84,,0.0,N,0.0,E,0.0,W84*6F
$GPRMC,224518.00,A,1550.51408,S,04801.89078,W,0.069,,100922,,,A*7A
$GPVTG,,T,,M,0.069,N,0.128,K,A*27
$GPGGA,224518.00,1550.51408,S,04801.89078,W,1,09,0.99,1196.8,M,-11.9,M,,*4B
$GPGSA,A,3,10,29,26,18,16,25,15,32,31,,,,1.96,0.99,1.69*02
$GPGSV,3,1,11,10,63,306,24,15,20,117,25,16,25,227,22,18,36,162,29*7F
$GPGSV,3,2,11,23,78,187,,25,18,015,26,26,42,254,25,27,04,220,*71
$GPGSV,3,3,11,29,43,088,26,31,08,314,26,32,15,356,38*47
$GPGLL,1550.51408,S,04801.89078,W,224518.00,A,A*64
$GPGRS,224518.00,1,-1.4,12.4,5.2,-11.8,-43.4,6.6,8.0,-3.5,10.4,,,*6D
$GPGST,224518.00,32,,,,4.9,5.3,16*7C
$GPZDA,224518.00,10,09,2022,00,00*64
$GPGBS,224518.00,4.9,5.3,15.6,,,,*70
$PUBX,00,224518.00,1550.51408,S,04801.89078,W,1184.960,G3,7.2,16,0.128,330.21,0.022,,0.99,1.
$PUBX,03,12,10,U,306,63,24,000,15,U,117,20,25,000,16,e,227,25,22,000,18,U,162,36,29,000,22,-
$GPDTM,W84,,0.0,N,0.0,E,0.0,W84*6F
$GPRMC,224519.00,A,1550.51417,S,04801.89071,W,0.176,,100922,,,A*73
$GPVTG,,T,,M,0.176,N,0.327,K,A*25
$GPGGA,224519.00,1550.51417,S,04801.89071,W,1,09,0.99,1196.0,M,-11.9,M,,*45
$GPGSA,A,3,10,29,26,18,16,25,15,32,31,,,,1.96,0.99,1.69*02
$GPGSV,3,1,11,10,63,306,24,15,20,117,25,16,25,227,23,18,36,162,28*7F
$GPGSV,3,2,11,23,78,187,,25,18,015,27,26,42,254,24,27,04,220,*71
$GPGSV,3,3,11,29,43,088,26,31,08,314,27,32,15,356,38*46
$GPGLL,1550.51417,S,04801.89071,W,224519.00,A,A*62
$GPGRS,224519.00,1,1.2,12.3,5.7,-13.1,-35.5,6.2,7.5,-3.8,7.9,,,*76
$GPGST,224519.00,33,,,,4.9,5.3,16*7C
$GPZDA,224519.00,10,09,2022,00,00*65
$GPGBS,224519.00,4.9,5.3,15.5,,,,*72
$PUBX,00,224519.00,1550.51417,S,04801.89071,W,1184.145,G3,7.3,16,0.327,330.21,0.214,,0.99,1.
$PUBX,03,12,10,U,306,63,24,000,15,U,117,20,25,000,16,e,227,25,23,000,18,U,162,36,28,000,22,-
$GPTXT,01,01,00,txbuf alloc*7F
$GPDTM,W84,,0.0,N,0.0,E,0.0,W84*6F
$GPRMC,224520.00,A,1550.51417,S,04801.89067,W,0.064,,100922,,,A*7C
$GPVTG,,T,,M,0.064,N,0.118,K,A*29
$GPGGA,224520.00,1550.51417,S,04801.89067,W,1,09,0.99,1196.3,M,-11.9,M,,*4B
$GPGSA,A,3,10,29,26,18,16,25,15,32,31,,,,1.96,0.99,1.69*02
$GPGSV,3,1,11,10,63,306,25,15,20,117,25,16,25,227,24,18,36,162,28*79
$GPGSV,3,2,11,23,78,187,,25,18,015,27,26,42,254,24,27,04,220,*71
$GPGSV,3,3,11,29,43,088,26,31,08,314,28,32,15,356,39*48
$GPGLL,1550.51417,S,04801.89067,W,224520.00,A,A*6F
$GPGRS,224520.00,1,0.2,13.3,8.8,-10.1,-22.7,7.3,9.1,-3.5,6.0,,,*76
$GPGST,224520.00,32,,,,4.9,5.4,15*73
$GPZDA,224520.00,10,09,2022,00,00*6F
$GPGBS,224520.00,4.9,5.4,15.4,,,,*7E
$PUBX,00,224520.00,1550.51417,S,04801.89067,W,1184.381,G3,7.3,15,0.118,330.21,0.162,,0.99,1.
$PUBX,03,12,10,U,306,63,25,000,15,U,117,20,25,000,16,e,227,25,24,000,18,U,162,36,28,000,22,-
$PUBX,04,224520.00,100922,600320.00,2226,18,-846967,-3368.567,21*23
$GPDTM,W84,,0.0,N,0.0,E,0.0,W84*6F
$GPRMC,224521.00,A,1550.51415,S,04801.89051,W,0.090,,100922,,,A*71
$GPVTG,,T,,M,0.090,N,0.167,K,A*2A
$GPGGA,224521.00,1550.51415,S,04801.89051,W,1,09,0.83,1196.3,M,-11.9,M,,*46
$GPGSA,A,3,10,29,26,18,16,25,15,32,31,,,,1.79,0.83,1.58*0A
$GPGSV,3,1,11,10,63,306,24,15,20,117,25,16,25,227,25,18,36,162,27*76
$GPGSV,3,2,11,23,78,187,,25,18,015,26,26,42,254,22,27,04,220,*76
$GPGSV,3,3,11,29,43,088,25,31,08,314,28,32,15,356,39*4B
$GPGLL,1550.51415,S,04801.89051,W,224521.00,A,A*69
$GPGRS,224521.00,1,3.1,13.3,9.3,-7.7,-18.6,7.8,8.5,-3.6,2.9,,,*45
$GPGST,224521.00,35,,,,4.9,5.4,15*75
$GPZDA,224521.00,10,09,2022,00,00*6E
$GPGBS,224521.00,4.9,5.4,15.3,,,,*78
$PUBX,00,224521.00,1550.51415,S,04801.89051,W,1184.440,G3,7.3,15,0.167,330.21,0.219,,0.83,1.
$PUBX,03,12,10,U,306,63,24,000,15,U,117,20,25,000,16,U,227,25,25,000,18,U,162,36,27,000,22,-
$PUBX,04,224521.00,100922,600321.00,2226,18,-850336,-3370.284,21*29
$GPDTM,W84,,0.0,N,0.0,E,0.0,W84*6F
$GPRMC,224522.00,A,1550.51416,S,04801.89049,W,0.485,,100922,,,A*78
$GPVTG,,T,,M,0.485,N,0.899,K,A*22
$GPGGA,224522.00,1550.51416,S,04801.89049,W,1,09,0.99,1197.1,M,-11.9,M,,*47
$GPGSA,A,3,10,29,26,18,16,25,15,32,31,,,,1.96,0.99,1.69*02
$GPGSV,3,1,11,10,63,306,21,15,20,117,26,16,25,227,25,18,36,162,26*71
$GPGSV,3,2,11,23,78,187,,25,18,015,24,26,42,254,21,27,04,220,*77
$GPGSV,3,3,11,29,43,088,25,31,08,314,27,32,15,356,39*44
$GPGLL,1550.51416,S,04801.89049,W,224522.00,A,A*60
$GPGRS,224522.00,1,3.6,12.2,9.6,-6.1,-18.5,8.2,7.3,-3.4,0.4,,,*41
$GPGST,224522.00,37,,,,4.9,5.4,15*74
$GPZDA,224522.00,10,09,2022,00,00*6D
$GPGBS,224522.00,4.9,5.4,15.4,,,,*7C
$PUBX,00,224522.00,1550.51416,S,04801.89049,W,1185.206,G3,7.3,15,0.899,330.21,0.115,,0.99,1.
$PUBX,03,12,10,U,306,63,21,000,15,U,117,20,26,000,16,e,227,25,25,000,18,U,162,36,26,000,22,-
$PUBX,04,224522.00,100922,600322.00,2226,18,-853703,-3368.150,21*2B
$GPDTM,W84,,0.0,N,0.0,E,0.0,W84*6F
$GPRMC,224523.00,A,1550.51422,S,04801.89062,W,1.190,,100922,,,A*77
$GPVTG,,T,,M,1.190,N,2.203,K,A*29
$GPGGA,224523.00,1550.51422,S,04801.89062,W,1,09,0.99,1198.3,M,-11.9,M,,*45
$GPGSA,A,3,10,29,26,18,16,25,15,32,31,,,,1.96,0.99,1.69*02
$GPGSV,3,1,11,10,63,306,18,15,20,117,25,16,25,227,24,18,36,162,26*79
$GPGSV,3,2,11,23,78,187,,25,18,015,25,26,42,254,19,27,04,220,*7D
$GPGSV,3,3,11,29,43,088,26,31,08,314,27,32,15,356,39*47
$GPGLL,1550.51422,S,04801.89062,W,224523.00,A,A*6F
$GPGRS,224523.00,1,6.1,10.3,10.9,-3.3,-22.2,8.1,6.2,-3.3,-2.6,,,*56
$GPGST,224523.00,40,,,,4.9,5.5,16*77
$GPZDA,224523.00,10,09,2022,00,00*6C
$GPGBS,224523.00,4.9,5.5,15.6,,,,*7E
$PUBX,00,224523.00,1550.51422,S,04801.89062,W,1186.444,G3,7.4,16,2.203,330.21,-0.032,,0.99,1
$PUBX,04,224523.00,100922,600323.00,2226,18,-857068,-3365.883,21*2F
$GPTXT,01,01,00,txbuf alloc*7F
$GPDTM,W84,,0.0,N,0.0,E,0.0,W84*6F
$GPRMC,224524.00,A,1550.51430,S,04801.89052,W,0.021,,100922,,,A*7A
$GPVTG,,T,,M,0.021,N,0.039,K,A*2A
$GPGGA,224524.00,1550.51430,S,04801.89052,W,1,09,0.99,1198.5,M,-11.9,M,,*44
$GPGSA,A,3,10,29,26,18,16,25,15,32,31,,,,1.96,0.99,1.69*02
$GPGSV,3,1,11,10,63,306,16,15,20,117,25,16,25,227,25,18,36,162,26*76
$GPGSV,3,2,11,23,78,187,,25,18,015,26,26,42,254,17,27,04,220,*70
$GPGSV,3,3,11,29,43,088,27,31,08,314,27,32,15,356,39*46
$GPGLL,1550.51430,S,04801.89052,W,224524.00,A,A*68
$GPGRS,224524.00,1,7.2,8.8,9.9,-1.6,-21.4,9.2,7.2,-3.3,-3.2,,,*5D
$GPGST,224524.00,45,,,,4.9,5.6,16*76
$GPZDA,224524.00,10,09,2022,00,00*6B
$GPGBS,224524.00,4.9,5.6,15.8,,,,*74
$GPDTM,W84,,0.0,N,0.0,E,0.0,W84*6F
$GPRMC,224525.00,A,1550.51422,S,04801.89042,W,0.258,,100922,,,A*75
$GPVTG,,T,,M,0.258,N,0.478,K,A*27
$GPGGA,224525.00,1550.51422,S,04801.89042,W,1,09,0.83,1199.5,M,-11.9,M,,*4D
$GPGSA,A,3,10,29,26,18,16,25,15,32,31,,,,1.79,0.83,1.58*0A
$GPGSV,3,1,11,10,63,306,15,15,20,117,26,16,25,227,25,18,36,162,26*76
$GPGSV,3,2,11,23,78,187,,25,18,015,26,26,42,254,15,27,04,220,*72
$GPGSV,3,3,11,29,43,088,28,31,08,314,25,32,15,356,39*4B
$GPGLL,1550.51422,S,04801.89042,W,224525.00,A,A*6B
$GPGRS,224525.00,1,5.8,6.7,13.4,-1.6,-17.4,6.8,5.4,-3.1,-1.1,,,*64
$GPGST,224525.00,49,,,,4.9,5.6,16*7B
$GPZDA,224525.00,10,09,2022,00,00*6A
$GPGBS,224525.00,4.9,5.6,16.0,,,,*7E
$GPDTM,W84,,0.0,N,0.0,E,0.0,W84*6F
$GPRMC,224526.00,A,1550.51413,S,04801.89025,W,0.086,,100922,,,A*74
$GPVTG,,T,,M,0.086,N,0.160,K,A*2A
$GPGGA,224526.00,1550.51413,S,04801.89025,W,1,09,0.83,1200.4,M,-11.9,M,,*4F
$GPGSA,A,3,10,29,26,18,16,25,15,32,31,,,,1.79,0.83,1.58*0A
$GPGSV,3,1,11,10,63,306,14,15,20,117,26,16,25,227,25,18,36,162,26*77
$GPGSV,3,2,11,23,78,187,,25,18,015,26,26,42,254,15,27,04,220,*72
$GPGSV,3,3,11,29,43,088,28,31,08,314,25,32,15,356,39*4B
$GPGLL,1550.51413,S,04801.89025,W,224526.00,A,A*6B
$GPGRS,224526.00,1,9.3,6.7,14.9,-0.1,-12.5,6.3,3.5,-3.1,0.1,,,*48
$GPGST,224526.00,49,,,,4.9,5.6,16*78
$GPZDA,224526.00,10,09,2022,00,00*69
$GPGBS,224526.00,4.9,5.6,16.2,,,,*7F
$GPDTM,W84,,0.0,N,0.0,E,0.0,W84*6F
$GPRMC,224527.00,A,1550.51402,S,04801.89016,W,0.344,,100922,,,A*78
$GPVTG,,T,,M,0.344,N,0.637,K,A*22
$GPGGA,224527.00,1550.51402,S,04801.89016,W,1,09,0.83,1201.9,M,-11.9,M,,*42
$GPGSA,A,3,10,29,26,18,16,25,15,32,31,,,,1.79,0.83,1.58*0A
$GPGSV,3,1,11,10,63,306,14,15,20,117,27,16,25,227,24,18,36,162,26*77
$GPGSV,3,2,11,23,78,187,,25,18,015,25,26,42,254,16,27,04,220,*72
$GPGSV,3,3,11,29,43,088,29,31,08,314,23,32,15,356,40*42
$GPGLL,1550.51402,S,04801.89016,W,224527.00,A,A*6A
$GPGRS,224527.00,1,10.9,4.6,15.6,0.1,-12.3,9.5,2.9,-3.4,-2.3,,,*71
$GPGST,224527.00,49,,,,4.8,5.7,16*79
$GPZDA,224527.00,10,09,2022,00,00*68
$GPGBS,224527.00,4.8,5.7,16.3,,,,*7F
$PUBX,00,224527.00,1550.51402,S,04801.89016,W,1189.970,G3,7.5,16,0.637,330.21,-0.248,,0.83,1
$PUBX,03,12,10,U,306,63,14,000,15,U,117,20,27,000,16,U,227,25,24,000,18,U,162,36,26,000,22,-
$GPDTM,W84,,0.0,N,0.0,E,0.0,W84*6F
$GPRMC,224528.00,A,1550.51404,S,04801.89012,W,0.429,,100922,,,A*79
$GPVTG,,T,,M,0.429,N,0.795,K,A*27
$GPGGA,224528.00,1550.51404,S,04801.89012,W,1,09,0.83,1202.3,M,-11.9,M,,*46
$GPGSA,A,3,10,29,26,18,16,25,15,32,31,,,,1.79,0.83,1.58*0A
$GPGSV,3,1,11,10,63,306,16,15,20,117,27,16,25,227,22,18,36,162,27*72
$GPGSV,3,2,11,23,78,187,,25,18,015,25,26,42,254,17,27,04,220,*73
$GPGSV,3,3,11,29,43,088,29,31,08,314,23,32,15,356,39*4C
$GPGLL,1550.51404,S,04801.89012,W,224528.00,A,A*67
$GPGRS,224528.00,1,12.7,3.4,17.1,-2.1,-14.1,8.5,3.9,-3.1,-0.1,,,*5C
$GPGST,224528.00,45,,,,4.8,5.7,16*7A
$GPZDA,224528.00,10,09,2022,00,00*67
$GPGBS,224528.00,4.8,5.7,16.5,,,,*76
$PUBX,00,224528.00,1550.51404,S,04801.89012,W,1190.415,G3,7.5,16,0.795,330.21,-0.192,,0.83,1
$PUBX,03,12,10,U,306,63,16,000,15,U,117,20,27,000,16,U,227,25,22,000,18,U,162,36,27,000,22,-
$GPTXT,01,01,00,txbuf alloc*7F
$GPDTM,W84,,0.0,N,0.0,E,0.0,W84*6F
$GPRMC,224529.00,A,1550.51406,S,04801.88997,W,0.107,,100922,,,A*76
$GPVTG,,T,,M,0.107,N,0.199,K,A*24
$GPGGA,224529.00,1550.51406,S,04801.88997,W,1,09,0.83,1202.1,M,-11.9,M,,*42
$GPGSA,A,3,10,29,26,18,16,25,15,32,31,,,,1.79,0.83,1.58*0A
$GPGSV,3,1,11,10,63,306,17,15,20,117,26,16,25,227,22,18,36,162,27*72
$GPGSV,3,2,11,23,78,187,,25,18,015,25,26,42,254,16,27,04,220,*72
$GPGSV,3,3,11,29,43,088,29,31,08,314,23,32,15,356,40*42
$GPGLL,1550.51406,S,04801.88997,W,224529.00,A,A*61
$GPGRS,224529.00,1,13.4,1.6,19.0,-0.5,-17.0,9.3,5.3,-3.0,0.9,,,*7B
$GPGST,224529.00,49,,,,4.8,5.8,17*79
$GPZDA,224529.00,10,09,2022,00,00*66
$GPGBS,224529.00,4.8,5.8,16.6,,,,*7B
$PUBX,00,224529.00,1550.51406,S,04801.88997,W,1190.166,G3,7.5,17,0.199,330.21,-0.072,,0.83,1
$PUBX,03,12,10,U,306,63,17,000,15,U,117,20,26,000,16,U,227,25,22,000,18,U,162,36,27,000,22,-
$PUBX,04,224529.00,100922,600329.00,2226,18,-877259,-3363.059,21*24
$GPDTM,W84,,0.0,N,0.0,E,0.0,W84*6F
$GPRMC,224530.00,A,1550.51399,S,04801.88988,W,0.057,,100922,,,A*75
$GPVTG,,T,,M,0.057,N,0.106,K,A*26
$GPGGA,224530.00,1550.51399,S,04801.88988,W,1,09,0.83,1202.8,M,-11.9,M,,*4C
$GPGSA,A,3,10,29,26,18,16,25,15,32,31,,,,1.79,0.83,1.58*0A
$GPGSV,3,1,11,10,63,305,18,15,20,117,26,16,25,227,23,18,36,162,27*7F
$GPGSV,3,2,11,23,78,187,,25,18,015,25,26,42,254,16,27,04,220,*72
$GPGSV,3,3,11,29,43,088,29,31,08,314,25,32,15,356,40*44
$GPGLL,1550.51399,S,04801.88988,W,224530.00,A,A*66
$GPGRS,224530.00,1,11.5,1.7,19.9,-0.1,-14.9,8.8,3.6,-2.5,-0.2,,,*5D
$GPGST,224530.00,45,,,,4.8,5.8,17*7D
$GPZDA,224530.00,10,09,2022,00,00*6E
$GPGBS,224530.00,4.8,5.8,16.7,,,,*72
$PUBX,00,224530.00,1550.51399,S,04801.88988,W,1190.870,G3,7.6,17,0.106,330.21,-0.101,,0.83,1
$PUBX,03,12,10,U,305,63,18,000,15,U,117,20,26,000,16,U,227,25,23,000,18,U,162,36,27,000,22,-
$PUBX,04,224530.00,100922,600330.00,2226,18,-880622,-3363.850,21*25
$GPDTM,W84,,0.0,N,0.0,E,0.0,W84*6F
$GPRMC,224531.00,A,1550.51396,S,04801.88976,W,0.027,,100922,,,A*7D
$GPVTG,,T,,M,0.027,N,0.049,K,A*2B
$GPGGA,224531.00,1550.51396,S,04801.88976,W,1,09,0.83,1202.7,M,-11.9,M,,*4C
$GPGSA,A,3,10,29,26,18,16,25,15,32,31,,,,1.79,0.83,1.58*0A
$GPGSV,3,1,11,10,63,305,20,15,20,117,27,16,25,227,23,18,36,162,26*74
$GPGSV,3,2,11,23,78,187,,25,18,015,23,26,42,254,18,27,04,220,*7A
$GPGSV,3,3,11,29,43,088,29,31,08,314,26,32,15,356,41*46
$GPGLL,1550.51396,S,04801.88976,W,224531.00,A,A*69
$GPGRS,224531.00,1,12.5,0.4,19.5,-0.5,-14.8,7.8,3.1,-2.4,-1.6,,,*58
$GPGST,224531.00,44,,,,4.8,5.8,17*7D
$GPZDA,224531.00,10,09,2022,00,00*6F
$GPGBS,224531.00,4.8,5.8,16.7,,,,*73
$PUBX,00,224531.00,1550.51396,S,04801.88976,W,1190.813,G3,7.5,17,0.049,330.21,0.018,,0.83,1.
$PUBX,03,12,10,U,305,63,20,000,15,U,117,20,27,000,16,U,227,25,23,000,18,U,162,36,26,000,22,-
$PUBX,04,224531.00,100922,600331.00,2226,18,-883984,-3361.971,21*25
$GPDTM,W84,,0.0,N,0.0,E,0.0,W84*6F
$GPRMC,224532.00,A,1550.51393,S,04801.88982,W,0.406,,100922,,,A*77
$GPVTG,,T,,M,0.406,N,0.751,K,A*22
$GPGGA,224532.00,1550.51393,S,04801.88982,W,1,09,0.83,1203.5,M,-11.9,M,,*42
$GPGSA,A,3,10,29,26,18,16,25,15,32,31,,,,1.79,0.83,1.58*0A
$GPGSV,3,1,11,10,63,305,20,15,20,117,27,16,25,227,23,18,36,162,27*75
$GPGSV,3,2,11,23,78,187,,25,18,015,23,26,42,254,18,27,04,220,*7A
$GPGSV,3,3,11,29,43,088,30,31,08,314,27,32,15,356,39*40
$GPGLL,1550.51393,S,04801.88982,W,224532.00,A,A*64
$GPGRS,224532.00,1,12.6,-1.5,19.1,-0.3,-11.0,7.9,3.6,-2.4,-2.9,,,*70
$GPGST,224532.00,39,,,,4.7,5.8,17*7B
$GPZDA,224532.00,10,09,2022,00,00*6C
$GPGBS,224532.00,4.7,5.8,16.6,,,,*7E
$PUBX,00,224532.00,1550.51393,S,04801.88982,W,1191.659,G3,7.5,17,0.751,330.21,-0.025,,0.83,1
$PUBX,03,12,10,U,305,63,20,000,15,U,117,20,27,000,16,U,227,25,23,000,18,U,162,36,27,000,22,-
$PUBX,04,224532.00,100922,600332.00,2226,18,-887344,-3360.330,21*29
$GPDTM,W84,,0.0,N,0.0,E,0.0,W84*6F
$GPRMC,224533.00,A,1550.51392,S,04801.88975,W,0.123,,100922,,,A*7D
$GPVTG,,T,,M,0.123,N,0.228,K,A*2B
$GPGGA,224533.00,1550.51392,S,04801.88975,W,1,09,0.83,1204.0,M,-11.9,M,,*48
$GPGSA,A,3,10,29,26,18,16,25,15,32,31,,,,1.79,0.83,1.58*0A
$GPGSV,3,1,11,10,63,305,22,15,20,117,27,16,25,227,23,18,36,162,27*77
$GPGSV,3,2,11,23,78,187,,25,18,015,23,26,42,254,18,27,04,220,*7A
$GPGSV,3,3,11,29,43,088,29,31,08,314,28,32,15,356,39*47
$GPGLL,1550.51392,S,04801.88975,W,224533.00,A,A*6C
$GPGRS,224533.00,1,10.8,0.3,16.5,-1.1,-11.5,8.9,4.9,-2.2,-2.0,,,*52
$GPGST,224533.00,41,,,,4.7,5.8,17*75
$GPZDA,224533.00,10,09,2022,00,00*6D
$GPGBS,224533.00,4.7,5.8,16.7,,,,*7E
$GPTXT,01,01,00,txbuf alloc*7F
$GPDTM,W84,,0.0,N,0.0,E,0.0,W84*6F
$GPRMC,224534.00,A,1550.51392,S,04801.88963,W,0.244,,100922,,,A*7F
$GPVTG,,T,,M,0.244,N,0.452,K,A*22
$GPGGA,224534.00,1550.51392,S,04801.88963,W,1,09,0.83,1204.1,M,-11.9,M,,*49
$GPGSA,A,3,10,29,26,18,16,25,15,32,31,,,,1.79,0.83,1.58*0A
$GPGSV,3,1,11,10,63,305,23,15,20,117,27,16,25,227,23,18,36,162,26*77
$GPGSV,3,2,11,23,78,187,,25,18,015,23,26,42,254,18,27,04,220,*7A
$GPGSV,3,3,11,29,43,088,29,31,08,314,29,32,15,356,39*46
$GPGLL,1550.51392,S,04801.88963,W,224534.00,A,A*6C
