$GPGGA,185819.44,1559.369294,S,04802.613756,W,1,00,    ,1196.41,M,0.0,M,0.0,0000*50
$GPGSV,3,1,12,2,50,167,44.0,5,46,090,22.5,11,07,143,34.6,12,59,084,35.1*70
$GPGSV,3,2,12,15,07,034,26.5,18,46,296,34.7,20,21,129,24.4,23,10,344,18.1*7A
$GPGSV,3,3,12,24,20,003,24.5,25,66,181,38.6,29,37,205,38.9,31,11,230,23.3*77
$GPRMC,185819.44,A,1559.369294,S,04802.613756,W,000.1,,190922,,,A*76
$GPGGA,185820.44,1559.368667,S,04802.613939,W,1,00,    ,1197.47,M,0.0,M,0.0,0000*53
$GPGSV,3,1,12,2,50,167,42.0,5,46,090,32.5,11,07,143,32.9,12,59,084,37.2*7F
$GPGSV,3,2,12,15,07,034,21.5,18,46,296,30.9,20,21,129,30.5,23,10,344,23.4*7E
$GPGSV,3,3,12,24,20,003,23.9,25,66,181,39.1,29,37,205,39.5,31,11,230,28.7*78
$GPRMC,185820.44,A,1559.368667,S,04802.613939,W,000.1,,190922,,,A*72
$GPGGA,185821.44,1559.368519,S,04802.613885,W,1,00,    ,1199.44,M,0.0,M,0.0,0000*53
$GPGSV,3,1,12,2,50,166,41.8,5,46,090,36.9,11,07,143,33.4,12,59,084,36.3*71
$GPGSV,3,2,12,15,07,034,29.9,18,46,296,28.0,20,21,129,32.3,23,10,344,21.5*7D
$GPGSV,3,3,12,24,20,003,20.9,25,66,181,37.7,29,37,205,38.0,31,11,230,29.1*70
$GPRMC,185821.44,A,1559.368519,S,04802.613885,W,000.1,,190922,,,A*7F
$GPGGA,185822.44,1559.368710,S,04802.613554,W,1,00,    ,1198.47,M,0.0,M,0.0,0000*58
$GPGSV,3,1,12,2,50,166,40.7,5,46,090,33.5,11,07,143,33.6,12,59,084,35.9*7D
$GPGSV,3,2,12,15,07,034,28.6,18,46,296,31.0,20,21,129,34.9,23,10,344,20.7*74
$GPGSV,3,3,12,24,20,003,22.5,25,66,181,37.9,29,37,205,38.2,31,11,230,23.5*7C
$GPRMC,185822.44,A,1559.368710,S,04802.613554,W,000.1,,190922,,,A*76
$GPGGA,185823.44,1559.368857,S,04802.613777,W,1,00,    ,1198.41,M,0.0,M,0.0,0000*50
$GPGSV,3,1,12,2,50,166,40.3,5,46,090,34.7,11,07,143,30.4,12,59,084,35.7*73
$GPGSV,3,2,12,15,07,034,25.0,18,46,296,31.5,20,21,129,35.9,23,10,344,23.4*7B
$GPGSV,3,3,12,24,20,003,28.7,25,66,181,39.3,29,37,205,35.6,31,11,230,28.7*70
$GPRMC,185823.44,A,1559.368857,S,04802.613777,W,000.1,,190922,,,A*78
$GPGGA,185824.44,1559.368858,S,04802.613796,W,1,00,    ,1199.52,M,0.0,M,0.0,0000*54
$GPGSV,3,1,12,2,50,166,43.1,5,46,090,35.6,11,07,143,32.5,12,59,084,34.2*75
$GPGSV,3,2,12,15,07,034,27.2,18,46,296,34.7,20,21,129,35.0,23,10,344,26.0*74
$GPGSV,3,3,12,24,20,003,24.1,25,66,181,37.1,29,37,205,39.0,31,11,230,27.1*75
$GPRMC,185824.44,A,1559.368858,S,04802.613796,W,000.3,,190922,,,A*7D
$GPGGA,185825.44,1559.368683,S,04802.613903,W,1,00,    ,1199.34,M,0.0,M,0.0,0000*5F
$GPGSV,3,1,12,2,50,166,37.9,5,46,090,33.2,11,07,143,37.4,12,59,084,33.4*79
$GPGSV,3,2,12,15,07,034,26.4,18,46,296,34.5,20,21,129,36.8,23,10,344,28.5*71
$GPGSV,3,3,12,24,20,003,27.9,25,66,181,33.8,29,37,205,36.3,31,11,230,30.2*7A
$GPRMC,185825.44,A,1559.368683,S,04802.613903,W,000.4,,190922,,,A*71
$GPGGA,185826.44,1559.368232,S,04802.614252,W,1,00,    ,1199.66,M,0.0,M,0.0,0000*5D
$GPGSV,3,1,12,2,50,166,33.4,5,46,090,32.8,11,07,143,31.9,12,59,084,36.3*72
$GPGSV,3,2,12,15,07,034,27.5,18,46,296,29.6,20,21,129,36.0,23,10,344,27.8*74
$GPGSV,3,3,12,24,20,003,26.1,25,66,181,33.0,29,37,205,36.2,31,11,230,30.1*79
$GPRMC,185826.44,A,1559.368232,S,04802.614252,W,000.3,,190922,,,A*73
$GPGGA,185827.44,1559.368022,S,04802.614484,W,1,00,    ,1200.33,M,0.0,M,0.0,0000*51
$GPGSV,3,1,12,2,50,166,38.2,5,46,090,35.7,11,07,143,30.2,12,59,084,33.8*73
$GPGSV,3,2,12,15,07,034,29.7,18,46,296,31.4,20,21,129,35.2,23,10,344,29.5*71
$GPGSV,3,3,12,24,20,003,27.8,25,66,181,35.4,29,37,205,38.7,31,11,230,34.0*7D
$GPRMC,185827.44,A,1559.368022,S,04802.614484,W,001.0,349.1,190922,,,A*5F
$GPGGA,185828.44,1559.367665,S,04802.614563,W,1,00,    ,1200.56,M,0.0,M,0.0,0000*5F
$GPGSV,3,1,12,2,50,166,40.0,5,46,090,40.9,11,07,143,24.3,12,59,084,39.6*72
$GPGSV,3,2,12,15,07,034,27.5,18,46,296,31.3,20,21,129,36.4,23,10,344,26.8*7D
$GPGSV,3,3,12,24,20,003,26.3,25,66,181,39.3,29,37,205,33.1,31,11,230,30.1*74
$GPRMC,185828.44,A,1559.367665,S,04802.614563,W,000.3,,190922,,,A*71
$GPGGA,185829.44,1559.367566,S,04802.614797,W,1,00,    ,1200.60,M,0.0,M,0.0,0000*52
$GPGSV,3,1,11,2,50,166,33.5,5,46,090,38.5,12,59,084,35.2,15,07,034,21.6*7E
$GPGSV,3,2,11,18,46,296,35.2,20,21,129,33.0,23,10,344,22.9,24,20,003,25.3*78
$GPGSV,3,3,11,25,66,181,35.3,29,37,205,29.0,31,11,230,25.5*5F
$GPRMC,185829.44,A,1559.367566,S,04802.614797,W,000.1,,190922,,,A*7B
$GPGGA,185830.44,1559.367714,S,04802.614873,W,1,00,    ,1201.13,M,0.0,M,0.0,0000*5D
$GPGSV,3,1,12,2,50,166,29.2,5,46,090,40.2,11,07,143,19.4,12,59,084,33.1*70
$GPGSV,3,2,12,15,07,034,19.1,18,46,296,34.5,20,21,129,34.9,23,10,344,18.7*7A
$GPGSV,3,3,12,24,20,003,26.3,25,66,181,34.7,29,37,205,30.5,31,11,230,24.4*7A
$GPRMC,185830.44,A,1559.367714,S,04802.614873,W,000.0,,190922,,,A*70
$GPGGA,185831.44,1559.367710,S,04802.614821,W,1,00,    ,1201.59,M,0.0,M,0.0,0000*51
$GPGSV,3,1,12,2,50,166,29.9,5,46,090,40.2,11,07,143,21.1,12,59,084,33.7*73
$GPGSV,3,2,12,15,07,034,22.1,18,46,296,35.1,20,21,129,34.8,23,10,344,21.7*7C
$GPGSV,3,3,12,24,20,003,26.4,25,66,181,34.8,29,37,205,30.4,31,11,230,24.0*77
$GPRMC,185831.44,A,1559.367710,S,04802.614821,W,000.1,,190922,,,A*73
$GPGGA,185832.44,1559.367579,S,04802.614803,W,1,00,    ,1201.53,M,0.0,M,0.0,0000*55
$GPGSV,3,1,12,2,50,166,30.3,5,46,090,39.6,11,07,143,24.3,12,59,084,34.0*7C
$GPGSV,3,2,12,15,07,034,20.1,18,46,296,35.2,20,21,129,35.3,23,10,344,22.3*70
$GPGSV,3,3,12,24,20,003,27.7,25,66,181,34.6,29,37,205,29.8,31,11,230,22.9*70
$GPRMC,185832.44,A,1559.367579,S,04802.614803,W,000.1,,190922,,,A*7D
$GPGGA,185833.44,1559.367563,S,04802.614850,W,1,00,    ,1201.26,M,0.0,M,0.0,0000*5B
$GPGSV,3,1,12,2,50,166,30.7,5,46,090,39.9,11,07,143,31.1,12,59,084,33.6*70
$GPGSV,3,2,12,15,07,034,19.2,18,46,296,35.3,20,21,129,35.6,23,10,344,22.4*7A
$GPGSV,3,3,12,24,20,003,27.2,25,66,181,34.9,29,37,205,31.4,31,11,230,21.4*71
$GPRMC,185833.44,A,1559.367563,S,04802.614850,W,000.0,,190922,,,A*70
$GPGGA,185834.44,1559.367495,S,04802.614858,W,1,00,    ,1201.32,M,0.0,M,0.0,0000*59
$GPGSV,3,1,11,2,50,166,30.6,5,46,090,40.1,11,07,143,30.5,12,59,084,33.5*72
$GPGSV,3,2,11,18,46,296,35.3,20,21,129,35.6,23,10,344,21.6,24,20,003,27.1*75
$GPGSV,3,3,11,25,66,181,34.3,29,37,205,29.5,31,11,230,23.6*5E
$GPRMC,185834.44,A,1559.367495,S,04802.614858,W,000.0,,190922,,,A*77
$GPGGA,185835.44,1559.367604,S,04802.614978,W,1,00,    ,1201.37,M,0.0,M,0.0,0000*54
$GPGSV,3,1,12,2,50,166,31.3,5,46,090,40.3,11,07,143,31.1,12,59,084,34.2*72
$GPGSV,3,2,12,15,07,034,18.7,18,46,296,35.4,20,21,129,35.3,23,10,344,21.3*78
$GPGSV,3,3,12,24,20,003,27.3,25,66,181,33.8,29,37,205,30.9,31,11,230,23.4*78
$GPRMC,185835.44,A,1559.367604,S,04802.614978,W,000.1,,190922,,,A*7E
$GPGGA,185836.44,1559.367743,S,04802.614953,W,1,00,    ,1201.63,M,0.0,M,0.0,0000*5D
$GPGSV,3,1,12,2,50,166,29.7,5,46,090,39.8,11,07,143,30.2,12,59,084,34.9*73
$GPGSV,3,2,12,15,07,034,22.0,18,46,296,34.8,20,21,129,36.5,23,10,344,20.9*75
$GPGSV,3,3,12,24,20,003,27.1,25,66,181,33.7,29,37,205,31.0,31,11,230,22.5*7D
$GPRMC,185836.44,A,1559.367743,S,04802.614953,W,000.1,,190922,,,A*76
$GPGGA,185837.44,1559.367743,S,04802.615059,W,1,00,    ,1201.32,M,0.0,M,0.0,0000*5A
$GPGSV,3,1,11,2,50,166,29.9,5,46,090,40.4,11,07,143,29.0,12,59,084,33.7*7F
$GPGSV,3,2,11,18,46,296,35.2,20,21,129,36.9,23,10,344,23.7,24,20,003,27.2*78
$GPGSV,3,3,11,25,66,181,34.1,29,37,205,31.6,31,11,230,23.9*59
$GPRMC,185837.44,A,1559.367743,S,04802.615059,W,000.0,,190922,,,A*74
$GPGGA,185838.44,1559.367770,S,04802.615115,W,1,00,    ,1201.21,M,0.0,M,0.0,0000*5E
$GPGSV,3,1,12,2,50,166,29.4,5,46,090,39.8,11,07,143,27.4,12,59,084,34.1*78
$GPGSV,3,2,12,15,07,034,18.9,18,46,296,34.7,20,21,129,36.8,23,10,344,22.8*74
$GPGSV,3,3,12,24,20,003,26.6,25,66,181,34.3,29,37,205,31.0,31,11,230,24.0*7B
$GPRMC,185838.44,A,1559.367770,S,04802.615115,W,000.1,,190922,,,A*73
$GPGGA,185839.44,1559.367845,S,04802.615168,W,1,00,    ,1201.34,M,0.0,M,0.0,0000*58
$GPGSV,3,1,12,2,50,166,29.1,5,46,090,39.9,11,07,143,27.6,12,59,084,34.0*7F
$GPGSV,3,2,12,15,07,034,18.8,18,46,296,34.9,20,21,129,37.1,23,10,344,24.3*7E
$GPGSV,3,3,12,24,20,003,26.0,25,66,181,34.5,29,37,205,30.7,31,11,230,24.4*79
$GPRMC,185839.44,A,1559.367845,S,04802.615168,W,000.1,,190922,,,A*71
$GPGGA,185840.44,1559.367685,S,04802.615183,W,1,00,    ,1201.10,M,0.0,M,0.0,0000*57
$GPGSV,3,1,12,2,50,166,30.2,5,46,090,40.2,11,07,143,29.1,12,59,084,33.9*76
$GPGSV,3,2,12,15,07,034,17.1,18,46,296,35.1,20,21,129,36.9,23,10,344,21.9*77
$GPGSV,3,3,12,24,20,003,25.3,25,66,181,34.2,29,37,205,31.2,31,11,230,24.1*7F
$GPRMC,185840.44,A,1559.367685,S,04802.615183,W,000.1,,190922,,,A*78
$GPGGA,185841.44,1559.367529,S,04802.615084,W,1,00,    ,1201.17,M,0.0,M,0.0,0000*52
$GPGSV,3,1,12,2,50,166,29.5,5,46,090,40.0,11,07,143,27.5,12,59,084,33.4*7C
$GPGSV,3,2,12,15,07,034,18.5,18,46,296,34.9,20,21,129,36.9,23,10,344,22.5*7A
$GPGSV,3,3,12,24,20,003,25.3,25,66,181,34.3,29,37,205,30.7,31,11,230,24.7*7C
$GPRMC,185841.44,A,1559.367529,S,04802.615084,W,000.0,,190922,,,A*7B
$GPGGA,185842.44,1559.367398,S,04802.615027,W,1,00,    ,1201.15,M,0.0,M,0.0,0000*56
$GPGSV,3,1,12,2,50,166,28.4,5,46,090,40.1,11,07,143,27.7,12,59,084,33.3*78
$GPGSV,3,2,12,15,07,034,20.0,18,46,296,35.1,20,21,129,36.7,23,10,344,23.3*74
$GPGSV,3,3,12,24,20,003,25.9,25,66,181,34.4,29,37,205,30.3,31,11,230,25.3*70
$GPRMC,185842.44,A,1559.367398,S,04802.615027,W,000.1,,190922,,,A*7C
$GPGGA,185843.44,1559.367341,S,04802.615010,W,1,00,    ,1201.13,M,0.0,M,0.0,0000*51
$GPGSV,3,1,12,2,50,166,29.8,5,46,090,39.2,11,07,143,27.2,12,59,084,34.6*7F
$GPGSV,3,2,12,15,08,034,19.2,18,46,296,35.0,20,21,129,37.4,23,10,344,22.0*72
$GPGSV,3,3,12,24,20,003,26.2,25,66,181,34.1,29,37,205,30.0,31,11,230,24.4*78
$GPRMC,185843.44,A,1559.367341,S,04802.615010,W,000.0,,190922,,,A*7C
$GPGGA,185844.44,1559.367241,S,04802.615088,W,1,00,    ,1201.01,M,0.0,M,0.0,0000*55
$GPGSV,3,1,12,2,50,166,29.7,5,46,090,40.2,11,07,143,28.8,12,59,084,34.4*79
$GPGSV,3,2,12,15,08,034,19.3,18,46,296,35.0,20,21,129,37.2,23,10,344,22.6*73
$GPGSV,3,3,12,24,20,003,26.9,25,66,181,35.0,29,37,205,30.2,31,11,230,23.5*77
$GPRMC,185844.44,A,1559.367241,S,04802.615088,W,000.0,,190922,,,A*7B
$GPGGA,185845.44,1559.367113,S,04802.615044,W,1,00,    ,1200.96,M,0.0,M,0.0,0000*5F
$GPGSV,3,1,12,2,50,166,29.7,5,46,090,40.1,11,07,143,28.7,12,59,084,34.2*73
$GPGSV,3,2,12,15,08,034,17.6,18,46,296,34.9,20,21,129,37.1,23,10,344,23.2*76
$GPGSV,3,3,12,24,20,003,26.1,25,66,181,34.9,29,37,205,30.1,31,12,230,22.2*71
$GPRMC,185845.44,A,1559.367113,S,04802.615044,W,000.1,,190922,,,A*7F
$GPGGA,185846.44,1559.366994,S,04802.615106,W,1,00,    ,1200.69,M,0.0,M,0.0,0000*5D
$GPGSV,3,1,12,2,50,166,29.5,5,46,090,40.4,11,07,143,28.2,12,59,084,34.7*74
$GPGSV,3,2,12,15,08,034,17.6,18,46,296,35.1,20,21,129,37.0,23,10,344,23.6*7A
$GPGSV,3,3,12,24,20,003,26.0,25,66,180,35.0,29,37,205,30.1,31,12,230,22.9*72
$GPRMC,185846.44,A,1559.366994,S,04802.615106,W,000.1,,190922,,,A*7D
$GPGGA,185847.44,1559.366907,S,04802.615177,W,1,00,    ,1200.57,M,0.0,M,0.0,0000*5D
$GPGSV,3,1,11,2,50,166,30.0,5,46,090,40.4,11,07,143,27.9,12,59,084,34.8*71
$GPGSV,3,2,11,18,46,296,34.8,20,21,129,37.0,23,10,344,22.7,24,20,003,25.9*73
$GPGSV,3,3,11,25,66,180,34.9,29,37,205,30.0,31,12,230,23.4*59
$GPRMC,185847.44,A,1559.366907,S,04802.615177,W,000.0,,190922,,,A*71
$GPGGA,185848.44,1559.366874,S,04802.615193,W,1,00,    ,1200.53,M,0.0,M,0.0,0000*59
$GPGSV,3,1,12,2,50,166,29.8,5,46,090,40.4,11,07,143,28.5,12,59,084,35.0*78
$GPGSV,3,2,12,15,08,034,17.6,18,46,296,35.0,20,21,129,36.9,23,10,344,23.6*73
$GPGSV,3,3,12,24,20,003,26.3,25,66,180,34.9,29,37,205,30.1,31,12,230,22.4*74
$GPRMC,185848.44,A,1559.366874,S,04802.615193,W,000.1,,190922,,,A*70
$GPGGA,185849.44,1559.366803,S,04802.615237,W,1,00,    ,1200.43,M,0.0,M,0.0,0000*54
$GPGSV,3,1,12,2,50,166,29.7,5,46,090,40.3,11,07,143,28.3,12,59,084,34.7*70
$GPGSV,3,2,12,15,08,034,20.5,18,46,296,35.3,20,21,129,36.9,23,10,344,22.0*70
$GPGSV,3,3,12,24,20,003,25.8,25,66,180,34.9,29,37,205,30.2,31,12,230,22.0*7B
$GPRMC,185849.44,A,1559.366803,S,04802.615237,W,000.0,,190922,,,A*7D
$GPGGA,185850.44,1559.366837,S,04802.615169,W,1,00,    ,1200.32,M,0.0,M,0.0,0000*55
$GPGSV,3,1,12,2,50,166,29.9,5,46,090,40.4,11,07,143,27.8,12,59,084,34.7*7D
$GPGSV,3,2,12,15,08,034,20.9,18,46,296,35.1,20,21,129,36.8,23,10,344,24.0*79
$GPGSV,3,3,12,24,20,003,25.6,25,66,180,34.7,29,37,205,30.6,31,12,230,23.3*7D
$GPRMC,185850.44,A,1559.366837,S,04802.615169,W,000.0,,190922,,,A*7A
$GPGGA,185851.44,1559.366833,S,04802.615195,W,1,00,    ,1200.08,M,0.0,M,0.0,0000*5A
$GPGSV,3,1,12,2,50,166,29.9,5,46,090,40.1,11,07,143,28.5,12,59,084,35.0*7C
$GPGSV,3,2,12,15,08,034,18.2,18,46,296,34.9,20,21,129,36.5,23,10,344,23.4*7E
$GPGSV,3,3,12,24,20,003,25.7,25,66,180,35.0,29,37,205,29.8,31,12,230,22.7*79
$GPRMC,185851.44,A,1559.366833,S,04802.615195,W,000.0,,190922,,,A*7C
$GPGGA,185852.44,1559.366919,S,04802.615208,W,1,00,    ,1199.88,M,0.0,M,0.0,0000*5C
$GPGSV,3,1,12,2,50,166,30.2,5,46,090,40.3,11,07,143,28.6,12,59,084,34.7*78
$GPGSV,3,2,12,15,08,034,18.2,18,46,296,35.0,20,21,129,36.5,23,10,344,23.4*76
$GPGSV,3,3,12,24,20,003,25.3,25,66,180,35.1,29,37,205,30.3,31,12,230,22.5*7D
$GPRMC,185852.44,A,1559.366919,S,04802.615208,W,000.0,,190922,,,A*71
$GPGGA,185853.44,1559.366923,S,04802.615262,W,1,00,    ,1199.73,M,0.0,M,0.0,0000*5C
$GPGSV,3,1,11,2,50,166,29.7,5,46,090,40.1,11,07,143,27.9,12,59,084,34.7*74
$GPGSV,3,2,11,18,46,296,35.2,20,21,129,36.7,23,10,344,23.4,24,20,003,25.2*77
$GPGSV,3,3,11,25,66,180,34.9,29,37,205,30.4,31,12,230,21.8*53
$GPRMC,185853.44,A,1559.366923,S,04802.615262,W,000.0,,190922,,,A*75
$GPGGA,185854.44,1559.366862,S,04802.615219,W,1,00,    ,1199.55,M,0.0,M,0.0,0000*57
$GPGSV,3,1,12,2,50,166,29.6,5,46,090,40.2,11,07,143,28.1,12,59,084,34.7*72
$GPGSV,3,2,12,15,08,034,17.9,18,46,296,35.4,20,21,129,36.3,23,10,344,23.6*72
$GPGSV,3,3,12,24,20,003,25.9,25,66,180,34.8,29,37,205,30.1,31,12,230,22.8*70
$GPRMC,185854.44,A,1559.366862,S,04802.615219,W,000.1,,190922,,,A*7B
$GPGGA,185855.44,1559.366787,S,04802.615208,W,1,00,    ,1199.23,M,0.0,M,0.0,0000*53
$GPGSV,3,1,11,2,50,166,29.8,5,46,090,40.3,11,07,143,28.0,12,59,084,34.7*7F
$GPGSV,3,2,11,18,46,296,35.2,20,21,129,36.7,23,10,344,24.2,24,20,003,25.2*76
$GPGSV,3,3,11,25,66,180,34.7,29,37,205,30.3,31,12,230,21.3*51
$GPRMC,185855.44,A,1559.366787,S,04802.615208,W,000.1,,190922,,,A*7E
$GPGGA,185856.44,1559.366808,S,04802.615316,W,1,00,    ,1199.27,M,0.0,M,0.0,0000*52
$GPGSV,3,1,11,2,50,166,29.6,5,46,090,40.1,11,07,143,27.8,12,59,084,34.4*77
$GPGSV,3,2,11,18,46,296,35.0,20,21,129,36.4,23,10,344,23.3,24,20,003,24.4*76
$GPGSV,3,3,11,25,66,180,34.7,29,37,205,30.0,31,12,230,21.2*53
$GPRMC,185856.44,A,1559.366808,S,04802.615316,W,000.1,,190922,,,A*7B
$GPGGA,185857.44,1559.366759,S,04802.615367,W,1,00,    ,1199.18,M,0.0,M,0.0,0000*52
$GPGSV,3,1,12,2,50,166,30.5,5,46,090,40.0,11,07,143,27.3,12,59,084,34.2*73
$GPGSV,3,2,12,15,08,034,15.4,18,46,296,34.0,20,21,129,36.3,23,10,344,23.1*7F
$GPGSV,3,3,12,24,20,003,25.2,25,66,180,35.0,29,37,205,29.3,31,12,230,22.4*74
$GPRMC,185857.44,A,1559.366759,S,04802.615367,W,000.0,,190922,,,A*76
$GPGGA,185858.44,1559.366758,S,04802.615462,W,1,00,    ,1199.11,M,0.0,M,0.0,0000*57
$GPGSV,3,1,12,2,50,166,30.6,5,46,090,39.9,11,07,143,27.3,12,59,084,33.5*77
$GPGSV,3,2,12,15,08,034,17.9,18,46,296,33.3,20,21,129,36.8,23,10,344,22.7*78
$GPGSV,3,3,12,24,20,003,23.8,25,66,180,35.2,29,37,205,29.1,31,12,230,22.7*7B
$GPRMC,185858.44,A,1559.366758,S,04802.615462,W,000.0,,190922,,,A*7A
$GPGGA,185859.44,1559.366792,S,04802.615541,W,1,00,    ,1198.94,M,0.0,M,0.0,0000*5C
$GPGSV,3,1,11,2,50,166,30.6,5,46,090,40.2,11,07,143,27.1,12,59,084,33.6*70
$GPGSV,3,2,11,18,46,296,33.2,20,21,129,37.0,23,10,344,21.9,24,20,003,24.4*7F
$GPGSV,3,3,11,25,66,180,35.2,29,37,205,28.6,31,12,230,23.8*50
$GPRMC,185859.44,A,1559.366792,S,04802.615541,W,000.0,,190922,,,A*7D
$GPGGA,185900.44,1559.366812,S,04802.615669,W,1,00,    ,1198.79,M,0.0,M,0.0,0000*5C
$GPGSV,3,1,11,2,50,166,30.9,5,46,090,40.0,11,07,143,27.4,12,59,084,33.7*79
$GPGSV,3,2,11,18,46,296,33.2,20,21,129,36.9,23,10,344,22.8,24,20,003,25.1*71
$GPGSV,3,3,11,25,66,180,35.4,29,37,205,28.3,31,12,230,24.3*5F
$GPRMC,185900.44,A,1559.366812,S,04802.615669,W,000.0,,190922,,,A*7E
$GPGGA,185901.44,1559.366818,S,04802.615608,W,1,00,    ,1198.75,M,0.0,M,0.0,0000*5C
$GPGSV,3,1,12,2,49,166,30.4,5,46,090,39.6,11,07,143,26.8,12,59,084,33.2*7F
$GPGSV,3,2,12,15,08,034,17.7,18,46,296,32.7,20,21,129,36.8,23,10,344,22.6*72
$GPGSV,3,3,12,24,20,003,25.6,25,66,180,34.7,29,37,205,29.1,31,12,230,24.8*7E
$GPRMC,185901.44,A,1559.366818,S,04802.615608,W,000.1,,190922,,,A*73
$GPGGA,185902.44,1559.366747,S,04802.615546,W,1,00,    ,1198.87,M,0.0,M,0.0,0000*5E
$GPGSV,3,1,12,2,49,166,30.2,5,46,090,40.2,11,07,143,26.2,12,59,084,34.0*7C
$GPGSV,3,2,12,15,08,034,20.7,18,46,296,33.5,20,21,129,36.2,23,10,344,23.4*7C
$GPGSV,3,3,12,24,20,003,25.1,25,66,180,35.2,29,37,205,28.7,31,12,230,24.5*77
$GPRMC,185902.44,A,1559.366747,S,04802.615546,W,000.0,,190922,,,A*7D
$GPGGA,185903.44,1559.366767,S,04802.615571,W,1,00,    ,1198.91,M,0.0,M,0.0,0000*5E
$GPGSV,3,1,11,2,49,166,31.0,5,46,090,40.2,11,07,143,27.5,12,59,083,34.2*7F
$GPGSV,3,2,11,18,46,296,33.5,20,21,129,34.9,23,10,344,24.1,24,20,003,25.4*7E
$GPGSV,3,3,11,25,67,180,35.7,29,37,205,28.6,31,12,230,24.3*58
$GPRMC,185903.44,A,1559.366767,S,04802.615571,W,000.0,,190922,,,A*7A
$GPGGA,185904.44,1559.366802,S,04802.615701,W,1,00,    ,1198.90,M,0.0,M,0.0,0000*51
$GPGSV,3,1,12,2,49,166,30.2,5,46,090,40.7,11,07,143,28.9,12,59,083,34.7*7C
$GPGSV,3,2,12,15,08,034,17.0,18,46,296,34.1,20,21,129,35.4,23,10,344,24.1*7B
$GPGSV,3,3,12,24,20,003,26.0,25,67,180,36.0,29,37,205,27.5,31,12,230,23.5*7F
$GPRMC,185904.44,A,1559.366802,S,04802.615701,W,000.3,,190922,,,A*77
$GPGGA,185905.44,1559.366787,S,04802.615669,W,1,00,    ,1198.91,M,0.0,M,0.0,0000*5C
$GPGSV,3,1,11,2,49,166,29.8,5,46,090,40.9,11,07,143,28.5,12,59,083,35.5*7C
$GPGSV,3,2,11,18,46,296,35.2,20,21,129,34.7,23,10,344,25.9,24,20,003,25.6*7A
$GPGSV,3,3,11,25,67,180,35.9,29,37,205,28.4,31,12,230,22.2*53
$GPRMC,185905.44,A,1559.366787,S,04802.615669,W,000.0,,190922,,,A*78
$GPGGA,185906.44,1559.366821,S,04802.615820,W,1,00,    ,1198.78,M,0.0,M,0.0,0000*58
$GPGSV,3,1,11,2,49,166,29.9,5,46,091,40.8,11,07,143,27.0,12,59,083,35.8*7A
$GPGSV,3,2,11,18,46,296,35.5,20,21,129,34.3,23,10,344,25.3,24,20,003,26.7*71
$GPGSV,3,3,11,25,67,180,35.8,29,37,205,28.0,31,12,230,22.4*50
$GPRMC,185906.44,A,1559.366821,S,04802.615820,W,000.0,,190922,,,A*7B
$GPGGA,185907.44,1559.366830,S,04802.615807,W,1,00,    ,1198.70,M,0.0,M,0.0,0000*54
$GPGSV,3,1,12,2,49,166,30.3,5,46,091,40.6,11,07,143,27.2,12,59,083,36.0*7C
$GPGSV,3,2,12,15,08,034,16.5,18,46,296,35.3,20,21,129,34.4,23,10,344,25.3*7E
$GPGSV,3,3,12,24,20,003,26.3,25,67,180,35.8,29,37,205,28.3,31,12,230,23.3*78
$GPRMC,185907.44,A,1559.366830,S,04802.615807,W,000.0,,190922,,,A*7F
$GPGGA,185908.44,1559.366859,S,04802.615884,W,1,00,    ,1198.73,M,0.0,M,0.0,0000*5C
$GPGSV,3,1,11,2,49,166,29.7,5,46,091,40.7,11,07,143,27.3,12,59,083,36.0*73
$GPGSV,3,2,11,18,46,296,35.7,20,21,129,34.7,23,10,344,25.6,24,20,003,25.7*71
$GPGSV,3,3,11,25,67,180,35.9,29,37,205,28.3,31,12,230,24.2*52
$GPRMC,185908.44,A,1559.366859,S,04802.615884,W,000.0,,190922,,,A*74
$GPGGA,185909.44,1559.366724,S,04802.615777,W,1,00,    ,1198.77,M,0.0,M,0.0,0000*5F
$GPGSV,3,1,12,2,49,166,30.3,5,46,091,40.5,11,07,143,26.8,12,59,083,35.6*71
$GPGSV,3,2,12,15,08,034,17.3,18,46,296,35.7,20,21,129,34.6,23,10,344,25.9*75
$GPGSV,3,3,12,24,20,003,26.6,25,67,180,36.0,29,37,205,28.8,31,12,230,22.8*77
$GPRMC,185909.44,A,1559.366724,S,04802.615777,W,000.0,,190922,,,A*73
$GPGGA,185910.44,1559.366756,S,04802.615737,W,1,00,    ,1198.80,M,0.0,M,0.0,0000*5E
$GPGSV,3,1,12,2,49,166,30.2,5,46,091,40.1,11,07,143,27.2,12,59,083,35.1*78
$GPGSV,3,2,12,15,08,034,18.1,18,46,296,35.1,20,21,129,34.3,23,10,344,25.9*7B
$GPGSV,3,3,12,24,20,003,26.6,25,67,180,36.0,29,37,205,28.5,31,12,230,23.6*75
$GPRMC,185910.44,A,1559.366756,S,04802.615737,W,000.0,,190922,,,A*7A
$GPGGA,185911.44,1559.366654,S,04802.615691,W,1,00,    ,1198.92,M,0.0,M,0.0,0000*52
$GPGSV,3,1,12,2,49,166,33.7,5,46,091,37.0,11,07,143,19.5,12,59,083,32.8*7B
$GPGSV,3,2,12,15,08,034,18.8,18,46,296,33.7,20,21,129,33.1,23,10,344,27.6*7A
$GPGSV,3,3,12,24,20,003,26.3,25,67,180,35.2,29,37,205,27.1,31,12,230,20.5*7A
$GPRMC,185911.44,A,1559.366654,S,04802.615691,W,000.3,,190922,,,A*76
$GPGGA,185912.44,1559.366541,S,04802.615788,W,1,00,    ,1198.94,M,0.0,M,0.0,0000*59
$GPGSV,3,1,11,2,49,166,29.0,5,46,091,40.0,11,07,143,26.3,12,59,083,35.0*71
$GPGSV,3,2,11,18,46,296,35.0,20,21,129,34.1,23,10,344,24.6,24,20,003,25.3*75
$GPGSV,3,3,11,25,67,180,35.2,29,37,205,30.6,31,12,230,23.5*55
$GPRMC,185912.44,A,1559.366541,S,04802.615788,W,000.1,,190922,,,A*79
$GPGGA,185913.44,1559.366343,S,04802.615771,W,1,00,    ,1199.05,M,0.0,M,0.0,0000*53
$GPGSV,3,1,12,2,49,166,30.0,5,46,091,36.2,11,07,143,29.3,12,59,083,26.3*77
$GPGSV,3,2,12,15,08,034,18.5,18,46,296,35.5,20,21,129,34.3,23,10,344,27.1*71
$GPGSV,3,3,12,24,20,003,25.6,25,67,180,34.2,29,37,205,31.3,31,12,230,27.9*73
$GPRMC,185913.44,A,1559.366343,S,04802.615771,W,000.1,,190922,,,A*7A
$GPGGA,185914.44,1559.366181,S,04802.615719,W,1,00,    ,1199.13,M,0.0,M,0.0,0000*51
$GPGSV,3,1,12,2,49,166,29.9,5,46,091,36.2,11,07,143,29.3,12,59,083,25.7*71
$GPGSV,3,2,12,15,08,034,20.3,18,46,296,35.5,20,21,129,34.1,23,10,344,27.1*7E
$GPGSV,3,3,12,24,20,003,25.9,25,67,180,33.8,29,37,205,31.7,31,12,230,28.7*74
$GPRMC,185914.44,A,1559.366181,S,04802.615719,W,000.0,,190922,,,A*7E
$GPGGA,185915.44,1559.366126,S,04802.615688,W,1,00,    ,1199.26,M,0.0,M,0.0,0000*52
$GPGSV,3,1,12,2,49,166,30.7,5,46,091,37.1,11,07,143,28.9,12,59,083,27.8*73
$GPGSV,3,2,12,15,08,034,18.1,18,46,296,36.0,20,21,129,37.8,23,10,344,27.9*73
$GPGSV,3,3,12,24,20,003,27.4,25,67,180,35.0,29,37,204,30.4,31,12,230,23.6*7C
$GPRMC,185915.44,A,1559.366126,S,04802.615688,W,000.0,,190922,,,A*7B
$GPGGA,185916.44,1559.366059,S,04802.615683,W,1,00,    ,1199.23,M,0.0,M,0.0,0000*56
$GPGSV,3,1,12,2,49,166,29.8,5,46,091,38.1,11,07,143,28.0,12,59,083,32.2*7C
$GPGSV,3,2,12,15,08,034,20.2,18,46,296,35.7,20,21,129,38.7,23,10,344,25.0*74
$GPGSV,3,3,12,24,20,003,28.4,25,67,180,35.5,29,37,204,32.1,31,12,230,23.4*73
$GPRMC,185916.44,A,1559.366059,S,04802.615683,W,000.1,,190922,,,A*7B
$GPGGA,185917.44,1559.366056,S,04802.615609,W,1,00,    ,1199.09,M,0.0,M,0.0,0000*52
$GPGSV,3,1,11,2,49,166,30.1,5,46,091,39.7,11,06,143,31.2,12,59,083,35.3*74
$GPGSV,3,2,11,18,46,296,35.7,20,21,129,35.5,23,10,344,26.5,24,20,003,26.6*70
$GPGSV,3,3,11,25,67,180,35.1,29,37,204,30.7,31,12,230,26.3*55
$GPRMC,185917.44,A,1559.366056,S,04802.615609,W,000.0,,190922,,,A*76
$GPGGA,185918.44,1559.365975,S,04802.615435,W,1,00,    ,1199.09,M,0.0,M,0.0,0000*5B
$GPGSV,3,1,12,2,49,166,30.7,5,46,091,40.6,11,06,143,31.5,12,59,083,35.2*78
$GPGSV,3,2,12,15,08,034,17.5,18,46,296,35.6,20,21,129,35.6,23,10,344,25.3*79
$GPGSV,3,3,12,24,20,003,24.9,25,67,180,35.3,29,37,204,31.2,31,12,230,25.3*75
$GPRMC,185918.44,A,1559.365975,S,04802.615435,W,000.1,,190922,,,A*7E
$GPGGA,185919.44,1559.365806,S,04802.615332,W,1,00,    ,1199.17,M,0.0,M,0.0,0000*50
$GPGSV,3,1,11,2,49,166,31.2,5,46,091,39.6,11,06,143,27.0,12,59,083,35.4*75
$GPGSV,3,2,11,18,46,296,34.7,20,21,129,37.7,23,10,344,24.7,24,20,003,25.0*74
$GPGSV,3,3,11,25,67,180,35.7,29,37,204,32.0,31,12,230,24.4*53
$GPRMC,185919.44,A,1559.365806,S,04802.615332,W,000.1,,190922,,,A*7A
$GPGGA,185920.44,1559.365794,S,04802.615306,W,1,00,    ,1198.99,M,0.0,M,0.0,0000*5E
$GPGSV,3,1,12,2,49,166,30.5,5,46,091,39.9,11,06,143,28.5,12,59,083,35.4*75
$GPGSV,3,2,12,15,08,034,17.9,18,46,296,35.4,20,21,129,37.5,23,10,344,27.2*75
$GPGSV,3,3,12,24,20,003,26.7,25,67,180,35.5,29,37,204,32.1,31,12,230,23.6*7C
$GPRMC,185920.44,A,1559.365794,S,04802.615306,W,000.0,,190922,,,A*72
$GPGGA,185921.44,1559.365697,S,04802.615311,W,1,00,    ,1198.85,M,0.0,M,0.0,0000*56
$GPGSV,3,1,12,2,49,166,30.9,5,46,091,39.2,11,06,143,28.7,12,59,083,35.3*77
$GPGSV,3,2,12,15,08,034,20.6,18,46,296,35.5,20,21,129,37.9,23,10,344,26.1*71
$GPGSV,3,3,12,24,20,003,26.6,25,67,180,35.2,29,37,204,31.7,31,12,230,22.9*71
$GPRMC,185921.44,A,1559.365697,S,04802.615311,W,000.1,,190922,,,A*76
$GPGGA,185922.44,1559.365655,S,04802.615318,W,1,00,    ,1198.84,M,0.0,M,0.0,0000*53
$GPGSV,3,1,12,2,49,166,30.3,5,46,091,40.7,11,06,143,27.9,12,59,083,34.9*7C
$GPGSV,3,2,12,15,08,034,21.0,18,46,295,34.7,20,21,129,34.0,23,10,344,24.1*7E
$GPGSV,3,3,12,24,20,003,26.0,25,67,180,34.9,29,37,204,31.6,31,12,230,24.6*75
$GPRMC,185922.44,A,1559.365655,S,04802.615318,W,000.0,,190922,,,A*73
$GPGGA,185923.44,1559.365651,S,04802.615385,W,1,00,    ,1198.78,M,0.0,M,0.0,0000*51
$GPGSV,3,1,12,2,49,166,31.1,5,46,091,40.6,11,06,143,27.9,12,59,083,34.6*71
$GPGSV,3,2,12,15,08,034,19.6,18,46,295,35.0,20,21,129,33.9,23,10,344,24.4*7E
$GPGSV,3,3,12,24,20,003,26.7,25,67,180,35.3,29,37,204,31.9,31,12,230,23.8*7F
$GPRMC,185923.44,A,1559.365651,S,04802.615385,W,000.1,,190922,,,A*73
$GPGGA,185924.44,1559.365644,S,04802.615389,W,1,00,    ,1198.73,M,0.0,M,0.0,0000*55
$GPGSV,3,1,12,2,49,166,30.3,5,46,091,39.9,11,06,143,28.9,12,59,083,36.2*7A
$GPGSV,3,2,12,15,08,034,18.0,18,46,295,35.1,20,21,129,35.5,23,10,344,23.1*70
$GPGSV,3,3,12,24,20,003,26.4,25,67,180,34.6,29,37,204,32.3,31,12,230,22.9*71
$GPRMC,185924.44,A,1559.365644,S,04802.615389,W,000.1,,190922,,,A*7C
$GPGGA,185925.44,1559.365623,S,04802.615285,W,1,00,    ,1198.77,M,0.0,M,0.0,0000*5C
$GPGSV,3,1,11,2,49,166,30.3,5,46,091,39.3,11,06,143,27.3,12,59,083,35.7*70
$GPGSV,3,2,11,18,46,295,35.5,20,21,129,37.1,23,10,344,25.4,24,20,003,25.7*77
$GPGSV,3,3,11,25,67,180,34.9,29,37,204,31.4,31,12,230,22.2*5B
$GPRMC,185925.44,A,1559.365623,S,04802.615285,W,000.0,,190922,,,A*70
$GPGGA,185926.44,1559.365510,S,04802.615171,W,1,00,    ,1198.75,M,0.0,M,0.0,0000*56
$GPGSV,3,1,12,2,49,166,31.3,5,46,091,39.7,11,06,143,30.5,12,59,083,36.3*71
$GPGSV,3,2,12,15,08,034,16.2,18,46,295,35.8,20,21,129,35.5,23,10,344,24.9*7A
$GPGSV,3,3,12,24,20,003,25.4,25,67,180,34.9,29,37,204,31.5,31,12,230,24.2*75
$GPRMC,185926.44,A,1559.365510,S,04802.615171,W,000.1,,190922,,,A*79
$GPGGA,185927.44,1559.365501,S,04802.615126,W,1,00,    ,1198.87,M,0.0,M,0.0,0000*58
$GPGSV,3,1,12,2,49,166,31.3,5,46,091,39.9,11,06,143,30.9,12,59,083,36.2*72
$GPGSV,3,2,12,15,08,034,19.2,18,46,295,35.8,20,21,129,35.1,23,10,344,25.0*79
$GPGSV,3,3,12,24,20,003,26.1,25,67,180,34.6,29,37,204,31.7,31,12,230,23.6*7D
$GPRMC,185927.44,A,1559.365501,S,04802.615126,W,000.0,,190922,,,A*7B
$GPGGA,185928.44,1559.365577,S,04802.615164,W,1,00,    ,1198.84,M,0.0,M,0.0,0000*53
$GPGSV,3,1,12,2,49,166,31.4,5,46,091,39.8,11,06,143,31.3,12,59,083,36.7*7A
$GPGSV,3,2,12,15,08,034,18.7,18,46,295,35.7,20,21,129,34.6,23,10,344,25.1*75
$GPGSV,3,3,12,24,20,003,26.0,25,67,180,34.4,29,37,204,31.8,31,12,230,24.6*76
$GPRMC,185928.44,A,1559.365577,S,04802.615164,W,000.1,,190922,,,A*72
$GPGGA,185929.44,1559.365675,S,04802.615311,W,1,00,    ,1198.74,M,0.0,M,0.0,0000*5C
$GPGSV,3,1,12,2,49,166,31.1,5,46,091,39.9,11,06,143,31.4,12,59,083,36.5*7B
$GPGSV,3,2,12,15,08,034,20.8,18,46,295,35.6,20,21,129,34.3,23,10,344,25.0*74
$GPGSV,3,3,12,24,20,003,26.9,25,67,180,34.4,29,37,204,31.4,31,12,230,23.3*71
$GPRMC,185929.44,A,1559.365675,S,04802.615311,W,000.0,,190922,,,A*73
$GPGGA,185930.44,1559.365872,S,04802.615458,W,1,00,    ,1198.72,M,0.0,M,0.0,0000*51
$GPGSV,3,1,12,2,49,166,31.0,5,46,091,39.7,11,06,143,32.3,12,59,083,37.1*75
$GPGSV,3,2,12,15,08,034,19.2,18,46,295,35.2,20,21,129,33.1,23,10,344,25.7*72
$GPGSV,3,3,12,24,20,003,27.3,25,67,180,35.2,29,37,204,30.2,31,12,230,22.1*79
$GPRMC,185930.44,A,1559.365872,S,04802.615458,W,000.0,,190922,,,A*78
$GPGGA,185931.44,1559.366061,S,04802.615448,W,1,00,    ,1198.73,M,0.0,M,0.0,0000*59
$GPGSV,3,1,12,2,49,166,30.6,5,46,091,39.5,11,06,143,31.6,12,59,083,37.2*75
$GPGSV,3,2,12,15,08,034,19.7,18,46,295,35.5,20,21,129,33.1,23,10,344,25.5*72
$GPGSV,3,3,12,24,20,003,27.8,25,67,180,35.1,29,37,204,29.6,31,12,230,22.1*7D
$GPRMC,185931.44,A,1559.366061,S,04802.615448,W,000.0,,190922,,,A*71
$GPGGA,185932.44,1559.366185,S,04802.615401,W,1,00,    ,1198.76,M,0.0,M,0.0,0000*59
$GPGSV,3,1,12,2,49,166,30.2,5,46,091,39.5,11,06,143,31.8,12,59,083,36.9*75
$GPGSV,3,2,12,15,08,034,22.3,18,46,295,35.5,20,21,129,32.8,23,10,344,24.4*76
$GPGSV,3,3,12,24,20,003,26.7,25,67,180,35.0,29,37,204,29.1,31,12,230,21.6*71
$GPRMC,185932.44,A,1559.366185,S,04802.615401,W,000.0,,190922,,,A*74
$GPGGA,185933.44,1559.366302,S,04802.615316,W,1,00,    ,1198.89,M,0.0,M,0.0,0000*54
$GPGSV,3,1,12,2,49,166,28.8,5,46,091,40.3,11,06,143,30.0,12,59,083,35.9*74
$GPGSV,3,2,12,15,08,034,24.0,18,47,295,35.8,20,21,129,34.2,23,10,344,23.3*73
$GPGSV,3,3,12,24,20,003,25.8,25,67,180,35.0,29,37,204,31.9,31,12,230,23.4*7C
$GPRMC,185933.44,A,1559.366302,S,04802.615316,W,000.0,,190922,,,A*79
$GPGGA,185934.44,1559.366380,S,04802.615377,W,1,00,    ,1199.07,M,0.0,M,0.0,0000*59
$GPGSV,3,1,12,2,49,166,28.8,5,46,091,40.8,11,06,143,29.1,12,59,083,35.7*78
$GPGSV,3,2,12,15,08,034,24.1,18,47,295,36.2,20,21,129,35.4,23,10,344,22.0*7E
$GPGSV,3,3,12,24,20,003,26.1,25,67,180,34.8,29,37,204,32.4,31,12,230,25.0*73
$GPRMC,185934.44,A,1559.366380,S,04802.615377,W,000.0,,190922,,,A*73
$GPGGA,185935.44,1559.366509,S,04802.615353,W,1,00,    ,1199.30,M,0.0,M,0.0,0000*5D
$GPGSV,3,1,12,2,49,166,28.3,5,46,091,40.4,11,06,143,29.4,12,59,083,36.2*7C
$GPGSV,3,2,12,15,08,034,23.9,18,47,295,36.1,20,21,129,34.9,23,10,344,22.9*77
$GPGSV,3,3,12,24,20,003,26.7,25,67,180,34.9,29,37,204,32.6,31,12,230,25.6*70
$GPRMC,185935.44,A,1559.366509,S,04802.615353,W,000.0,,190922,,,A*73
$GPGGA,185936.44,1559.366391,S,04802.615283,W,1,00,    ,1199.17,M,0.0,M,0.0,0000*50
$GPGSV,3,1,12,2,49,166,28.9,5,46,091,40.4,11,06,143,29.4,12,59,083,36.1*75
$GPGSV,3,2,12,15,08,034,23.0,18,47,295,35.8,20,21,129,34.7,23,10,344,23.6*74
$GPGSV,3,3,12,24,20,003,26.0,25,67,180,35.0,29,37,204,32.1,31,12,230,25.9*77
$GPRMC,185936.44,A,1559.366391,S,04802.615283,W,000.1,,190922,,,A*7A
$GPGGA,185937.44,1559.366378,S,04802.615255,W,1,00,    ,1199.03,M,0.0,M,0.0,0000*58
$GPGSV,3,1,12,2,49,166,28.7,5,46,091,39.6,11,06,143,30.9,12,59,083,35.9*79
$GPGSV,3,2,12,15,08,034,23.5,18,47,295,35.8,20,21,129,34.0,23,10,344,26.7*72
$GPGSV,3,3,12,24,20,003,28.4,25,67,180,35.1,29,37,204,32.5,31,12,230,24.3*73
$GPRMC,185937.44,A,1559.366378,S,04802.615255,W,000.0,,190922,,,A*76
$GPGGA,185938.44,1559.366478,S,04802.615310,W,1,00,    ,1199.04,M,0.0,M,0.0,0000*57
$GPGSV,3,1,12,2,49,166,29.3,5,46,091,39.4,11,06,143,32.0,12,59,083,36.4*7B
$GPGSV,3,2,12,15,08,034,23.0,18,47,295,35.5,20,21,129,33.3,23,10,344,27.0*78
$GPGSV,3,3,12,24,20,003,27.8,25,67,180,35.3,29,37,204,30.7,31,12,230,24.1*70
$GPRMC,185938.44,A,1559.366478,S,04802.615310,W,000.0,,190922,,,A*7E
$GPGGA,185939.44,1559.366413,S,04802.615273,W,1,00,    ,1199.02,M,0.0,M,0.0,0000*59
$GPGSV,3,1,12,2,49,166,29.1,5,46,091,39.9,11,06,143,31.1,12,59,083,36.6*74
$GPGSV,3,2,12,15,08,034,23.6,18,47,295,35.6,20,21,129,34.1,23,10,344,27.0*78
$GPGSV,3,3,12,24,20,003,27.9,25,67,180,35.3,29,37,204,31.0,31,12,230,23.4*75
$GPRMC,185939.44,A,1559.366413,S,04802.615273,W,000.0,,190922,,,A*76
$GPGGA,185940.44,1559.366375,S,04802.615222,W,1,00,    ,1199.22,M,0.0,M,0.0,0000*56
$GPGSV,3,1,12,2,49,166,29.2,5,46,091,39.6,11,06,143,31.9,12,59,083,36.3*75
$GPGSV,3,2,12,15,08,034,22.9,18,47,295,35.7,20,21,129,34.1,23,10,344,27.3*74
$GPGSV,3,3,12,24,20,003,28.6,25,67,180,35.3,29,37,204,31.4,31,12,230,24.3*71
$GPRMC,185940.44,A,1559.366375,S,04802.615222,W,000.0,,190922,,,A*7B
$GPGGA,185941.44,1559.366333,S,04802.615232,W,1,00,    ,1199.32,M,0.0,M,0.0,0000*55
$GPGSV,3,1,12,2,49,166,29.5,5,46,091,39.6,11,06,143,31.7,12,59,083,35.9*75
$GPGSV,3,2,12,15,08,034,24.4,18,47,295,35.5,20,21,129,34.0,23,10,344,28.0*70
$GPGSV,3,3,12,24,20,003,29.3,25,67,180,35.2,29,37,204,31.3,31,12,230,23.4*73
$GPRMC,185941.44,A,1559.366333,S,04802.615232,W,000.0,,190922,,,A*79
$GPGGA,185942.44,1559.366320,S,04802.615072,W,1,00,    ,1199.48,M,0.0,M,0.0,0000*5F
$GPGSV,3,1,12,2,49,166,28.9,5,46,091,39.2,11,06,143,32.3,12,59,083,36.5*74
$GPGSV,3,2,12,15,08,034,24.3,18,47,295,35.3,20,21,129,33.7,23,10,344,27.5*7B
$GPGSV,3,3,12,24,20,003,28.2,25,67,180,35.4,29,37,204,30.8,31,12,230,22.7*7D
$GPRMC,185942.44,A,1559.366320,S,04802.615072,W,000.0,,190922,,,A*7E
$GPGGA,185943.44,1559.366325,S,04802.615050,W,1,00,    ,1199.45,M,0.0,M,0.0,0000*56
$GPGSV,3,1,12,2,49,166,30.0,5,46,091,39.2,11,06,143,31.7,12,59,083,36.3*75
$GPGSV,3,2,12,15,08,034,22.6,18,47,295,35.7,20,21,129,34.6,23,10,344,27.9*76
$GPGSV,3,3,12,24,20,003,29.2,25,67,180,35.4,29,37,204,30.9,31,12,230,22.5*7F
$GPRMC,185943.44,A,1559.366325,S,04802.615050,W,000.0,,190922,,,A*7A
$GPGGA,185944.44,1559.366234,S,04802.614985,W,1,00,    ,1199.48,M,0.0,M,0.0,0000*5D
$GPGSV,3,1,12,2,49,166,29.5,5,46,091,39.4,11,06,143,28.9,12,59,083,36.2*79
$GPGSV,3,2,12,15,08,034,21.4,18,47,295,35.4,20,21,129,37.9,23,10,344,25.8*7B
$GPGSV,3,3,12,24,20,003,27.0,25,67,180,35.0,29,37,204,31.2,31,12,230,24.9*77
$GPRMC,185944.44,A,1559.366234,S,04802.614985,W,000.0,,190922,,,A*7C
$GPGGA,185945.44,1559.366220,S,04802.614989,W,1,00,    ,1199.54,M,0.0,M,0.0,0000*58
$GPGSV,3,1,12,2,49,166,28.1,5,46,091,39.9,11,06,143,30.5,12,59,083,35.8*7D
$GPGSV,3,2,12,15,08,034,19.0,18,47,295,35.4,20,21,129,38.6,23,10,344,25.1*7D
$GPGSV,3,3,12,24,20,003,28.1,25,67,180,35.6,29,37,204,32.4,31,12,230,25.8*7A
$GPRMC,185945.44,A,1559.366220,S,04802.614989,W,000.1,,190922,,,A*75
$GPGGA,185946.44,1559.366087,S,04802.615006,W,1,00,    ,1199.55,M,0.0,M,0.0,0000*5A
$GPGSV,3,1,12,2,49,166,27.6,5,46,091,40.0,11,06,143,30.6,12,59,083,35.9*70
$GPGSV,3,2,12,15,08,034,20.3,18,47,295,35.3,20,21,129,38.5,23,10,344,25.7*76
$GPGSV,3,3,12,24,20,003,27.3,25,67,180,35.4,29,37,204,32.2,31,12,230,25.6*7D
$GPRMC,185946.44,A,1559.366087,S,04802.615006,W,000.0,,190922,,,A*77
$GPGGA,185947.44,1559.366128,S,04802.615025,W,1,00,    ,1199.50,M,0.0,M,0.0,0000*5B
$GPGSV,3,1,12,2,49,166,28.8,5,46,091,40.3,11,06,143,30.3,12,59,083,36.0*7D
$GPGSV,3,2,12,15,08,034,17.5,18,47,295,35.7,20,21,129,38.3,23,10,344,25.9*78
$GPGSV,3,3,12,24,20,003,28.5,25,67,180,35.5,29,37,204,32.6,31,12,230,24.5*73
$GPRMC,185947.44,A,1559.366128,S,04802.615025,W,000.0,,190922,,,A*73
$GPGGA,185948.44,1559.366130,S,04802.614946,W,1,00,    ,1199.59,M,0.0,M,0.0,0000*59
$GPGSV,3,1,12,2,49,166,29.0,5,46,091,39.7,11,06,143,29.4,12,59,083,35.9*7B
$GPGSV,3,2,12,15,08,034,18.9,18,47,295,35.5,20,21,129,38.1,23,10,344,24.9*7A
$GPGSV,3,3,12,24,20,003,28.1,25,67,180,35.2,29,37,204,31.4,31,12,230,25.3*76
$GPRMC,185948.44,A,1559.366130,S,04802.614946,W,000.1,,190922,,,A*79
$GPGGA,185949.44,1559.366208,S,04802.614992,W,1,00,    ,1199.68,M,0.0,M,0.0,0000*5B
$GPGSV,3,1,12,2,49,166,29.7,5,46,091,39.9,11,06,143,26.8,12,59,083,35.7*7F
$GPGSV,3,2,12,15,08,034,20.3,18,47,295,35.9,20,21,129,38.6,23,10,344,25.9*71
$GPGSV,3,3,12,24,20,003,28.0,25,67,180,35.2,29,37,204,31.5,31,12,230,26.3*75
$GPRMC,185949.44,A,1559.366208,S,04802.614992,W,000.0,,190922,,,A*78
$GPGGA,185950.44,1559.366293,S,04802.615055,W,1,00,    ,1199.81,M,0.0,M,0.0,0000*55
$GPGSV,3,1,12,2,49,166,29.0,5,46,091,40.5,11,06,142,28.4,12,59,083,35.4*7A
$GPGSV,3,2,12,15,08,034,17.9,18,47,295,36.2,20,21,129,38.6,23,10,344,26.3*7E
$GPGSV,3,3,12,24,20,003,27.5,25,67,180,35.9,29,37,204,30.6,31,12,230,25.0*76
$GPRMC,185950.44,A,1559.366293,S,04802.615055,W,000.0,,190922,,,A*71
$GPGGA,185951.44,1559.366367,S,04802.615107,W,1,00,    ,1199.76,M,0.0,M,0.0,0000*50
$GPGSV,3,1,12,2,49,166,29.8,5,46,091,40.6,11,06,142,27.8,12,59,083,35.2*74
$GPGSV,3,2,12,15,08,034,17.3,18,47,295,35.9,20,21,129,38.4,23,10,344,24.4*7B
$GPGSV,3,3,12,24,20,003,28.3,25,67,180,35.6,29,37,204,30.9,31,12,230,23.8*71
$GPRMC,185951.44,A,1559.366367,S,04802.615107,W,000.1,,190922,,,A*7D
$GPGGA,185952.44,1559.366416,S,04802.615183,W,1,00,    ,1199.68,M,0.0,M,0.0,0000*51
$GPGSV,3,1,11,2,49,166,28.8,5,46,091,40.6,11,06,142,26.2,12,59,083,34.9*77
$GPGSV,3,2,11,18,47,295,36.0,20,21,129,38.3,23,10,344,23.9,24,20,003,27.1*72
$GPGSV,3,3,11,25,67,180,35.9,29,37,204,31.2,31,12,230,25.0*59
$GPRMC,185952.44,A,1559.366416,S,04802.615183,W,000.0,,190922,,,A*72
$GPGGA,185953.44,1559.366415,S,04802.615212,W,1,00,    ,1199.64,M,0.0,M,0.0,0000*54
$GPGSV,3,1,11,2,49,166,28.9,5,46,091,40.6,11,06,142,24.4,12,59,083,34.5*7E
$GPGSV,3,2,11,18,47,295,36.0,20,21,129,38.5,23,10,344,23.0,24,20,003,26.8*75
$GPGSV,3,3,11,25,67,180,36.2,29,37,204,31.7,31,12,230,25.5*51
$GPRMC,185953.44,A,1559.366415,S,04802.615212,W,000.0,,190922,,,A*7B
$GPGGA,185954.44,1559.366469,S,04802.615143,W,1,00,    ,1199.69,M,0.0,M,0.0,0000*52
$GPGSV,3,1,12,2,49,166,31.2,5,46,091,40.4,11,06,142,28.5,12,59,083,34.7*73
$GPGSV,3,2,12,15,08,034,15.4,18,47,295,36.1,20,21,129,37.5,23,10,344,24.1*7E
$GPGSV,3,3,12,24,20,003,27.5,25,67,180,36.0,29,37,204,31.7,31,12,230,23.5*7F
$GPRMC,185954.44,A,1559.366469,S,04802.615143,W,000.0,,190922,,,A*70
$GPGGA,185955.44,1559.366311,S,04802.615069,W,1,00,    ,1199.74,M,0.0,M,0.0,0000*5E
$GPGSV,3,1,11,2,49,166,29.8,5,46,091,40.8,11,06,142,28.9,12,59,083,35.4*71
$GPGSV,3,2,11,18,47,295,36.4,20,21,129,35.3,23,10,344,24.1,24,20,003,28.5*7F
$GPGSV,3,3,11,25,67,180,35.4,29,37,204,31.7,31,12,230,25.3*52
$GPRMC,185955.44,A,1559.366311,S,04802.615069,W,000.0,,190922,,,A*70
$GPGGA,185956.44,1559.366267,S,04802.615000,W,1,00,    ,1199.73,M,0.0,M,0.0,0000*55
$GPGSV,3,1,11,2,49,166,30.0,5,46,091,40.6,11,06,142,30.0,12,59,083,35.5*7E
$GPGSV,3,2,11,18,47,295,36.3,20,21,129,34.8,23,10,344,24.0,24,20,003,28.4*72
$GPGSV,3,3,11,25,67,180,35.9,29,37,204,29.2,31,12,230,22.1*56
$GPRMC,185956.44,A,1559.366267,S,04802.615000,W,000.0,,190922,,,A*7C
$GPGGA,185957.44,1559.366258,S,04802.614987,W,1,00,    ,1199.77,M,0.0,M,0.0,0000*5B
$GPGSV,3,1,12,2,49,166,29.7,5,46,091,40.9,11,06,142,29.4,12,59,083,35.3*77
$GPGSV,3,2,12,15,08,034,16.3,18,47,295,36.3,20,21,129,35.6,23,10,344,23.2*7D
$GPGSV,3,3,12,24,20,003,29.1,25,67,180,35.5,29,37,204,29.3,31,12,230,22.1*7B
$GPRMC,185957.44,A,1559.366258,S,04802.614987,W,000.1,,190922,,,A*77
$GPGGA,185958.44,1559.366309,S,04802.615005,W,1,00,    ,1199.74,M,0.0,M,0.0,0000*50
$GPGSV,3,1,12,2,49,166,32.4,5,46,091,39.7,11,06,142,28.0,12,59,083,35.0*78
$GPGSV,3,2,12,15,08,034,18.9,18,47,295,35.4,20,21,129,34.1,23,10,344,27.1*7C
$GPGSV,3,3,12,24,20,003,28.6,25,67,180,34.8,29,37,204,30.6,31,12,230,22.6*7B
$GPRMC,185958.44,A,1559.366309,S,04802.615005,W,000.0,,190922,,,A*7E
$GPGGA,185959.44,1559.366305,S,04802.614960,W,1,00,    ,1199.81,M,0.0,M,0.0,0000*5C
$GPGSV,3,1,12,2,49,166,35.5,5,46,091,36.9,11,06,142,24.0,12,59,083,34.3*71
$GPGSV,3,2,12,15,08,034,22.6,18,47,295,31.6,20,21,129,31.4,23,10,344,25.9*76
$GPGSV,3,3,12,24,20,003,26.5,25,67,180,34.7,29,37,204,27.8,31,12,230,20.8*7D
$GPRMC,185959.44,A,1559.366305,S,04802.614960,W,000.0,,190922,,,A*78
$GPGGA,190000.44,1559.366209,S,04802.614911,W,1,00,    ,1199.88,M,0.0,M,0.0,0000*5F
$GPGSV,3,1,12,2,49,166,34.0,5,46,091,37.5,11,06,142,21.5,12,59,083,33.7*7B
$GPGSV,3,2,12,15,08,034,22.2,18,47,295,33.3,20,21,129,32.7,23,10,344,28.9*78
$GPGSV,3,3,12,24,20,003,26.4,25,67,180,33.3,29,37,204,31.3,31,12,230,20.9*72
$GPRMC,190000.44,A,1559.366209,S,04802.614911,W,000.1,,190922,,,A*73
$GPGGA,190001.44,1559.366164,S,04802.614810,W,1,00,    ,1199.87,M,0.0,M,0.0,0000*59
$GPGSV,3,1,12,2,49,166,33.5,5,46,091,36.3,11,06,142,25.3,12,59,083,34.3*7F
$GPGSV,3,2,12,15,08,034,20.7,18,47,295,33.0,20,21,129,31.2,23,10,344,29.2*70
$GPGSV,3,3,12,24,20,003,27.7,25,67,180,35.0,29,37,204,33.1,31,12,230,23.4*7B
$GPRMC,190001.44,A,1559.366164,S,04802.614810,W,000.0,,190922,,,A*7B
$GPGGA,190002.44,1559.366144,S,04802.614838,W,1,00,    ,1200.02,M,0.0,M,0.0,0000*5C
$GPGSV,3,1,12,2,49,166,35.2,5,46,091,38.1,11,06,142,20.7,12,59,083,33.7*70
$GPGSV,3,2,12,15,08,034,23.6,18,47,295,33.7,20,21,129,31.3,23,10,344,28.8*7F
$GPGSV,3,3,12,24,20,003,31.3,25,67,180,34.7,29,37,204,26.3,31,12,230,21.2*7C
$GPRMC,190002.44,A,1559.366144,S,04802.614838,W,000.1,,190922,,,A*71
$GPGGA,190003.44,1559.366050,S,04802.614694,W,1,00,    ,1200.34,M,0.0,M,0.0,0000*54
$GPGSV,3,1,12,2,49,166,39.0,5,46,091,37.1,11,06,142,30.4,12,59,083,35.2*70
$GPGSV,3,2,12,15,08,034,28.9,18,47,295,32.6,20,21,129,36.6,23,10,344,30.1*79
$GPGSV,3,3,12,24,20,003,27.8,25,67,180,37.9,29,37,204,36.8,31,12,230,30.2*77
$GPRMC,190003.44,A,1559.366050,S,04802.614694,W,001.3,158.4,190922,,,A*59
$GPGGA,190004.44,1559.366450,S,04802.614367,W,1,00,    ,1200.76,M,0.0,M,0.0,0000*58
$GPGSV,3,1,12,2,49,166,32.6,5,46,091,35.8,11,06,142,32.4,12,59,083,29.7*7C
$GPGSV,3,2,12,15,08,034,28.1,18,47,295,28.6,20,21,129,37.1,23,10,344,28.3*77
$GPGSV,3,3,12,24,20,003,28.9,25,67,180,32.7,29,37,204,37.5,31,12,230,34.7*7F
$GPRMC,190004.44,A,1559.366450,S,04802.614367,W,000.4,,190922,,,A*73
$GPGGA,190005.44,1559.366590,S,04802.614216,W,1,00,    ,1200.97,M,0.0,M,0.0,0000*5C
$GPGSV,3,1,12,2,49,166,35.1,5,46,091,34.0,11,06,142,37.9,12,59,083,35.3*74
$GPGSV,3,2,12,15,08,034,22.3,18,47,295,29.4,20,21,129,35.0,23,10,344,24.5*75
$GPGSV,3,3,12,24,20,003,30.8,25,67,180,38.3,29,37,204,38.4,31,12,230,36.5*77
$GPRMC,190005.44,A,1559.366590,S,04802.614216,W,000.1,,190922,,,A*7D
$GPGGA,190006.44,1559.366774,S,04802.613943,W,1,00,    ,1201.25,M,0.0,M,0.0,0000*53
$GPGSV,3,1,12,2,49,166,33.7,5,46,091,34.3,11,06,142,36.8,12,59,082,37.2*75
$GPGSV,3,2,12,15,08,034,22.6,18,47,295,31.8,20,21,129,36.3,23,10,344,22.2*74
$GPGSV,3,3,12,24,20,003,26.8,25,67,180,38.6,29,37,204,40.9,31,12,230,38.3*7F
$GPRMC,190006.44,A,1559.366774,S,04802.613943,W,000.1,,190922,,,A*7A
$GPGGA,190007.44,1559.366921,S,04802.613806,W,1,00,    ,1201.60,M,0.0,M,0.0,0000*5D
$GPGSV,3,1,12,2,49,166,33.5,5,46,091,31.0,11,06,142,38.9,12,59,082,36.3*7E
$GPGSV,3,2,12,15,08,034,21.0,18,47,295,32.3,20,21,129,36.4,23,10,344,26.0*78
$GPGSV,3,3,12,24,20,003,26.8,25,67,180,36.7,29,37,204,40.9,31,12,230,36.9*74
$GPRMC,190007.44,A,1559.366921,S,04802.613806,W,000.0,,190922,,,A*74
$GPGGA,190008.44,1559.366805,S,04802.613634,W,1,00,    ,1201.64,M,0.0,M,0.0,0000*5E
$GPGSV,3,1,12,2,49,166,35.3,5,46,091,32.3,11,06,142,37.2,12,59,082,35.1*7B
$GPGSV,3,2,12,15,08,034,18.3,18,47,295,32.6,20,21,129,35.2,23,10,344,23.6*72
$GPGSV,3,3,12,24,20,003,27.2,25,67,180,37.4,29,37,204,41.7,31,12,230,38.3*76
$GPRMC,190008.44,A,1559.366805,S,04802.613634,W,000.0,,190922,,,A*73
$GPGGA,190009.44,1559.366878,S,04802.613567,W,1,00,    ,1201.93,M,0.0,M,0.0,0000*58
$GPGSV,3,1,12,2,49,166,35.2,5,46,091,35.3,11,06,142,37.0,12,59,082,36.9*74
$GPGSV,3,2,12,15,08,034,21.0,18,47,295,33.2,20,21,129,35.9,23,10,344,26.5*73
$GPGSV,3,3,12,24,20,003,29.5,25,67,180,37.2,29,37,204,41.3,31,12,230,37.7*76
$GPRMC,190009.44,A,1559.366878,S,04802.613567,W,000.0,,190922,,,A*7D
$GPGGA,190010.44,1559.366713,S,04802.613645,W,1,00,    ,1201.94,M,0.0,M,0.0,0000*56
$GPGSV,3,1,12,2,49,166,34.9,5,46,091,34.4,11,06,142,37.8,12,59,082,37.3*7B
$GPGSV,3,2,12,15,08,034,21.1,18,47,295,31.7,20,21,129,36.0,23,10,344,28.0*74
$GPGSV,3,3,12,24,20,003,29.3,25,67,180,36.4,29,37,204,40.9,31,12,230,37.1*7A
$GPRMC,190010.44,A,1559.366713,S,04802.613645,W,000.0,,190922,,,A*74
$GPGGA,190011.44,1559.366800,S,04802.613760,W,1,00,    ,1201.88,M,0.0,M,0.0,0000*51
$GPGSV,3,1,12,2,49,166,35.2,5,46,091,34.2,11,06,142,37.6,12,59,082,36.9*72
$GPGSV,3,2,12,15,08,034,22.1,18,47,295,31.3,20,21,129,36.0,23,10,344,28.0*73
$GPGSV,3,3,12,24,20,003,29.3,25,67,180,35.5,29,37,204,41.0,31,12,230,37.2*73
$GPRMC,190011.44,A,1559.366800,S,04802.613760,W,000.0,,190922,,,A*7E
$GPGGA,190012.44,1559.367071,S,04802.614008,W,1,00,    ,1201.92,M,0.0,M,0.0,0000*58
$GPGSV,3,1,12,2,49,166,34.9,5,46,091,33.8,11,06,142,37.4,12,59,082,36.7*79
$GPGSV,3,2,12,15,08,034,22.3,18,47,295,31.3,20,21,129,36.0,23,10,344,28.0*71
$GPGSV,3,3,12,24,20,003,28.0,25,67,180,35.1,29,37,204,40.4,31,12,230,36.7*74
$GPRMC,190012.44,A,1559.367071,S,04802.614008,W,000.1,,190922,,,A*7D
$GPGGA,190013.44,1559.367191,S,04802.614101,W,1,00,    ,1202.09,M,0.0,M,0.0,0000*5F
$GPGSV,3,1,12,2,49,166,34.6,5,46,091,33.8,11,06,142,37.5,12,59,082,36.6*76
$GPGSV,3,2,12,15,08,034,21.5,18,47,295,31.7,20,21,129,35.9,23,10,344,28.2*78
$GPGSV,3,3,12,24,20,003,27.6,25,67,180,35.0,29,37,204,40.4,31,12,230,37.1*7B
$GPRMC,190013.44,A,1559.367191,S,04802.614101,W,000.0,,190922,,,A*7A
$GPGGA,190014.44,1559.367364,S,04802.614171,W,1,00,    ,1202.41,M,0.0,M,0.0,0000*5B
$GPGSV,3,1,12,2,49,166,35.2,5,46,091,34.3,11,06,142,37.9,12,59,082,36.6*73
$GPGSV,3,2,12,15,08,034,20.2,18,47,295,31.8,20,21,129,36.1,23,10,344,28.4*7C
$GPGSV,3,3,12,24,20,003,27.9,25,67,180,34.6,29,37,204,40.5,31,12,230,37.5*76
$GPRMC,190014.44,A,1559.367364,S,04802.614171,W,000.0,,190922,,,A*72
$GPGGA,190015.44,1559.367598,S,04802.614242,W,1,00,    ,1202.82,M,0.0,M,0.0,0000*53
$GPGSV,3,1,12,2,49,166,34.4,5,46,091,32.6,11,06,142,37.0,12,59,082,35.9*72
$GPGSV,3,2,12,15,08,034,18.6,18,47,295,32.9,20,21,129,36.4,23,10,344,27.1*7E
$GPGSV,3,3,12,24,20,003,28.0,25,67,180,34.0,29,37,204,40.5,31,12,230,37.7*74
$GPRMC,190015.44,A,1559.367598,S,04802.614242,W,000.0,,190922,,,A*75
$GPGGA,190016.44,1559.367888,S,04802.614198,W,1,00,    ,1203.26,M,0.0,M,0.0,0000*57
$GPGSV,3,1,11,2,49,166,34.0,5,46,091,32.9,11,06,142,37.0,12,58,082,35.1*73
$GPGSV,3,2,11,18,47,295,33.3,20,21,129,36.0,23,10,344,26.0,24,20,003,28.1*7A
$GPGSV,3,3,11,25,67,180,34.1,29,37,204,40.1,31,12,231,37.5*52
$GPRMC,190016.44,A,1559.367888,S,04802.614198,W,000.1,,190922,,,A*7F
$GPGGA,190017.44,1559.368188,S,04802.614171,W,1,00,    ,1203.31,M,0.0,M,0.0,0000*51
$GPGSV,3,1,12,2,49,166,29.2,5,46,091,33.8,11,06,142,32.0,12,58,082,29.5*72
$GPGSV,3,2,12,15,08,034,18.3,18,47,295,29.4,20,21,129,30.2,23,10,344,23.6*7F
$GPGSV,3,3,12,24,20,003,25.2,25,67,180,33.1,29,37,204,36.8,31,12,231,33.5*76
$GPRMC,190017.44,A,1559.368188,S,04802.614171,W,000.1,,190922,,,A*7F