$GPGGA,185819.00,1559.36553,S,04802.61556,W,1,10,0.98,1214.8,M,-11.7,M,,*4A
$GPGSA,A,3,25,12,02,18,05,29,20,24,23,15,,,1.81,0.98,1.52*0D
$GPGSV,3,1,10,02,50,166,36,05,46,089,33,12,59,085,29,15,07,033,26*71
$GPGSV,3,2,10,18,46,296,32,20,22,128,29,23,09,344,30,24,21,002,32*72
$GPGSV,3,3,10,25,66,181,34,29,37,205,32*79
$GPGLL,1559.36553,S,04802.61556,W,185819.00,A,A*6B
$GPGRS,185819.00,1,1.1,1.0,-1.4,-0.9,-1.4,0.9,1.0,-0.2,2.8,-0.9,,*6E
$GPGST,185819.00,26,,,,2.8,3.2,7.1*52
$GPZDA,185819.00,19,09,2022,00,00*69
$GPGBS,185819.00,2.8,3.2,7.1,,,,*40
$PUBX,00,185819.00,1559.36553,S,04802.61556,W,1203.015,G3,4.3,7.1,0.068,0.00,0.007,,0.98,1.5
$GPTXT,01,01,00,txbuf alloc*7F
$GPDTM,W84,,0.0,N,0.0,E,0.0,W84*6F
$GPRMC,185820.00,A,1559.36552,S,04802.61559,W,0.028,,190922,,,A*7D
$GPVTG,,T,,M,0.028,N,0.052,K,A*2E
$GPGGA,185820.00,1559.36552,S,04802.61559,W,1,10,0.98,1214.8,M,-11.7,M,,*4E
$GPGSA,A,3,25,12,02,18,05,29,20,24,23,15,,,1.81,0.98,1.52*0D
$GPGSV,3,1,10,02,50,166,36,05,46,089,34,12,59,085,29,15,07,033,27*77
$GPGSV,3,2,10,18,46,296,32,20,22,128,29,23,09,344,30,24,21,002,32*72
$GPGSV,3,3,10,25,66,181,34,29,37,205,32*79
$GPGLL,1559.36552,S,04802.61559,W,185820.00,A,A*6F
$GPGRS,185820.00,1,1.5,-0.2,-1.4,-0.4,-1.3,0.9,0.4,-0.3,3.2,-2.3,,*43
$GPGST,185820.00,25,,,,2.8,3.2,7.1*5B
$GPZDA,185820.00,19,09,2022,00,00*63
$GPGBS,185820.00,2.8,3.2,7.1,,,,*4A
$GPDTM,W84,,0.0,N,0.0,E,0.0,W84*6F
$GPRMC,185821.00,A,1559.36552,S,04802.61562,W,0.058,,190922,,,A*73
$GPVTG,,T,,M,0.058,N,0.108,K,A*27
$GPGGA,185821.00,1559.36552,S,04802.61562,W,1,10,0.98,1214.8,M,-11.7,M,,*47
$GPGSA,A,3,25,12,02,18,05,29,20,24,23,15,,,1.81,0.98,1.52*0D
$GPGSV,3,1,10,02,50,166,37,05,46,089,34,12,59,085,30,15,07,033,29*70
$GPGSV,3,2,10,18,46,296,33,20,22,128,29,23,09,344,31,24,21,002,33*73
$GPGSV,3,3,10,25,66,181,37,29,37,205,35*7D
$GPGLL,1559.36552,S,04802.61562,W,185821.00,A,A*66
$GPGRS,185821.00,1,1.4,-1.0,-1.4,-0.9,-1.2,0.6,0.5,-0.5,3.1,-2.9,,*4D
$GPGST,185821.00,23,,,,2.8,3.2,7.1*5C
$GPZDA,185821.00,19,09,2022,00,00*62
$GPGBS,185821.00,2.8,3.2,7.1,,,,*4B
$PUBX,00,185821.00,1559.36552,S,04802.61562,W,1203.037,G3,4.3,7.1,0.108,0.00,-0.002,,0.98,1.
$GPDTM,W84,,0.0,N,0.0,E,0.0,W84*6F
$GPRMC,185822.00,A,1559.36552,S,04802.61565,W,0.025,,190922,,,A*7D
$GPVTG,,T,,M,0.025,N,0.047,K,A*27
$GPGGA,185822.00,1559.36552,S,04802.61565,W,1,10,0.98,1214.8,M,-11.7,M,,*43
$GPGSA,A,3,25,12,02,18,05,29,20,24,23,15,,,1.81,0.98,1.52*0D
$GPGSV,3,1,10,02,50,166,38,05,46,089,34,12,59,084,31,15,07,033,30*77
$GPGSV,3,2,10,18,46,296,33,20,22,128,30,23,09,344,31,24,21,002,34*7C
$GPGSV,3,3,10,25,66,181,36,29,37,205,36*7F
$GPGLL,1559.36552,S,04802.61565,W,185822.00,A,A*62
$GPGRS,185822.00,1,0.6,-0.8,-1.4,-0.9,-1.6,0.1,0.1,-1.0,3.0,-2.4,,*4B
$GPGST,185822.00,22,,,,2.8,3.2,7.1*5E
$GPZDA,185822.00,19,09,2022,00,00*61
$GPGBS,185822.00,2.8,3.2,7.1,,,,*48
$PUBX,00,185822.00,1559.36552,S,04802.61565,W,1203.037,G3,4.2,7.1,0.047,0.00,-0.007,,0.98,1.
$PUBX,03,10,2,U,166,50,38,013,5,U,089,46,34,000,12,U,084,59,31,000,15,U,033,07,30,000,18,U,2
$PUBX,04,185822.00,190922,154702.00,2228,18,-509009,-3847.921,21*2E
$GPDTM,W84,,0.0,N,0.0,E,0.0,W84*6F
$GPRMC,185823.00,A,1559.36552,S,04802.61567,W,0.022,,190922,,,A*79
$GPVTG,,T,,M,0.022,N,0.041,K,A*26
$GPGGA,185823.00,1559.36552,S,04802.61567,W,1,10,0.98,1214.8,M,-11.7,M,,*40
$GPGSA,A,3,25,12,02,18,05,29,20,24,23,15,,,1.81,0.98,1.52*0D
$GPGSV,3,1,10,02,50,166,38,05,46,089,33,12,59,084,31,15,07,033,30*70
$GPGSV,3,2,10,18,46,296,33,20,22,128,30,23,09,344,33,24,21,002,34*7E
$GPGSV,3,3,10,25,66,181,36,29,37,205,35*7C
$GPGLL,1559.36552,S,04802.61567,W,185823.00,A,A*61
$GPGRS,185823.00,1,-0.1,0.1,-1.6,-1.5,-2.1,-0.4,-1.3,-1.6,2.5,-3.8,,*46
$GPGST,185823.00,22,,,,2.8,3.2,7.0*5E
$GPZDA,185823.00,19,09,2022,00,00*60
$GPGBS,185823.00,2.8,3.2,7.0,,,,*48
$PUBX,00,185823.00,1559.36552,S,04802.61567,W,1203.031,G3,4.2,7.0,0.041,0.00,0.008,,0.98,1.5
$PUBX,03,10,2,U,166,50,38,014,5,U,089,46,33,000,12,U,084,59,31,000,15,U,033,07,30,000,18,U,2
$GPTXT,01,01,00,txbuf alloc*7F
$GPDTM,W84,,0.0,N,0.0,E,0.0,W84*6F
$GPRMC,185824.00,A,1559.36550,S,04802.61566,W,0.038,,190922,,,A*76
$GPVTG,,T,,M,0.038,N,0.071,K,A*2E
$GPGGA,185824.00,1559.36550,S,04802.61566,W,1,10,0.98,1214.8,M,-11.7,M,,*44
$GPGSA,A,3,25,12,02,18,05,29,20,24,23,15,,,1.81,0.98,1.52*0D
$GPGSV,3,1,10,02,50,166,38,05,46,089,33,12,59,084,32,15,07,033,30*73
$GPGSV,3,2,10,18,46,296,33,20,22,128,30,23,09,344,32,24,21,002,33*78
$GPGSV,3,3,10,25,66,181,36,29,37,205,35*7C
$GPGLL,1559.36550,S,04802.61566,W,185824.00,A,A*65
$GPGRS,185824.00,1,-0.2,3.2,-1.4,-1.9,-2.1,-0.8,-2.2,-2.3,2.2,-3.7,,*4C
$GPGST,185824.00,22,,,,2.8,3.1,7.0*5A
$GPZDA,185824.00,19,09,2022,00,00*67
$GPGBS,185824.00,2.8,3.1,7.0,,,,*4C
$PUBX,00,185824.00,1559.36550,S,04802.61566,W,1203.069,G3,4.2,7.0,0.071,0.00,0.029,,0.98,1.5
$PUBX,03,10,2,U,166,50,38,015,5,U,089,46,33,001,12,U,084,59,32,000,15,U,033,07,30,000,18,U,2
$PUBX,04,185824.00,190922,154704.00,2228,18,-516717,-3860.629,21*2A
$GPDTM,W84,,0.0,N,0.0,E,0.0,W84*6F
$GPRMC,185825.00,A,1559.36549,S,04802.61565,W,0.031,,190922,,,A*75
$GPVTG,,T,,M,0.031,N,0.058,K,A*2C
$GPGGA,185825.00,1559.36549,S,04802.61565,W,1,10,0.98,1214.9,M,-11.7,M,,*4F
$GPGSA,A,3,25,12,02,18,05,29,20,24,23,15,,,1.81,0.98,1.52*0D
$GPGSV,3,1,10,02,50,166,37,05,46,089,34,12,59,084,32,15,07,033,31*7A
$GPGSV,3,2,10,18,46,296,34,20,22,128,30,23,09,344,32,24,21,002,33*7F
$GPGSV,3,3,10,25,66,181,36,29,37,205,35*7C
$GPGLL,1559.36549,S,04802.61565,W,185825.00,A,A*6F
$GPGRS,185825.00,1,-0.5,2.7,-1.8,-1.9,-1.8,-1.0,-1.6,-2.3,2.4,-2.3,,*45
$GPGST,185825.00,22,,,,2.8,3.1,7.0*5B
$GPZDA,185825.00,19,09,2022,00,00*66
$GPGBS,185825.00,2.8,3.1,7.0,,,,*4D
$PUBX,00,185825.00,1559.36549,S,04802.61565,W,1203.147,G3,4.2,7.0,0.058,0.00,0.006,,0.98,1.5
$PUBX,03,10,2,U,166,50,37,016,5,U,089,46,34,002,12,U,084,59,32,001,15,U,033,07,31,000,18,U,2
$PUBX,04,185825.00,190922,154705.00,2228,18,-520583,-3869.982,21*27
$GPDTM,W84,,0.0,N,0.0,E,0.0,W84*6F
$GPRMC,185826.00,A,1559.36548,S,04802.61566,W,0.027,,190922,,,A*73
$GPVTG,,T,,M,0.027,N,0.049,K,A*2B
$GPGGA,185826.00,1559.36548,S,04802.61566,W,1,10,0.98,1214.9,M,-11.7,M,,*4E
$GPGSA,A,3,25,12,02,18,05,29,20,24,23,15,,,1.81,0.98,1.52*0D
$GPGSV,3,1,10,02,50,166,38,05,46,089,34,12,59,084,31,15,07,033,30*77
$GPGSV,3,2,10,18,46,296,34,20,22,128,30,23,09,344,32,24,21,002,34*78
$GPGSV,3,3,10,25,66,181,36,29,37,205,35*7C
$GPGLL,1559.36548,S,04802.61566,W,185826.00,A,A*6E
$GPGRS,185826.00,1,-0.8,1.2,-1.9,-2.5,-2.0,-1.1,-1.1,-2.5,2.3,-3.3,,*4E
$GPGST,185826.00,22,,,,2.7,3.1,6.9*5F
$GPZDA,185826.00,19,09,2022,00,00*65
$GPGBS,185826.00,2.7,3.1,6.9,,,,*49
$PUBX,00,185826.00,1559.36548,S,04802.61566,W,1203.161,G3,4.1,6.9,0.049,0.00,0.000,,0.98,1.5
$PUBX,03,10,2,U,166,50,38,017,5,U,089,46,34,003,12,U,084,59,31,000,15,U,033,07,30,000,18,U,2
$PUBX,04,185826.00,190922,154706.00,2228,18,-524458,-3879.724,21*27
$GPDTM,W84,,0.0,N,0.0,E,0.0,W84*6F
$GPRMC,185827.00,A,1559.36548,S,04802.61565,W,0.021,,190922,,,A*77
$GPVTG,,T,,M,0.021,N,0.039,K,A*2A
$GPGGA,185827.00,1559.36548,S,04802.61565,W,1,10,0.98,1214.9,M,-11.7,M,,*4C
$GPGSA,A,3,25,12,02,18,05,29,20,24,23,15,,,1.81,0.98,1.52*0D
$GPGSV,3,1,10,02,50,166,37,05,46,089,34,12,59,084,32,15,07,033,29*73
$GPGSV,3,2,10,18,46,296,33,20,22,128,31,23,09,344,32,24,21,002,33*79
$GPGSV,3,3,10,25,66,181,36,29,37,205,35*7C
$GPGLL,1559.36548,S,04802.61565,W,185827.00,A,A*6C
$GPGRS,185827.00,1,-0.4,2.2,-2.3,-2.7,-1.5,-1.4,-1.4,-2.4,1.7,-2.6,,*4F
$GPGST,185827.00,22,,,,2.7,3.1,6.9*5E
$GPZDA,185827.00,19,09,2022,00,00*64
$GPGBS,185827.00,2.7,3.1,6.9,,,,*48
$PUBX,00,185827.00,1559.36548,S,04802.61565,W,1203.158,G3,4.1,6.9,0.039,0.00,0.029,,0.98,1.5
$PUBX,03,10,2,U,166,50,37,018,5,U,089,46,34,004,12,U,084,59,32,001,15,U,033,07,29,000,18,U,2
$PUBX,04,185827.00,190922,154707.00,2228,18,-528341,-3885.441,21*27
$GPDTM,W84,,0.0,N,0.0,E,0.0,W84*6F
$GPRMC,185828.00,A,1559.36547,S,04802.61565,W,0.024,,190922,,,A*72
$GPVTG,,T,,M,0.024,N,0.044,K,A*25
$GPGGA,185828.00,1559.36547,S,04802.61565,W,1,10,0.98,1214.9,M,-11.7,M,,*4C
$GPGSA,A,3,25,12,02,18,05,29,20,24,23,15,,,1.81,0.98,1.52*0D
$GPGSV,3,1,10,02,50,166,37,05,46,089,34,12,59,084,32,15,07,033,29*73
$GPGSV,3,2,10,18,46,296,33,20,22,128,30,23,09,344,32,24,21,002,34*7F
$GPGSV,3,3,10,25,66,181,36,29,37,205,34*7D
$GPGLL,1559.36547,S,04802.61565,W,185828.00,A,A*6C
$GPGRS,185828.00,1,-1.4,1.2,-3.1,-3.1,-2.2,-2.4,-1.4,-2.7,1.6,-4.3,,*40
$GPGST,185828.00,22,,,,2.7,3.1,6.8*50
$GPZDA,185828.00,19,09,2022,00,00*6B
$GPGBS,185828.00,2.7,3.1,6.8,,,,*46
$GPTXT,01,01,00,txbuf alloc*7F
$GPDTM,W84,,0.0,N,0.0,E,0.0,W84*6F
$GPRMC,185829.00,A,1559.36545,S,04802.61564,W,0.030,,190922,,,A*75
$GPVTG,,T,,M,0.030,N,0.055,K,A*20
$GPGGA,185829.00,1559.36545,S,04802.61564,W,1,10,0.98,1215.0,M,-11.7,M,,*46
$GPGSA,A,3,25,12,02,18,05,29,20,24,23,15,,,1.81,0.98,1.52*0D
$GPGSV,3,1,10,02,50,166,37,05,46,089,33,12,59,084,32,15,07,033,28*75
$GPGSV,3,2,10,18,46,296,34,20,22,128,30,23,09,344,31,24,21,002,32*7D
$GPGSV,3,3,10,25,66,181,36,29,37,205,33*7A
$GPGLL,1559.36545,S,04802.61564,W,185829.00,A,A*6E
$GPGRS,185829.00,1,-1.2,1.3,-3.3,-2.8,-1.9,-3.0,-2.8,-2.4,1.7,-4.4,,*4B
$GPGST,185829.00,23,,,,2.7,3.1,6.8*50
$GPZDA,185829.00,19,09,2022,00,00*6A
$GPGBS,185829.00,2.7,3.1,6.8,,,,*47
$PUBX,00,185829.00,1559.36545,S,04802.61564,W,1203.212,G3,4.1,6.8,0.055,0.00,0.023,,0.98,1.5
$GPDTM,W84,,0.0,N,0.0,E,0.0,W84*6F
$GPRMC,185830.00,A,1559.36543,S,04802.61562,W,0.085,,190922,,,A*73
$GPVTG,,T,,M,0.085,N,0.158,K,A*22
$GPGGA,185830.00,1559.36543,S,04802.61562,W,1,10,0.98,1214.9,M,-11.7,M,,*46
$GPGSA,A,3,25,12,02,18,05,29,20,24,23,15,,,1.81,0.98,1.52*0D
$GPGSV,3,1,10,02,50,166,37,05,46,089,33,12,59,084,32,15,07,033,28*75
$GPGSV,3,2,10,18,46,296,34,20,21,128,29,23,09,344,31,24,21,002,33*77
$GPGSV,3,3,10,25,66,181,37,29,37,205,33*7B
$GPGLL,1559.36543,S,04802.61562,W,185830.00,A,A*66
$GPGRS,185830.00,1,-1.2,0.4,-3.3,-2.0,-1.4,-2.5,-2.3,-1.8,2.3,-4.0,,*43
$GPGST,185830.00,23,,,,2.7,3.1,6.9*59
$GPZDA,185830.00,19,09,2022,00,00*62
$GPGBS,185830.00,2.7,3.1,6.9,,,,*4E
$PUBX,00,185830.00,1559.36543,S,04802.61562,W,1203.154,G3,4.1,6.9,0.158,0.00,0.053,,0.98,1.5
$PUBX,04,185830.00,190922,154710.00,2228,18,-539992,-3878.292,21*29
$GPDTM,W84,,0.0,N,0.0,E,0.0,W84*6F
$GPRMC,185831.00,A,1559.36542,S,04802.61560,W,0.040,,190922,,,A*78
$GPVTG,,T,,M,0.040,N,0.074,K,A*24
$GPGGA,185831.00,1559.36542,S,04802.61560,W,1,10,0.98,1214.8,M,-11.7,M,,*45
$GPGSA,A,3,25,12,02,18,05,29,20,24,23,15,,,1.81,0.98,1.52*0D
$GPGSV,3,1,10,02,50,166,37,05,46,089,33,12,59,084,32,15,07,033,30*7C
$GPGSV,3,2,10,18,46,296,33,20,21,128,29,23,09,344,31,24,21,002,33*70
$GPGSV,3,3,10,25,66,181,37,29,37,205,34*7C
$GPGLL,1559.36542,S,04802.61560,W,185831.00,A,A*64
$GPGRS,185831.00,1,-1.3,0.1,-3.2,-2.1,-1.1,-2.8,-0.5,-1.6,1.8,-3.5,,*4E
$GPGST,185831.00,23,,,,2.8,3.1,6.9*57
$GPZDA,185831.00,19,09,2022,00,00*63
$GPGBS,185831.00,2.8,3.1,6.9,,,,*40
$GPDTM,W84,,0.0,N,0.0,E,0.0,W84*6F
$GPRMC,185832.00,A,1559.36538,S,04802.61559,W,0.041,,190922,,,A*7D
$GPVTG,,T,,M,0.041,N,0.075,K,A*24
$GPGGA,185832.00,1559.36538,S,04802.61559,W,1,10,0.98,1215.0,M,-11.7,M,,*48
$GPGSA,A,3,25,12,02,18,05,29,20,24,23,15,,,1.81,0.98,1.52*0D
$GPGSV,3,1,10,02,50,166,38,05,46,089,34,12,59,084,32,15,07,033,30*74
$GPGSV,3,2,10,18,46,296,34,20,21,128,30,23,09,344,32,24,21,002,34*7B
$GPGSV,3,3,10,25,66,181,37,29,37,205,34*7C
$GPGLL,1559.36538,S,04802.61559,W,185832.00,A,A*60
$GPGRS,185832.00,1,-0.9,0.3,-2.5,-1.9,-0.6,-2.4,-0.3,-1.2,2.0,-2.9,,*47
$GPGST,185832.00,22,,,,2.7,3.1,6.9*5A
$GPZDA,185832.00,19,09,2022,00,00*60
$GPGBS,185832.00,2.7,3.1,6.9,,,,*4C
$PUBX,00,185832.00,1559.36538,S,04802.61559,W,1203.238,G3,4.1,6.9,0.075,0.00,0.002,,0.98,1.5
$GPTXT,01,01,00,txbuf alloc*7F
$GPDTM,W84,,0.0,N,0.0,E,0.0,W84*6F
$GPRMC,185833.00,A,1559.36538,S,04802.61556,W,0.032,,190922,,,A*77
$GPVTG,,T,,M,0.032,N,0.060,K,A*24
$GPGGA,185833.00,1559.36538,S,04802.61556,W,1,10,0.98,1214.8,M,-11.7,M,,*4F
$GPGSA,A,3,25,12,02,18,05,29,20,24,23,15,,,1.81,0.98,1.52*0D
$GPGSV,3,1,10,02,50,166,40,05,46,089,35,12,59,084,34,15,07,033,31*7D
$GPGSV,3,2,10,18,46,296,36,20,21,128,33,23,10,344,33,24,21,002,36*71
$GPGSV,3,3,10,25,66,181,39,29,37,205,36*70
$GPGLL,1559.36538,S,04802.61556,W,185833.00,A,A*6E
$GPGRS,185833.00,1,-0.8,0.8,-1.7,-1.4,0.0,-1.5,2.4,-0.7,2.2,0.8,,*69
$GPGST,185833.00,19,,,,2.7,3.0,6.7*5C
$GPZDA,185833.00,19,09,2022,00,00*61
$GPGBS,185833.00,2.7,3.0,6.7,,,,*42
$PUBX,00,185833.00,1559.36538,S,04802.61556,W,1203.099,G3,4.1,6.7,0.060,0.00,0.018,,0.98,1.5
$PUBX,03,10,2,U,166,50,40,005,5,U,089,46,35,001,12,U,084,59,34,001,15,U,033,07,31,000,18,U,2
$PUBX,04,185833.00,190922,154713.00,2228,18,-551592,-3871.976,21*23
$GPDTM,W84,,0.0,N,0.0,E,0.0,W84*6F
$GPRMC,185834.00,A,1559.36538,S,04802.61554,W,0.011,,190922,,,A*73
$GPVTG,,T,,M,0.011,N,0.021,K,A*20
$GPGGA,185834.00,1559.36538,S,04802.61554,W,1,10,0.98,1214.7,M,-11.7,M,,*45
$GPGSA,A,3,25,12,02,18,05,29,20,24,23,15,,,1.81,0.98,1.52*0D
$GPGSV,3,1,10,02,50,166,38,05,46,089,33,12,59,084,32,15,07,033,29*7B
$GPGSV,3,2,10,18,46,296,32,20,21,128,33,23,10,344,32,24,20,003,34*76
$GPGSV,3,3,10,25,66,181,36,29,37,205,34*7D
$GPGLL,1559.36538,S,04802.61554,W,185834.00,A,A*6B
$GPGRS,185834.00,1,-0.4,0.5,-1.0,-0.6,0.0,-0.8,2.9,-0.2,2.6,0.8,,*6B
$GPGST,185834.00,22,,,,2.7,3.1,6.8*5D
$GPZDA,185834.00,19,09,2022,00,00*66
$GPGBS,185834.00,2.7,3.1,6.8,,,,*4B
$PUBX,00,185834.00,1559.36538,S,04802.61554,W,1202.993,G3,4.1,6.8,0.021,0.00,0.021,,0.98,1.5
$PUBX,03,10,2,U,166,50,38,000,5,U,089,46,33,000,12,U,084,59,32,000,15,U,033,07,29,000,18,U,2
$PUBX,04,185834.00,190922,154714.00,2228,18,-555465,-3874.344,21*20
$GPDTM,W84,,0.0,N,0.0,E,0.0,W84*6F
$GPRMC,185835.00,A,1559.36538,S,04802.61553,W,0.016,,190922,,,A*72
$GPVTG,,T,,M,0.016,N,0.030,K,A*27
$GPGGA,185835.00,1559.36538,S,04802.61553,W,1,10,0.98,1214.7,M,-11.7,M,,*43
$GPGSA,A,3,25,12,02,18,05,29,20,24,23,15,,,1.81,0.98,1.52*0D
$GPGSV,3,1,10,02,50,166,38,05,46,089,33,12,59,084,31,15,07,033,28*79
$GPGSV,3,2,10,18,46,296,33,20,21,128,32,23,10,344,32,24,20,003,33*71
$GPGSV,3,3,10,25,66,180,36,29,37,205,33*7B
$GPGLL,1559.36538,S,04802.61553,W,185835.00,A,A*6D
$GPGRS,185835.00,1,-1.6,-1.0,-1.7,-1.6,-0.6,-1.6,1.1,-1.9,1.5,-3.6,,*43
$GPGST,185835.00,23,,,,2.7,3.1,6.8*5D
$GPZDA,185835.00,19,09,2022,00,00*67
$GPGBS,185835.00,2.7,3.1,6.8,,,,*4A
$PUBX,00,185835.00,1559.36538,S,04802.61553,W,1202.946,G3,4.1,6.8,0.030,0.00,0.020,,0.98,1.5
$PUBX,03,10,2,U,166,50,38,000,5,U,089,46,33,000,12,U,084,59,31,000,15,U,033,07,28,000,18,U,2
$PUBX,04,185835.00,190922,154715.00,2228,18,-559332,-3861.106,21*29
$GPDTM,W84,,0.0,N,0.0,E,0.0,W84*6F
$GPRMC,185836.00,A,1559.36537,S,04802.61552,W,0.030,,190922,,,A*7B
$GPVTG,,T,,M,0.030,N,0.055,K,A*20
$GPGGA,185836.00,1559.36537,S,04802.61552,W,1,10,0.98,1214.6,M,-11.7,M,,*4F
$GPGSA,A,3,25,12,02,18,05,29,20,24,23,15,,,1.81,0.98,1.52*0D
$GPGSV,3,1,10,02,50,166,37,05,46,089,33,12,59,084,31,15,07,033,28*76
$GPGSV,3,2,10,18,46,296,33,20,21,128,33,23,10,344,31,24,20,003,33*73
$GPGSV,3,3,10,25,66,180,36,29,37,205,33*7B
$GPGLL,1559.36537,S,04802.61552,W,185836.00,A,A*60
$GPGRS,185836.00,1,-1.7,-1.7,-2.4,-1.9,-0.7,-1.3,-0.3,-1.9,1.5,1.3,,*49
$GPGST,185836.00,23,,,,2.7,3.1,6.7*51
$GPZDA,185836.00,19,09,2022,00,00*64
$GPGBS,185836.00,2.7,3.1,6.7,,,,*46
$PUBX,00,185836.00,1559.36537,S,04802.61552,W,1202.876,G3,4.1,6.7,0.055,0.00,0.022,,0.98,1.5
$PUBX,03,10,2,U,166,50,37,001,5,U,089,46,33,000,12,U,084,59,31,000,15,U,033,07,28,000,18,U,2
$PUBX,04,185836.00,190922,154716.00,2228,18,-563182,-3841.619,21*22
$GPDTM,W84,,0.0,N,0.0,E,0.0,W84*6F
$GPRMC,185837.00,A,1559.36538,S,04802.61553,W,0.076,,190922,,,A*76
$GPVTG,,T,,M,0.076,N,0.141,K,A*26
$GPGGA,185837.00,1559.36538,S,04802.61553,W,1,10,0.98,1214.5,M,-11.7,M,,*43
$GPGSA,A,3,25,12,02,18,05,29,20,24,23,15,,,1.81,0.98,1.52*0D
$GPGSV,3,1,10,02,50,166,37,05,46,089,32,12,59,084,32,15,07,033,29*75
$GPGSV,3,2,10,18,46,296,33,20,21,128,32,23,10,344,31,24,20,003,33*72
$GPGSV,3,3,10,25,66,180,36,29,37,205,33*7B
$GPGLL,1559.36538,S,04802.61553,W,185837.00,A,A*6F
$GPGRS,185837.00,1,-1.6,-1.6,-2.3,-1.7,-0.2,-0.7,1.7,-1.9,2.1,-1.7,,*47
$GPGST,185837.00,23,,,,2.7,3.1,6.7*50
$GPZDA,185837.00,19,09,2022,00,00*65
$GPGBS,185837.00,2.7,3.1,6.7,,,,*47
$PUBX,00,185837.00,1559.36538,S,04802.61553,W,1202.717,G3,4.1,6.7,0.141,0.00,0.040,,0.98,1.5
$PUBX,03,10,2,U,166,50,37,000,5,U,089,46,32,000,12,U,084,59,32,000,15,U,033,07,29,000,18,U,2
$PUBX,04,185837.00,190922,154717.00,2228,18,-567021,-3836.397,21*2D
$GPDTM,W84,,0.0,N,0.0,E,0.0,W84*6F
$GPRMC,185838.00,A,1559.36538,S,04802.61554,W,0.040,,190922,,,A*7B
$GPVTG,,T,,M,0.040,N,0.073,K,A*23
$GPGGA,185838.00,1559.36538,S,04802.61554,W,1,10,0.98,1214.4,M,-11.7,M,,*4A
$GPGSA,A,3,25,12,02,18,05,29,20,24,23,15,,,1.81,0.98,1.52*0D
$GPGSV,3,1,10,02,50,166,37,05,46,089,32,12,59,084,31,15,07,033,27*78
$GPGSV,3,2,10,18,46,296,32,20,21,128,31,23,10,344,32,24,20,003,33*73
$GPGSV,3,3,10,25,66,180,36,29,37,205,33*7B
$GPGLL,1559.36538,S,04802.61554,W,185838.00,A,A*67
$GPGRS,185838.00,1,-0.5,-0.6,-1.4,-0.2,1.0,0.5,0.6,-0.5,2.6,2.3,,*6A
$GPGST,185838.00,24,,,,2.7,3.1,6.7*58
$GPZDA,185838.00,19,09,2022,00,00*6A
$GPGBS,185838.00,2.7,3.1,6.7,,,,*48
$PUBX,00,185838.00,1559.36538,S,04802.61554,W,1202.648,G3,4.1,6.7,0.073,0.00,0.021,,0.98,1.5
$PUBX,03,10,2,U,166,50,37,001,5,U,089,46,32,000,12,U,084,59,31,000,15,U,033,07,27,000,18,U,2
$PUBX,04,185838.00,190922,154718.00,2228,18,-570865,-3850.389,21*2C
$GPDTM,W84,,0.0,N,0.0,E,0.0,W84*6F
$GPRMC,185839.00,A,1559.36536,S,04802.61554,W,0.018,,190922,,,A*79
$GPVTG,,T,,M,0.018,N,0.033,K,A*2A
$GPGGA,185839.00,1559.36536,S,04802.61554,W,1,10,0.98,1214.3,M,-11.7,M,,*42
$GPGSA,A,3,25,12,02,18,05,29,20,24,23,15,,,1.81,0.98,1.52*0D
$GPGSV,3,1,10,02,50,166,39,05,46,089,35,12,59,084,32,15,07,033,26*73
$GPGSV,3,2,10,18,46,296,35,20,21,128,30,23,10,344,35,24,20,003,36*77
$GPGSV,3,3,10,25,66,180,38,29,37,204,36*71
$GPGLL,1559.36536,S,04802.61554,W,185839.00,A,A*68
$GPGRS,185839.00,1,-0.2,0.1,-1.1,0.4,1.5,1.0,0.7,-0.4,2.6,4.1,,*6D
$GPGST,185839.00,22,,,,2.7,3.1,6.7*5F
$GPZDA,185839.00,19,09,2022,00,00*6B
$GPGBS,185839.00,2.7,3.1,6.7,,,,*49
$PUBX,00,185839.00,1559.36536,S,04802.61554,W,1202.584,G3,4.1,6.7,0.033,0.00,0.009,,0.98,1.5
$PUBX,03,10,2,U,166,50,39,000,5,U,089,46,35,000,12,U,084,59,32,000,15,U,033,07,26,000,18,U,2
$GPTXT,01,01,00,txbuf alloc*7F
$GPDTM,W84,,0.0,N,0.0,E,0.0,W84*6F
$GPRMC,185840.00,A,1559.36536,S,04802.61555,W,0.009,,190922,,,A*76
$GPVTG,,T,,M,0.009,N,0.016,K,A*2D
$GPGGA,185840.00,1559.36536,S,04802.61555,W,1,10,0.98,1214.3,M,-11.7,M,,*4D
$GPGSA,A,3,25,12,02,18,05,29,20,24,23,15,,,1.81,0.98,1.52*0D
$GPGSV,3,1,10,02,50,166,40,05,46,089,34,12,59,084,35,15,07,033,30*7C
$GPGSV,3,2,10,18,46,296,34,20,21,128,31,23,10,344,34,24,20,003,36*76
$GPGSV,3,3,10,25,66,180,38,29,37,204,35*72
$GPGLL,1559.36536,S,04802.61555,W,185840.00,A,A*67
$GPGRS,185840.00,1,-1.1,-1.3,-2.0,0.0,0.2,0.0,-0.5,-1.8,0.9,2.1,,*67
$GPGST,185840.00,20,,,,2.7,3.1,6.6*52
$GPZDA,185840.00,19,09,2022,00,00*65
$GPGBS,185840.00,2.7,3.1,6.6,,,,*46
$PUBX,00,185840.00,1559.36536,S,04802.61555,W,1202.518,G3,4.0,6.6,0.016,0.00,-0.003,,0.98,1.
$GPDTM,W84,,0.0,N,0.0,E,0.0,W84*6F
$GPRMC,185841.00,A,1559.36535,S,04802.61555,W,0.040,,190922,,,A*79
$GPVTG,,T,,M,0.040,N,0.074,K,A*24
$GPGGA,185841.00,1559.36535,S,04802.61555,W,1,10,0.98,1214.2,M,-11.7,M,,*4E
$GPGSA,A,3,25,12,02,18,05,29,20,24,23,15,,,1.81,0.98,1.52*0D
$GPGSV,3,1,10,02,50,166,36,05,46,089,33,12,59,084,33,15,07,033,29*74
$GPGSV,3,2,10,18,46,296,33,20,21,128,30,23,10,344,32,24,20,003,33*73
$GPGSV,3,3,10,25,66,180,36,29,37,204,34*7D
$GPGLL,1559.36535,S,04802.61555,W,185841.00,A,A*65
$GPGRS,185841.00,1,-0.5,-1.0,-1.7,0.3,0.2,0.2,-0.2,-1.5,1.2,1.2,,*65
$GPGST,185841.00,22,,,,2.6,3.0,6.5*52
$GPZDA,185841.00,19,09,2022,00,00*64
$GPGBS,185841.00,2.6,3.0,6.5,,,,*44
$PUBX,00,185841.00,1559.36535,S,04802.61555,W,1202.501,G3,4.0,6.5,0.074,0.00,-0.012,,0.98,1.
$GPDTM,W84,,0.0,N,0.0,E,0.0,W84*6F
$GPRMC,185842.00,A,1559.36535,S,04802.61554,W,0.101,,190922,,,A*7F
$GPVTG,,T,,M,0.101,N,0.188,K,A*22
$GPGGA,185842.00,1559.36535,S,04802.61554,W,1,10,0.98,1214.1,M,-11.7,M,,*4F
$GPGSA,A,3,25,12,02,18,05,29,20,24,23,15,,,1.81,0.98,1.52*0D
$GPGSV,3,1,10,02,50,166,43,05,46,089,38,12,59,084,36,15,07,033,28*79
$GPGSV,3,2,10,18,46,296,37,20,21,128,34,23,10,344,38,24,20,003,38*72
$GPGSV,3,3,10,25,66,180,41,29,37,204,37*7E
$GPGLL,1559.36535,S,04802.61554,W,185842.00,A,A*67
$GPGRS,185842.00,1,-1.0,-1.1,-2.0,-0.2,-0.4,-0.2,-0.6,-1.8,0.9,-0.6,,*66
$GPGST,185842.00,18,,,,2.6,3.0,6.5*58
$GPZDA,185842.00,19,09,2022,00,00*67
$GPGBS,185842.00,2.6,3.0,6.5,,,,*47
$PUBX,00,185842.00,1559.36535,S,04802.61554,W,1202.404,G3,4.0,6.5,0.188,0.00,0.013,,0.98,1.5
$GPDTM,W84,,0.0,N,0.0,E,0.0,W84*6F
$GPRMC,185843.00,A,1559.36535,S,04802.61557,W,0.048,,190922,,,A*71
$GPVTG,,T,,M,0.048,N,0.088,K,A*2F
$GPGGA,185843.00,1559.36535,S,04802.61557,W,1,10,0.98,1214.1,M,-11.7,M,,*4D
$GPGSA,A,3,25,12,02,18,05,29,20,24,23,15,,,1.81,0.98,1.52*0D
$GPGSV,3,1,10,02,50,166,42,05,46,089,37,12,59,084,36,15,07,033,27*78
$GPGSV,3,2,10,18,46,296,36,20,21,128,33,23,10,344,37,24,20,003,39*7A
$GPGSV,3,3,10,25,66,180,40,29,37,204,37*7F
$GPGLL,1559.36535,S,04802.61557,W,185843.00,A,A*65
$GPGRS,185843.00,1,-1.6,-2.1,-3.1,-0.5,-1.3,-1.4,-1.1,-2.9,0.0,-2.2,,*6F
$GPGST,185843.00,19,,,,2.6,3.0,6.4*59
$GPZDA,185843.00,19,09,2022,00,00*66
$GPGBS,185843.00,2.6,3.0,6.4,,,,*47
$PUBX,00,185843.00,1559.36535,S,04802.61557,W,1202.330,G3,4.0,6.4,0.088,0.00,0.015,,0.98,1.5
$GPDTM,W84,,0.0,N,0.0,E,0.0,W84*6F
$GPRMC,185844.00,A,1559.36534,S,04802.61561,W,0.064,,190922,,,A*7C
$GPVTG,,T,,M,0.064,N,0.118,K,A*29
$GPGGA,185844.00,1559.36534,S,04802.61561,W,1,10,0.98,1214.1,M,-11.7,M,,*4E
$GPGSA,A,3,25,12,02,18,05,29,20,24,23,15,,,1.81,0.98,1.52*0D
$GPGSV,3,1,10,02,50,166,39,05,46,089,34,12,59,084,33,15,07,033,33*77
$GPGSV,3,2,10,18,46,296,36,20,21,128,33,23,10,344,33,24,20,003,34*73
$GPGSV,3,3,10,25,66,180,38,29,37,204,37*70
$GPGLL,1559.36534,S,04802.61561,W,185844.00,A,A*66
$GPGRS,185844.00,1,-0.2,-1.2,-2.1,0.7,-0.3,-0.1,0.2,-2.4,1.0,-0.9,,*6C
$GPGST,185844.00,19,,,,2.6,3.0,6.3*59
$GPZDA,185844.00,19,09,2022,00,00*61
$GPGBS,185844.00,2.6,3.0,6.3,,,,*47
$PUBX,00,185844.00,1559.36534,S,04802.61561,W,1202.399,G3,3.9,6.3,0.118,0.00,-0.019,,0.98,1.
$GPTXT,01,01,00,txbuf alloc*7F
$GPDTM,W84,,0.0,N,0.0,E,0.0,W84*6F
$GPRMC,185845.00,A,1559.36533,S,04802.61560,W,0.144,,190922,,,A*78
$GPVTG,,T,,M,0.144,N,0.268,K,A*2E
$GPGGA,185845.00,1559.36533,S,04802.61560,W,1,10,0.98,1214.1,M,-11.7,M,,*49
$GPGSA,A,3,25,12,02,18,05,29,20,24,23,15,,,1.81,0.98,1.52*0D
$GPGSV,3,1,10,02,50,166,38,05,46,089,34,12,59,084,32,15,07,033,31*75
$GPGSV,3,2,10,18,46,296,34,20,21,128,30,23,10,344,32,24,20,003,34*73
$GPGSV,3,3,10,25,66,180,37,29,37,204,35*7D
$GPGLL,1559.36533,S,04802.61560,W,185845.00,A,A*61
$GPGRS,185845.00,1,0.2,-0.5,-1.2,0.9,-0.1,0.1,0.9,-2.0,1.3,-2.2,,*62
$GPGST,185845.00,21,,,,2.6,3.0,6.3*53
$GPZDA,185845.00,19,09,2022,00,00*60
$GPGBS,185845.00,2.6,3.0,6.3,,,,*46
$PUBX,00,185845.00,1559.36533,S,04802.61560,W,1202.396,G3,3.9,6.3,0.268,0.00,0.001,,0.98,1.5
$PUBX,03,10,2,U,166,50,38,003,5,U,089,46,34,000,12,U,084,59,32,000,15,U,033,07,31,000,18,U,2
$PUBX,04,185845.00,190922,154725.00,2228,18,-597830,-3841.716,21*23
$GPDTM,W84,,0.0,N,0.0,E,0.0,W84*6F
$GPRMC,185846.00,A,1559.36534,S,04802.61560,W,0.017,,190922,,,A*7B
$GPVTG,,T,,M,0.017,N,0.031,K,A*27
$GPGGA,185846.00,1559.36534,S,04802.61560,W,1,10,0.98,1214.1,M,-11.7,M,,*4D
$GPGSA,A,3,25,12,02,18,05,29,20,24,23,15,,,1.81,0.98,1.52*0D
$GPGSV,3,1,10,02,50,166,38,05,46,089,33,12,59,084,32,15,07,033,30*73
$GPGSV,3,2,10,18,46,296,34,20,21,128,30,23,10,344,32,24,20,003,34*73
$GPGSV,3,3,10,25,66,180,36,29,37,204,34*7D
$GPGLL,1559.36534,S,04802.61560,W,185846.00,A,A*65
$GPGRS,185846.00,1,-1.1,-1.1,-2.2,-0.5,-1.1,-0.7,0.2,-3.3,0.2,-1.5,,*4E
$GPGST,185846.00,22,,,,2.6,3.0,6.3*53
$GPZDA,185846.00,19,09,2022,00,00*63
$GPGBS,185846.00,2.6,3.0,6.3,,,,*45
$PUBX,00,185846.00,1559.36534,S,04802.61560,W,1202.357,G3,4.0,6.3,0.031,0.00,0.022,,0.98,1.5
$PUBX,03,10,2,U,166,50,38,004,5,U,089,46,33,000,12,U,084,59,32,000,15,U,033,07,30,000,18,U,2
$PUBX,04,185846.00,190922,154726.00,2228,18,-601661,-3823.300,21*22
$GPDTM,W84,,0.0,N,0.0,E,0.0,W84*6F
$GPRMC,185847.00,A,1559.36533,S,04802.61561,W,0.033,,190922,,,A*7A
$GPVTG,,T,,M,0.033,N,0.061,K,A*24
$GPGGA,185847.00,1559.36533,S,04802.61561,W,1,10,0.98,1214.1,M,-11.7,M,,*4A
$GPGSA,A,3,25,12,02,18,05,29,20,24,23,15,,,1.81,0.98,1.52*0D
$GPGSV,3,1,10,02,50,166,37,05,46,089,32,12,59,084,30,15,07,033,20*7E
$GPGSV,3,2,10,18,46,296,33,20,21,128,29,23,10,344,31,24,20,003,32*79
$GPGSV,3,3,10,25,66,180,35,29,37,204,33*79
$GPGLL,1559.36533,S,04802.61561,W,185847.00,A,A*62
$GPGRS,185847.00,1,-1.3,-1.2,-2.8,-0.8,-2.0,-1.2,0.3,-3.5,0.0,-2.9,,*45
$GPGST,185847.00,28,,,,2.6,3.0,6.4*5F
$GPZDA,185847.00,19,09,2022,00,00*62
$GPGBS,185847.00,2.6,3.0,6.4,,,,*43
$PUBX,00,185847.00,1559.36533,S,04802.61561,W,1202.390,G3,4.0,6.4,0.061,0.00,0.001,,0.98,1.5
$PUBX,03,10,2,U,166,50,37,005,5,U,089,46,32,001,12,U,084,59,30,000,15,U,033,07,20,000,18,U,2
$PUBX,04,185847.00,190922,154727.00,2228,18,-605477,-3810.759,21*2B
$GPDTM,W84,,0.0,N,0.0,E,0.0,W84*6F
$GPRMC,185848.00,A,1559.36531,S,04802.61564,W,0.060,,190922,,,A*74
$GPVTG,,T,,M,0.060,N,0.111,K,A*24
$GPGGA,185848.00,1559.36531,S,04802.61564,W,1,10,0.98,1214.2,M,-11.7,M,,*41
$GPGSA,A,3,25,12,02,18,05,29,20,24,23,15,,,1.81,0.98,1.52*0D
$GPGSV,3,1,10,02,50,166,37,05,46,089,32,12,59,084,31,15,07,033,29*76
$GPGSV,3,2,10,18,46,296,33,20,21,128,29,23,10,344,32,24,20,003,33*7B
$GPGSV,3,3,10,25,66,180,35,29,37,204,33*79
$GPGLL,1559.36531,S,04802.61564,W,185848.00,A,A*6A
$GPGRS,185848.00,1,0.3,0.1,-1.1,0.6,-0.5,0.0,1.2,-1.9,1.7,-0.4,,*4E
$GPGST,185848.00,24,,,,2.6,3.0,6.4*5C
$GPZDA,185848.00,19,09,2022,00,00*6D
$GPGBS,185848.00,2.6,3.0,6.4,,,,*4C
$PUBX,00,185848.00,1559.36531,S,04802.61564,W,1202.439,G3,4.0,6.4,0.111,0.00,-0.021,,0.98,1.
$PUBX,03,10,2,U,166,50,37,006,5,U,089,46,32,000,12,U,084,59,31,000,15,U,033,07,29,000,18,U,2
$PUBX,04,185848.00,190922,154728.00,2228,18,-609293,-3819.605,21*2A
$GPDTM,W84,,0.0,N,0.0,E,0.0,W84*6F
$GPRMC,185849.00,A,1559.36532,S,04802.61565,W,0.041,,190922,,,A*74
$GPVTG,,T,,M,0.041,N,0.075,K,A*24
$GPGGA,185849.00,1559.36532,S,04802.61565,W,1,10,0.98,1214.2,M,-11.7,M,,*42
$GPGSA,A,3,25,12,02,18,05,29,20,24,23,15,,,1.81,0.98,1.52*0D
$GPGSV,3,1,10,02,50,166,37,05,46,089,32,12,59,084,31,15,07,033,29*76
$GPGSV,3,2,10,18,46,296,33,20,21,128,29,23,10,344,31,24,20,003,33*78
$GPGSV,3,3,10,25,66,180,36,29,37,204,33*7A
$GPGLL,1559.36532,S,04802.61565,W,185849.00,A,A*69
$GPGRS,185849.00,1,0.3,0.8,-0.3,0.5,-0.1,0.1,1.6,-1.7,2.2,-1.7,,*4D
$GPGST,185849.00,24,,,,2.6,3.0,6.4*5D
$GPZDA,185849.00,19,09,2022,00,00*6C
$GPGBS,185849.00,2.6,3.0,6.4,,,,*4D
$PUBX,00,185849.00,1559.36532,S,04802.61565,W,1202.482,G3,4.0,6.4,0.075,0.00,-0.031,,0.98,1.
$PUBX,03,10,2,U,166,50,37,007,5,U,089,46,32,001,12,U,084,59,31,000,15,U,033,07,29,000,18,U,2
$PUBX,04,185849.00,190922,154729.00,2228,18,-613117,-3827.868,21*26
$GPDTM,W84,,0.0,N,0.0,E,0.0,W84*6F
$GPRMC,185850.00,A,1559.36532,S,04802.61566,W,0.038,,190922,,,A*71
$GPVTG,,T,,M,0.038,N,0.071,K,A*2E
$GPGGA,185850.00,1559.36532,S,04802.61566,W,1,10,0.98,1214.3,M,-11.7,M,,*48
$GPGSA,A,3,25,12,02,18,05,29,20,24,23,15,,,1.81,0.98,1.52*0D
$GPGSV,3,1,10,02,50,166,37,05,46,089,32,12,59,084,30,15,07,033,28*76
$GPGSV,3,2,10,18,46,296,33,20,21,128,29,23,10,344,31,24,20,003,32*79
$GPGSV,3,3,10,25,66,180,35,29,37,204,33*79
$GPGLL,1559.36532,S,04802.61566,W,185850.00,A,A*62
$GPGRS,185850.00,1,0.4,0.5,-0.2,-0.1,-0.4,-0.6,0.6,-1.8,1.7,-1.8,,*4F
$GPGST,185850.00,24,,,,2.6,3.0,6.5*54
$GPZDA,185850.00,19,09,2022,00,00*64
$GPGBS,185850.00,2.6,3.0,6.5,,,,*44
$PUBX,00,185850.00,1559.36532,S,04802.61566,W,1202.525,G3,4.0,6.5,0.071,0.00,-0.031,,0.98,1.
$PUBX,03,10,2,U,166,50,37,008,5,U,089,46,32,000,12,U,084,59,30,000,15,U,033,07,28,000,18,U,2
$PUBX,04,185850.00,190922,154730.00,2228,18,-616951,-3839.064,21*22
$GPDTM,W84,,0.0,N,0.0,E,0.0,W84*6F
$GPRMC,185851.00,A,1559.36533,S,04802.61565,W,0.039,,190922,,,A*73
$GPVTG,,T,,M,0.039,N,0.073,K,A*2D
$GPGGA,185851.00,1559.36533,S,04802.61565,W,1,10,0.98,1214.2,M,-11.7,M,,*4A
$GPGSA,A,3,25,12,02,18,05,29,20,24,23,15,,,1.81,0.98,1.52*0D
$GPGSV,3,1,10,02,50,166,37,05,46,089,32,12,59,084,31,15,07,033,28*77
$GPGSV,3,2,10,18,46,296,33,20,21,128,29,23,10,344,31,24,20,003,33*78
$GPGSV,3,3,10,25,66,180,35,29,37,204,34*7E
$GPGLL,1559.36533,S,04802.61565,W,185851.00,A,A*61
$GPGRS,185851.00,1,1.0,0.9,0.2,-0.1,-0.2,-0.3,2.4,-1.9,2.0,-0.2,,*67
$GPGST,185851.00,24,,,,2.6,3.0,6.5*55
$GPZDA,185851.00,19,09,2022,00,00*65
$GPGBS,185851.00,2.6,3.0,6.5,,,,*45
$GPTXT,01,01,00,txbuf alloc*7F
$GPDTM,W84,,0.0,N,0.0,E,0.0,W84*6F
$GPRMC,185852.00,A,1559.36533,S,04802.61565,W,0.018,,190922,,,A*73
$GPVTG,,T,,M,0.018,N,0.034,K,A*2D
$GPGGA,185852.00,1559.36533,S,04802.61565,W,1,10,0.98,1214.3,M,-11.7,M,,*48
$GPGSA,A,3,25,12,02,18,05,29,20,24,23,15,,,1.81,0.98,1.52*0D
$GPGSV,3,1,10,02,50,166,37,05,46,089,32,12,59,084,31,15,07,033,27*78
$GPGSV,3,2,10,18,46,296,33,20,21,128,29,23,10,344,32,24,20,003,33*7B
$GPGSV,3,3,10,25,66,180,35,29,37,204,34*7E
$GPGLL,1559.36533,S,04802.61565,W,185852.00,A,A*62
$GPGRS,185852.00,1,-0.1,-0.2,-0.9,-1.2,-1.4,-1.6,1.1,-2.6,0.7,-1.1,,*45
$GPGST,185852.00,24,,,,2.6,3.0,6.5*56
$GPZDA,185852.00,19,09,2022,00,00*66
$GPGBS,185852.00,2.6,3.0,6.5,,,,*46
$PUBX,00,185852.00,1559.36533,S,04802.61565,W,1202.510,G3,4.0,6.5,0.034,0.00,-0.016,,0.98,1.
$PUBX,03,10,2,U,166,50,37,010,5,U,089,46,32,000,12,U,084,59,31,000,15,U,033,07,27,000,18,U,2
$GPDTM,W84,,0.0,N,0.0,E,0.0,W84*6F
$GPRMC,185853.00,A,1559.36533,S,04802.61563,W,0.041,,190922,,,A*78
$GPVTG,,T,,M,0.041,N,0.077,K,A*26
$GPGGA,185853.00,1559.36533,S,04802.61563,W,1,10,0.98,1214.2,M,-11.7,M,,*4E
$GPGSA,A,3,25,12,02,18,05,29,20,24,23,15,,,1.81,0.98,1.52*0D
$GPGSV,3,1,10,02,50,166,37,05,46,089,33,12,59,084,31,15,07,033,27*79
$GPGSV,3,2,10,18,46,296,33,20,21,128,29,23,10,344,32,24,20,003,33*7B
$GPGSV,3,3,10,25,66,180,35,29,37,204,34*7E
$GPGLL,1559.36533,S,04802.61563,W,185853.00,A,A*65
$GPGRS,185853.00,1,0.2,0.0,-0.7,-1.4,-1.3,-1.5,1.1,-2.0,0.9,-0.5,,*44
$GPGST,185853.00,24,,,,2.6,3.0,6.6*54
$GPZDA,185853.00,19,09,2022,00,00*67
$GPGBS,185853.00,2.6,3.0,6.6,,,,*44
$PUBX,00,185853.00,1559.36533,S,04802.61563,W,1202.481,G3,4.0,6.6,0.077,0.00,0.003,,0.98,1.5
$GPDTM,W84,,0.0,N,0.0,E,0.0,W84*6F
$GPRMC,185854.00,A,1559.36531,S,04802.61563,W,0.034,,190922,,,A*7F
$GPVTG,,T,,M,0.034,N,0.063,K,A*21
$GPGGA,185854.00,1559.36531,S,04802.61563,W,1,10,0.98,1214.3,M,-11.7,M,,*4A
$GPGSA,A,3,25,12,02,18,05,29,20,24,23,15,,,1.81,0.98,1.52*0D
$GPGSV,3,1,10,02,50,166,37,05,46,089,33,12,59,084,31,15,07,033,28*76
$GPGSV,3,2,10,18,46,296,33,20,21,128,29,23,10,344,31,24,20,003,33*78
$GPGSV,3,3,10,25,66,180,35,29,37,204,34*7E
$GPGLL,1559.36531,S,04802.61563,W,185854.00,A,A*60
$GPGRS,185854.00,1,0.2,-0.4,-1.4,-1.8,-1.6,-1.7,0.1,-2.6,0.4,-0.1,,*6D
$GPGST,185854.00,27,,,,2.6,3.0,6.6*50
$GPZDA,185854.00,19,09,2022,00,00*60
$GPGBS,185854.00,2.6,3.0,6.6,,,,*43
$PUBX,00,185854.00,1559.36531,S,04802.61563,W,1202.563,G3,4.0,6.6,0.063,0.00,-0.021,,0.98,1.
$GPDTM,W84,,0.0,N,0.0,E,0.0,W84*6F
$GPRMC,185855.00,A,1559.36532,S,04802.61562,W,0.044,,190922,,,A*7B
$GPVTG,,T,,M,0.044,N,0.082,K,A*29
$GPGGA,185855.00,1559.36532,S,04802.61562,W,1,10,0.98,1214.2,M,-11.7,M,,*48
$GPGSA,A,3,25,12,02,18,05,29,20,24,23,15,,,1.81,0.98,1.52*0D
$GPGSV,3,1,10,02,50,166,37,05,46,089,33,12,59,084,32,15,07,033,28*75
$GPGSV,3,2,10,18,46,296,33,20,21,128,29,23,10,344,32,24,20,003,33*7B
$GPGSV,3,3,10,25,66,180,35,29,37,204,34*7E
$GPGLL,1559.36532,S,04802.61562,W,185855.00,A,A*63
$GPGRS,185855.00,1,0.2,-0.7,-1.5,-1.6,-1.5,-1.4,0.3,-2.4,0.7,0.8,,*47
$GPGST,185855.00,25,,,,2.6,3.0,6.6*53
$GPZDA,185855.00,19,09,2022,00,00*61
$GPGBS,185855.00,2.6,3.0,6.6,,,,*42
$PUBX,00,185855.00,1559.36532,S,04802.61562,W,1202.496,G3,4.0,6.6,0.082,0.00,0.017,,0.98,1.5
$GPTXT,01,01,00,txbuf alloc*7F
$GPDTM,W84,,0.0,N,0.0,E,0.0,W84*6F
$GPRMC,185856.00,A,1559.36531,S,04802.61561,W,0.014,,190922,,,A*7D
$GPVTG,,T,,M,0.014,N,0.025,K,A*21
$GPGGA,185856.00,1559.36531,S,04802.61561,W,1,10,0.98,1214.3,M,-11.7,M,,*4A
$GPGSA,A,3,25,12,02,18,05,29,20,24,23,15,,,1.81,0.98,1.52*0D
$GPGSV,3,1,10,02,50,166,37,05,46,089,33,12,59,084,32,15,07,033,29*74
$GPGSV,3,2,10,18,46,296,33,20,21,128,29,23,10,344,32,24,20,003,33*7B
$GPGSV,3,3,10,25,66,180,35,29,37,204,34*7E
$GPGLL,1559.36531,S,04802.61561,W,185856.00,A,A*60
$GPGRS,185856.00,1,-0.3,-1.1,-2.5,-2.1,-2.2,-1.9,-1.6,-3.2,0.0,0.4,,*44
$GPGST,185856.00,24,,,,2.6,3.0,6.6*51
$GPZDA,185856.00,19,09,2022,00,00*62
$GPGBS,185856.00,2.6,3.0,6.6,,,,*41
$PUBX,00,185856.00,1559.36531,S,04802.61561,W,1202.510,G3,4.0,6.6,0.025,0.00,0.023,,0.98,1.5
$PUBX,03,10,2,U,166,50,37,001,5,U,089,46,33,000,12,U,084,59,32,000,15,U,033,07,29,000,18,U,2
$PUBX,04,185856.00,190922,154736.00,2228,18,-639991,-3816.106,21*2B
$GPDTM,W84,,0.0,N,0.0,E,0.0,W84*6F
$GPRMC,185857.00,A,1559.36530,S,04802.61561,W,0.028,,190922,,,A*72
$GPVTG,,T,,M,0.028,N,0.052,K,A*2E
$GPGGA,185857.00,1559.36530,S,04802.61561,W,1,10,0.98,1214.3,M,-11.7,M,,*4A
$GPGSA,A,3,25,12,02,18,05,29,20,24,23,15,,,1.81,0.98,1.52*0D
$GPGSV,3,1,10,02,50,166,39,05,46,089,34,12,59,084,32,15,07,033,29*7D
$GPGSV,3,2,10,18,46,296,34,20,21,128,30,23,10,344,33,24,20,003,34*72
$GPGSV,3,3,10,25,66,180,38,29,37,204,34*73
$GPGLL,1559.36530,S,04802.61561,W,185857.00,A,A*60
$GPGRS,185857.00,1,-0.2,-1.2,-2.2,-2.2,-2.5,-2.1,-1.6,-2.8,0.4,-0.1,,*68
$GPGST,185857.00,22,,,,2.6,3.0,6.6*56
$GPZDA,185857.00,19,09,2022,00,00*63
$GPGBS,185857.00,2.6,3.0,6.6,,,,*40
$PUBX,00,185857.00,1559.36530,S,04802.61561,W,1202.547,G3,4.0,6.6,0.052,0.00,0.014,,0.98,1.5
$GPDTM,W84,,0.0,N,0.0,E,0.0,W84*6F
$GPRMC,185858.00,A,1559.36528,S,04802.61562,W,0.020,,190922,,,A*7F
$GPVTG,,T,,M,0.020,N,0.037,K,A*25
$GPGGA,185858.00,1559.36528,S,04802.61562,W,1,10,0.98,1214.4,M,-11.7,M,,*48
$GPGSA,A,3,25,12,02,18,05,29,20,24,23,15,,,1.81,0.98,1.52*0D
$GPGSV,3,1,10,02,50,166,38,05,46,089,33,12,59,084,32,15,07,033,32*71
$GPGSV,3,2,10,18,46,296,33,20,21,128,30,23,10,344,33,24,20,003,35*74
$GPGSV,3,3,10,25,66,180,37,29,37,204,34*7C
$GPGLL,1559.36528,S,04802.61562,W,185858.00,A,A*65
$GPGRS,185858.00,1,0.6,-0.2,-1.2,-1.2,-2.0,-1.3,0.5,-1.8,1.2,0.5,,*49
$GPGST,185858.00,21,,,,2.6,3.0,6.5*59
$GPZDA,185858.00,19,09,2022,00,00*6C
$GPGBS,185858.00,2.6,3.0,6.5,,,,*4C
$PUBX,00,185858.00,1559.36528,S,04802.61562,W,1202.607,G3,4.0,6.5,0.037,0.00,-0.006,,0.98,1.
$PUBX,03,10,2,U,166,50,38,001,5,U,089,46,33,000,12,U,084,59,32,001,15,U,033,07,32,000,18,U,2
$PUBX,04,185858.00,190922,154738.00,2228,18,-647601,-3799.613,21*2F
$GPDTM,W84,,0.0,N,0.0,E,0.0,W84*6F
$GPRMC,185859.00,A,1559.36528,S,04802.61566,W,0.188,,190922,,,A*79
$GPVTG,,T,,M,0.188,N,0.348,K,A*2D
$GPGGA,185859.00,1559.36528,S,04802.61566,W,1,10,0.98,1214.5,M,-11.7,M,,*4C
$GPGSA,A,3,25,12,02,18,05,29,20,24,23,15,,,1.81,0.98,1.52*0D
$GPGSV,3,1,10,02,50,166,37,05,46,089,32,12,59,084,31,15,07,033,30*7E
$GPGSV,3,2,10,18,46,296,33,20,21,128,29,23,10,344,31,24,20,003,31*7A
$GPGSV,3,3,10,25,66,180,36,29,37,204,34*7D
$GPGLL,1559.36528,S,04802.61566,W,185859.00,A,A*60
$GPGRS,185859.00,1,0.9,0.1,-0.9,-1.1,-1.8,-0.9,0.8,-1.5,1.4,0.5,,*66
$GPGST,185859.00,24,,,,2.6,3.0,6.6*5E
$GPZDA,185859.00,19,09,2022,00,00*6D
$GPGBS,185859.00,2.6,3.0,6.6,,,,*4E
$PUBX,00,185859.00,1559.36528,S,04802.61566,W,1202.707,G3,4.0,6.6,0.348,0.00,-0.043,,0.98,1.
$PUBX,03,10,2,U,166,50,37,000,5,U,089,46,32,000,12,U,084,59,31,000,15,U,033,07,30,000,18,U,2
$PUBX,04,185859.00,190922,154739.00,2228,18,-651400,-3800.454,21*25
$GPTXT,01,01,00,txbuf alloc*7F
$GPDTM,W84,,0.0,N,0.0,E,0.0,W84*6F
$GPRMC,185900.00,A,1559.36527,S,04802.61564,W,0.154,,190922,,,A*78
$GPVTG,,T,,M,0.154,N,0.285,K,A*2C
$GPGGA,185900.00,1559.36527,S,04802.61564,W,1,10,0.98,1214.4,M,-11.7,M,,*4D
$GPGSA,A,3,25,12,02,18,05,29,20,24,23,15,,,1.81,0.98,1.52*0D
$GPGSV,3,1,10,02,50,166,37,05,46,089,32,12,59,084,31,15,07,033,27*78
$GPGSV,3,2,10,18,46,296,33,20,21,128,29,23,10,344,32,24,20,003,33*7B
$GPGSV,3,3,10,25,66,180,36,29,37,204,34*7D
$GPGLL,1559.36527,S,04802.61564,W,185900.00,A,A*60
$GPGRS,185900.00,1,1.3,0.3,-0.7,-0.3,-1.5,-0.7,0.6,-1.2,1.8,0.2,,*6E
$GPGST,185900.00,24,,,,2.6,3.1,6.6*52
$GPZDA,185900.00,19,09,2022,00,00*60
$GPGBS,185900.00,2.6,3.1,6.6,,,,*42
$PUBX,00,185900.00,1559.36527,S,04802.61564,W,1202.676,G3,4.1,6.6,0.285,0.00,0.001,,0.98,1.5
$PUBX,03,10,2,U,166,50,37,001,5,U,089,46,32,000,12,U,084,59,31,000,15,U,033,07,27,000,18,U,2
$PUBX,04,185900.00,190922,154740.00,2228,18,-655199,-3797.405,21*22
$GPDTM,W84,,0.0,N,0.0,E,0.0,W84*6F
$GPRMC,185901.00,A,1559.36527,S,04802.61560,W,0.171,,190922,,,A*7A
$GPVTG,,T,,M,0.171,N,0.316,K,A*20
$GPGGA,185901.00,1559.36527,S,04802.61560,W,1,10,0.98,1214.3,M,-11.7,M,,*4F
$GPGSA,A,3,25,12,02,18,05,29,20,24,23,15,,,1.81,0.98,1.52*0D
$GPGSV,3,1,10,02,50,166,37,05,46,089,32,12,59,084,31,15,07,033,29*76
$GPGSV,3,2,10,18,46,296,33,20,21,128,29,23,10,344,32,24,20,003,33*7B
$GPGSV,3,3,10,25,66,180,36,29,37,204,34*7D
$GPGLL,1559.36527,S,04802.61560,W,185901.00,A,A*65
$GPGRS,185901.00,1,0.4,-0.2,-1.4,-0.7,-1.9,-1.3,2.4,-1.9,1.6,-1.6,,*67
$GPGST,185901.00,23,,,,2.7,3.1,6.7*54
$GPZDA,185901.00,19,09,2022,00,00*61
$GPGBS,185901.00,2.7,3.1,6.7,,,,*43
$PUBX,00,185901.00,1559.36527,S,04802.61560,W,1202.603,G3,4.1,6.7,0.316,0.00,0.042,,0.98,1.5
$PUBX,03,10,2,U,166,50,37,002,5,U,089,46,32,000,12,U,084,59,31,000,15,U,033,07,29,000,18,U,2
$GPDTM,W84,,0.0,N,0.0,E,0.0,W84*6F
$GPRMC,185902.00,A,1559.36527,S,04802.61559,W,0.040,,190922,,,A*70
$GPVTG,,T,,M,0.040,N,0.074,K,A*24
$GPGGA,185902.00,1559.36527,S,04802.61559,W,1,10,0.98,1214.4,M,-11.7,M,,*41
$GPGSA,A,3,25,12,02,18,05,29,20,24,23,15,,,1.81,0.98,1.52*0D
$GPGSV,3,1,10,02,50,166,37,05,46,089,32,12,59,084,31,15,07,033,29*76
$GPGSV,3,2,10,18,46,296,33,20,21,128,29,23,10,344,31,24,20,003,33*78
$GPGSV,3,3,10,25,66,180,36,29,37,204,34*7D
$GPGLL,1559.36527,S,04802.61559,W,185902.00,A,A*6C
$GPGRS,185902.00,1,0.0,-0.3,-1.5,-1.1,-2.0,-1.3,4.1,-1.8,1.4,-2.3,,*6B
$GPGST,185902.00,24,,,,2.7,3.2,6.7*53
$GPZDA,185902.00,19,09,2022,00,00*62
$GPGBS,185902.00,2.7,3.2,6.7,,,,*43
$PUBX,00,185902.00,1559.36527,S,04802.61559,W,1202.620,G3,4.2,6.7,0.074,0.00,0.019,,0.98,1.5
$PUBX,03,10,2,U,166,50,37,003,5,U,089,46,32,000,12,U,084,59,31,000,15,U,033,07,29,000,18,U,2
$PUBX,04,185902.00,190922,154742.00,2228,18,-662742,-3747.601,21*2D
$GPDTM,W84,,0.0,N,0.0,E,0.0,W84*6F
$GPRMC,185903.00,A,1559.36527,S,04802.61563,W,0.212,,190922,,,A*7D
$GPVTG,,T,,M,0.212,N,0.393,K,A*2B
$GPGGA,185903.00,1559.36527,S,04802.61563,W,1,10,0.98,1214.5,M,-11.7,M,,*48
$GPGSA,A,3,25,12,02,18,05,29,20,24,23,15,,,1.81,0.98,1.52*0D
$GPGSV,3,1,10,02,50,166,37,05,46,089,32,12,59,084,31,15,07,033,30*7E
$GPGSV,3,2,10,18,46,296,33,20,21,128,29,23,10,344,32,24,20,003,33*7B
$GPGSV,3,3,10,25,66,180,36,29,37,204,34*7D
$GPGLL,1559.36527,S,04802.61563,W,185903.00,A,A*64
$GPGRS,185903.00,1,1.9,1.2,-0.3,0.2,-0.3,0.1,3.5,-0.3,2.4,-1.9,,*4B
$GPGST,185903.00,23,,,,2.7,3.2,6.7*55
$GPZDA,185903.00,19,09,2022,00,00*63
$GPGBS,185903.00,2.7,3.2,6.7,,,,*42
$PUBX,00,185903.00,1559.36527,S,04802.61563,W,1202.728,G3,4.2,6.7,0.393,0.00,-0.021,,0.98,1.
$PUBX,03,10,2,U,166,50,37,004,5,U,089,46,32,000,12,U,084,59,31,000,15,U,033,07,30,000,18,U,2
$GPTXT,01,01,00,txbuf alloc*7F
$GPDTM,W84,,0.0,N,0.0,E,0.0,W84*6F
$GPRMC,185904.00,A,1559.36528,S,04802.61565,W,0.032,,190922,,,A*73
$GPVTG,,T,,M,0.032,N,0.059,K,A*2E
$GPGGA,185904.00,1559.36528,S,04802.61565,W,1,10,0.98,1214.5,M,-11.7,M,,*46
$GPGSA,A,3,25,12,02,18,05,29,20,24,23,15,,,1.81,0.98,1.52*0D
$GPGSV,3,1,10,02,50,166,38,05,46,089,32,12,59,084,31,15,07,033,30*71
$GPGSV,3,2,10,18,46,296,32,20,21,128,28,23,10,344,32,24,20,003,33*7B
$GPGSV,3,3,10,25,66,180,36,29,37,204,35*7C
$GPGLL,1559.36528,S,04802.61565,W,185904.00,A,A*6A
$GPGRS,185904.00,1,3.2,2.4,0.7,1.1,0.9,1.2,4.3,0.8,3.5,-1.5,,*65
$GPGST,185904.00,23,,,,2.7,3.2,6.7*52
$GPZDA,185904.00,19,09,2022,00,00*64
$GPGBS,185904.00,2.7,3.2,6.7,,,,*45
$PUBX,00,185904.00,1559.36528,S,04802.61565,W,1202.777,G3,4.2,6.7,0.059,0.00,-0.023,,0.98,1.
$GPDTM,W84,,0.0,N,0.0,E,0.0,W84*6F
$GPRMC,185905.00,A,1559.36527,S,04802.61566,W,0.029,,190922,,,A*74
$GPVTG,,T,,M,0.029,N,0.055,K,A*28
$GPGGA,185905.00,1559.36527,S,04802.61566,W,1,10,0.98,1214.6,M,-11.7,M,,*48
$GPGSA,A,3,25,12,02,18,05,29,20,24,23,15,,,1.81,0.98,1.52*0D
$GPGSV,3,1,10,02,50,166,38,05,46,089,31,12,59,084,30,15,07,033,30*73
$GPGSV,3,2,10,18,46,296,31,20,21,128,28,23,10,344,32,24,20,003,33*78
$GPGSV,3,3,10,25,66,180,36,29,37,204,35*7C
$GPGLL,1559.36527,S,04802.61566,W,185905.00,A,A*67
$GPGRS,185905.00,1,2.6,2.1,-0.2,0.6,0.3,0.7,3.5,0.2,3.3,-1.0,,*4C
$GPGST,185905.00,24,,,,2.7,3.3,6.8*5A
$GPZDA,185905.00,19,09,2022,00,00*65
$GPGBS,185905.00,2.7,3.3,6.8,,,,*4A
$PUBX,00,185905.00,1559.36527,S,04802.61566,W,1202.837,G3,4.2,6.8,0.055,0.00,-0.024,,0.98,1.
$GPDTM,W84,,0.0,N,0.0,E,0.0,W84*6F
$GPRMC,185906.00,A,1559.36528,S,04802.61565,W,0.021,,190922,,,A*73
$GPVTG,,T,,M,0.021,N,0.039,K,A*2A
$GPGGA,185906.00,1559.36528,S,04802.61565,W,1,10,0.98,1214.5,M,-11.7,M,,*44
$GPGSA,A,3,25,12,02,18,05,29,20,24,23,15,,,1.81,0.98,1.52*0D
$GPGSV,3,1,10,02,50,166,38,05,46,089,31,12,59,084,30,15,07,033,30*73
$GPGSV,3,2,10,18,46,296,32,20,21,128,28,23,10,344,31,24,20,003,33*78
$GPGSV,3,3,10,25,66,180,35,29,37,204,34*7E
$GPGLL,1559.36528,S,04802.61565,W,185906.00,A,A*68
$GPGRS,185906.00,1,2.6,2.3,0.1,1.1,1.2,1.2,4.3,0.2,3.1,-0.4,,*67
$GPGST,185906.00,24,,,,2.7,3.3,6.8*59
$GPZDA,185906.00,19,09,2022,00,00*66
$GPGBS,185906.00,2.7,3.3,6.8,,,,*49
$PUBX,00,185906.00,1559.36528,S,04802.61565,W,1202.778,G3,4.3,6.8,0.039,0.00,0.007,,0.98,1.5
$GPDTM,W84,,0.0,N,0.0,E,0.0,W84*6F
$GPRMC,185907.00,A,1559.36527,S,04802.61565,W,0.008,,190922,,,A*76
$GPVTG,,T,,M,0.008,N,0.015,K,A*2F
$GPGGA,185907.00,1559.36527,S,04802.61565,W,1,10,0.98,1214.5,M,-11.7,M,,*4A
$GPGSA,A,3,25,12,02,18,05,29,20,24,23,15,,,1.81,0.98,1.52*0D
$GPGSV,3,1,11,02,50,166,38,05,46,089,31,12,59,084,30,15,07,033,29*7A
$GPGSV,3,2,11,18,46,296,32,20,21,128,29,23,10,344,31,24,20,003,32*79
$GPGSV,3,3,11,25,66,180,35,29,37,204,34,31,12,230,*4F
$GPGLL,1559.36527,S,04802.61565,W,185907.00,A,A*66
$GPGRS,185907.00,1,1.9,2.1,-0.3,1.0,0.9,1.0,3.6,0.1,2.7,-0.8,,*44
$GPGST,185907.00,24,,,,2.7,3.3,6.8*58
$GPZDA,185907.00,19,09,2022,00,00*67
$GPGBS,185907.00,2.7,3.3,6.8,,,,*48
$GPDTM,W84,,0.0,N,0.0,E,0.0,W84*6F
$GPRMC,185908.00,A,1559.36527,S,04802.61558,W,0.325,,190922,,,A*7B
$GPVTG,,T,,M,0.325,N,0.601,K,A*20
$GPGGA,185908.00,1559.36527,S,04802.61558,W,1,10,0.98,1214.4,M,-11.7,M,,*4A
$GPGSA,A,3,25,12,02,18,05,29,20,24,23,15,,,1.81,0.98,1.52*0D
$GPGSV,3,1,11,02,50,166,38,05,46,089,31,12,59,084,31,15,07,033,29*7B
$GPGSV,3,2,11,18,46,296,33,20,21,128,29,23,10,344,32,24,20,003,32*7B
$GPGSV,3,3,11,25,66,180,35,29,37,204,34,31,12,230,20*4D
$GPGLL,1559.36527,S,04802.61558,W,185908.00,A,A*67
$GPGRS,185908.00,1,2.6,2.6,0.0,1.5,1.6,1.3,4.8,0.6,3.4,-1.0,,*63
$GPGST,185908.00,24,,,,2.8,3.3,6.9*59
$GPZDA,185908.00,19,09,2022,00,00*68
$GPGBS,185908.00,2.8,3.3,6.9,,,,*49
$PUBX,00,185908.00,1559.36527,S,04802.61558,W,1202.675,G3,4.3,6.9,0.601,0.00,0.049,,0.98,1.5
$PUBX,03,11,2,U,166,50,38,000,5,U,089,46,31,000,12,U,084,59,31,000,15,U,033,07,29,000,18,U,2
$GPTXT,01,01,00,txbuf alloc*7F
$GPDTM,W84,,0.0,N,0.0,E,0.0,W84*6F
$GPRMC,185909.00,A,1559.36526,S,04802.61555,W,0.043,,190922,,,A*75
$GPVTG,,T,,M,0.043,N,0.080,K,A*2C
$GPGGA,185909.00,1559.36526,S,04802.61555,W,1,10,0.98,1214.4,M,-11.7,M,,*47
$GPGSA,A,3,25,12,02,18,05,29,20,24,23,15,,,1.81,0.98,1.52*0D
$GPGSV,3,1,11,02,50,166,38,05,46,089,32,12,59,084,31,15,07,033,29*78
$GPGSV,3,2,11,18,46,296,33,20,21,128,30,23,10,344,32,24,20,003,32*73
$GPGSV,3,3,11,25,66,180,35,29,37,204,33,31,12,230,20*4A
$GPGLL,1559.36526,S,04802.61555,W,185909.00,A,A*6A
$GPGRS,185909.00,1,1.6,1.7,-1.2,0.7,0.7,0.8,3.4,0.1,2.8,-3.0,,*47
$GPGST,185909.00,23,,,,2.8,3.3,6.8*5E
$GPZDA,185909.00,19,09,2022,00,00*69
$GPGBS,185909.00,2.8,3.3,6.8,,,,*49
$PUBX,00,185909.00,1559.36526,S,04802.61555,W,1202.692,G3,4.3,6.8,0.080,0.00,0.036,,0.98,1.5
$PUBX,03,11,2,U,166,50,38,001,5,U,089,46,32,000,12,U,084,59,31,001,15,U,033,07,29,000,18,U,2
$PUBX,04,185909.00,190922,154749.00,2228,18,-689002,-3728.857,21*2F
$GPDTM,W84,,0.0,N,0.0,E,0.0,W84*6F
$GPRMC,185910.00,A,1559.36524,S,04802.61556,W,0.019,,190922,,,A*73
$GPVTG,,T,,M,0.019,N,0.035,K,A*2D
$GPGGA,185910.00,1559.36524,S,04802.61556,W,1,10,0.98,1214.5,M,-11.7,M,,*4F
$GPGSA,A,3,25,12,02,18,05,29,20,24,23,15,,,1.81,0.98,1.52*0D
$GPGSV,3,1,11,02,50,166,38,05,46,089,32,12,59,084,31,15,07,033,29*78
$GPGSV,3,2,11,18,46,296,33,20,21,128,30,23,10,344,31,24,20,003,33*71
$GPGSV,3,3,11,25,66,180,36,29,37,204,34,31,12,230,20*4E
$GPGLL,1559.36524,S,04802.61556,W,185910.00,A,A*63
$GPGRS,185910.00,1,1.3,1.3,-1.0,1.1,1.0,0.6,3.2,0.0,3.0,-1.3,,*4C
$GPGST,185910.00,23,,,,2.8,3.3,6.8*56
$GPZDA,185910.00,19,09,2022,00,00*61
$GPGBS,185910.00,2.8,3.3,6.8,,,,*41
$PUBX,00,185910.00,1559.36524,S,04802.61556,W,1202.777,G3,4.3,6.8,0.035,0.00,-0.002,,0.98,1.
$PUBX,03,11,2,U,166,50,38,002,5,U,089,46,32,000,12,U,084,59,31,002,15,U,033,07,29,000,18,U,2
$PUBX,04,185910.00,190922,154750.00,2228,18,-692727,-3722.205,21*22
$GPDTM,W84,,0.0,N,0.0,E,0.0,W84*6F
$GPRMC,185911.00,A,1559.36521,S,04802.61557,W,0.063,,190922,,,A*7B
$GPVTG,,T,,M,0.063,N,0.117,K,A*21
$GPGGA,185911.00,1559.36521,S,04802.61557,W,1,10,0.98,1214.7,M,-11.7,M,,*48
$GPGSA,A,3,25,12,02,18,05,29,20,24,23,15,,,1.81,0.98,1.52*0D
$GPGSV,3,1,11,02,50,166,38,05,46,089,32,12,59,084,32,15,07,033,33*70
$GPGSV,3,2,11,18,46,296,33,20,21,128,30,23,10,344,34,24,20,003,33*74
$GPGSV,3,3,11,25,66,180,37,29,37,204,36,31,12,230,21*4C
$GPGLL,1559.36521,S,04802.61557,W,185911.00,A,A*66
$GPGRS,185911.00,1,1.4,1.7,-0.6,0.6,0.9,1.0,3.0,0.0,2.7,-1.0,,*47
$GPGST,185911.00,21,,,,2.7,3.3,6.8*5A
$GPZDA,185911.00,19,09,2022,00,00*60
$GPGBS,185911.00,2.7,3.3,6.8,,,,*4F
$PUBX,00,185911.00,1559.36521,S,04802.61557,W,1202.913,G3,4.3,6.8,0.117,0.00,-0.045,,0.98,1.
$PUBX,03,11,2,U,166,50,38,003,5,U,089,46,32,000,12,U,084,59,32,000,15,U,033,07,33,000,18,U,2
$PUBX,04,185911.00,190922,154751.00,2228,18,-696444,-3712.134,21*22
$GPDTM,W84,,0.0,N,0.0,E,0.0,W84*6F
$GPRMC,185912.00,A,1559.36520,S,04802.61558,W,0.056,,190922,,,A*70
$GPVTG,,T,,M,0.056,N,0.104,K,A*25
$GPGGA,185912.00,1559.36520,S,04802.61558,W,1,10,0.98,1214.7,M,-11.7,M,,*45
$GPGSA,A,3,25,12,02,18,05,29,20,24,23,15,,,1.81,0.98,1.52*0D
$GPGSV,3,1,11,02,50,166,38,05,46,089,32,12,59,084,33,15,07,033,29*7A
$GPGSV,3,2,11,18,46,296,34,20,21,128,28,23,10,344,32,24,20,003,32*7D
$GPGSV,3,3,11,25,66,180,37,29,37,204,31,31,12,230,19*40
$GPGLL,1559.36520,S,04802.61558,W,185912.00,A,A*6B
$GPGRS,185912.00,1,1.1,1.5,-0.5,0.4,0.7,1.0,2.6,0.0,2.6,-0.1,,*4A
$GPGST,185912.00,23,,,,2.7,3.3,6.8*5B
$GPZDA,185912.00,19,09,2022,00,00*63
$GPGBS,185912.00,2.7,3.3,6.8,,,,*4C
$PUBX,00,185912.00,1559.36520,S,04802.61558,W,1203.000,G3,4.3,6.8,0.104,0.00,-0.048,,0.98,1.
$PUBX,03,11,2,U,166,50,38,004,5,U,089,46,32,001,12,U,084,59,33,000,15,U,033,07,29,000,18,U,2
$PUBX,04,185912.00,190922,154752.00,2228,18,-700148,-3698.625,21*21
$GPDTM,W84,,0.0,N,0.0,E,0.0,W84*6F
$GPRMC,185913.00,A,1559.36519,S,04802.61559,W,0.064,,190922,,,A*7B
$GPVTG,,T,,M,0.064,N,0.119,K,A*28
$GPGGA,185913.00,1559.36519,S,04802.61559,W,1,10,0.98,1214.8,M,-11.7,M,,*40
$GPGSA,A,3,25,12,02,18,05,29,20,24,23,15,,,1.81,0.98,1.52*0D
$GPGSV,3,1,11,02,50,166,37,05,46,089,31,12,59,084,32,15,07,033,30*7F
$GPGSV,3,2,11,18,46,296,33,20,21,128,29,23,10,344,32,24,20,003,32*7B
$GPGSV,3,3,11,25,66,180,37,29,37,204,32,31,12,230,18*42
$GPGLL,1559.36519,S,04802.61559,W,185913.00,A,A*61
$GPGRS,185913.00,1,1.0,1.8,0.3,0.7,1.0,1.3,4.2,0.6,3.1,-0.2,,*6B
$GPGST,185913.00,23,,,,2.8,3.3,6.8*55
$GPZDA,185913.00,19,09,2022,00,00*62
$GPGBS,185913.00,2.8,3.3,6.8,,,,*42
$PUBX,00,185913.00,1559.36519,S,04802.61559,W,1203.025,G3,4.3,6.8,0.119,0.00,-0.048,,0.98,1.
$PUBX,03,11,2,U,166,50,37,005,5,U,089,46,31,000,12,U,084,59,32,000,15,U,033,07,30,000,18,U,2
$GPTXT,01,01,00,txbuf alloc*7F
$GPDTM,W84,,0.0,N,0.0,E,0.0,W84*6F
$GPRMC,185914.00,A,1559.36519,S,04802.61558,W,0.076,,190922,,,A*7E
$GPVTG,,T,,M,0.076,N,0.142,K,A*25
$GPGGA,185914.00,1559.36519,S,04802.61558,W,1,10,0.98,1214.8,M,-11.7,M,,*46
$GPGSA,A,3,25,12,02,18,05,29,20,24,23,15,,,1.81,0.98,1.52*0D
$GPGSV,3,1,11,02,50,166,37,05,46,089,32,12,59,084,31,15,07,033,28*76
$GPGSV,3,2,11,18,46,296,34,20,21,128,30,23,10,344,32,24,20,003,32*74
$GPGSV,3,3,11,25,66,180,36,29,37,204,33,31,12,230,15*4F
$GPGLL,1559.36519,S,04802.61558,W,185914.00,A,A*67
$GPGRS,185914.00,1,1.3,2.6,0.6,0.8,1.6,1.6,1.5,1.0,3.8,-1.2,,*66
$GPGST,185914.00,23,,,,2.8,3.3,6.8*52
$GPZDA,185914.00,19,09,2022,00,00*65
$GPGBS,185914.00,2.8,3.3,6.8,,,,*45
$PUBX,00,185914.00,1559.36519,S,04802.61558,W,1203.012,G3,4.3,6.8,0.142,0.00,-0.021,,0.98,1.
$GPDTM,W84,,0.0,N,0.0,E,0.0,W84*6F
$GPRMC,185915.00,A,1559.36519,S,04802.61557,W,0.019,,190922,,,A*79
$GPVTG,,T,,M,0.019,N,0.036,K,A*2E
$GPGGA,185915.00,1559.36519,S,04802.61557,W,1,10,0.98,1214.7,M,-11.7,M,,*47
$GPGSA,A,3,25,12,02,18,05,29,20,24,23,15,,,1.81,0.98,1.52*0D
$GPGSV,3,1,11,02,50,166,37,05,46,089,33,12,59,084,31,15,07,033,28*77
$GPGSV,3,2,11,18,46,296,34,20,21,128,30,23,10,344,32,24,20,003,32*74
$GPGSV,3,3,11,25,66,180,35,29,37,204,33,31,12,230,12*4B
$GPGLL,1559.36519,S,04802.61557,W,185915.00,A,A*69
$GPGRS,185915.00,1,0.7,2.5,0.1,-0.2,0.9,1.3,1.1,1.1,3.4,-1.9,,*48
$GPGST,185915.00,23,,,,2.7,3.3,6.8*5C
$GPZDA,185915.00,19,09,2022,00,00*64
$GPGBS,185915.00,2.7,3.3,6.8,,,,*4B
$PUBX,00,185915.00,1559.36519,S,04802.61557,W,1202.971,G3,4.3,6.8,0.036,0.00,0.001,,0.98,1.5
$GPDTM,W84,,0.0,N,0.0,E,0.0,W84*6F
$GPRMC,185916.00,A,1559.36518,S,04802.61557,W,0.026,,190922,,,A*77
$GPVTG,,T,,M,0.026,N,0.049,K,A*2A
$GPGGA,185916.00,1559.36518,S,04802.61557,W,1,10,0.98,1214.7,M,-11.7,M,,*45
$GPGSA,A,3,25,12,02,18,05,29,20,24,23,15,,,1.81,0.98,1.52*0D
$GPGSV,3,1,11,02,50,166,38,05,46,089,33,12,59,084,31,15,07,033,28*78
$GPGSV,3,2,11,18,46,296,34,20,21,128,30,23,10,344,32,24,20,003,33*75
$GPGSV,3,3,11,25,66,180,36,29,37,204,34,31,12,230,10*4D
$GPGLL,1559.36518,S,04802.61557,W,185916.00,A,A*6B
$GPGRS,185916.00,1,0.2,1.7,-0.1,-0.3,0.5,1.3,0.2,0.5,3.1,-3.0,,*66
$GPGST,185916.00,23,,,,2.7,3.2,6.7*51
$GPZDA,185916.00,19,09,2022,00,00*67
$GPGBS,185916.00,2.7,3.2,6.7,,,,*46
$GPDTM,W84,,0.0,N,0.0,E,0.0,W84*6F
$GPRMC,185917.00,A,1559.36516,S,04802.61558,W,0.040,,190922,,,A*77
$GPVTG,,T,,M,0.040,N,0.073,K,A*23
$GPGGA,185917.00,1559.36516,S,04802.61558,W,1,10,0.98,1214.7,M,-11.7,M,,*45
$GPGSA,A,3,25,12,02,18,05,29,20,24,23,15,,,1.81,0.98,1.52*0D
$GPGSV,3,1,11,02,50,166,39,05,46,089,32,12,59,084,34,15,07,033,32*76
$GPGSV,3,2,11,18,46,296,35,20,21,128,33,23,10,344,34,24,20,003,32*70
$GPGSV,3,3,11,25,66,180,36,29,37,204,36,31,12,230,09*47
$GPGLL,1559.36516,S,04802.61558,W,185917.00,A,A*6B
$GPGRS,185917.00,1,0.2,0.9,-1.1,-0.7,0.6,1.2,-1.0,0.4,2.7,-1.4,,*41
$GPGST,185917.00,20,,,,2.7,3.2,6.7*53
$GPZDA,185917.00,19,09,2022,00,00*66
$GPGBS,185917.00,2.7,3.2,6.7,,,,*47
$PUBX,00,185917.00,1559.36516,S,04802.61558,W,1202.981,G3,4.2,6.7,0.073,0.00,0.009,,0.98,1.5
$GPDTM,W84,,0.0,N,0.0,E,0.0,W84*6F
$GPRMC,185918.00,A,1559.36514,S,04802.61565,W,0.286,,190922,,,A*7C
$GPVTG,,T,,M,0.286,N,0.529,K,A*21
$GPGGA,185918.00,1559.36514,S,04802.61565,W,1,10,0.98,1214.9,M,-11.7,M,,*48
$GPGSA,A,3,25,12,02,18,05,29,20,24,23,15,,,1.81,0.98,1.52*0D
$GPGSV,3,1,11,02,50,166,38,05,46,089,34,12,59,084,35,15,07,033,32*70
$GPGSV,3,2,11,18,46,296,34,20,21,128,33,23,10,344,35,24,20,003,36*74
$GPGSV,3,3,11,25,66,180,37,29,37,204,36,31,12,230,08*47
$GPGLL,1559.36514,S,04802.61565,W,185918.00,A,A*68
$GPGRS,185918.00,1,0.2,0.1,-2.0,-0.8,-0.1,0.7,-0.8,-0.4,2.1,-2.5,,*45
$GPGST,185918.00,19,,,,2.7,3.2,6.7*56
$GPZDA,185918.00,19,09,2022,00,00*69
$GPGBS,185918.00,2.7,3.2,6.7,,,,*48
$PUBX,00,185918.00,1559.36514,S,04802.61565,W,1203.204,G3,4.2,6.7,0.529,0.00,-0.075,,0.98,1.
$PUBX,03,11,2,U,166,50,38,001,5,U,089,46,34,000,12,U,084,59,35,000,15,U,033,07,32,000,18,U,2
$GPTXT,01,01,00,txbuf alloc*7F
$GPDTM,W84,,0.0,N,0.0,E,0.0,W84*6F
$GPRMC,185919.00,A,1559.36512,S,04802.61571,W,0.151,,190922,,,A*77
$GPVTG,,T,,M,0.151,N,0.279,K,A*2A
$GPGGA,185919.00,1559.36512,S,04802.61571,W,1,10,0.98,1215.1,M,-11.7,M,,*43
$GPGSA,A,3,25,12,02,18,05,29,20,24,23,15,,,1.81,0.98,1.52*0D
$GPGSV,3,1,11,02,50,166,36,05,46,089,32,12,59,084,31,15,07,033,27*78
$GPGSV,3,2,11,18,46,296,33,20,21,128,31,23,10,344,32,24,20,003,31*71
$GPGSV,3,3,11,25,66,180,35,29,37,204,33,31,12,230,*48
$GPGLL,1559.36512,S,04802.61571,W,185919.00,A,A*6A
$GPGRS,185919.00,1,1.4,1.2,-0.5,0.1,1.5,1.6,0.2,0.7,3.3,-1.0,,*46
$GPGST,185919.00,24,,,,2.7,3.2,6.7*59
$GPZDA,185919.00,19,09,2022,00,00*68
$GPGBS,185919.00,2.7,3.2,6.7,,,,*49
$PUBX,00,185919.00,1559.36512,S,04802.61571,W,1203.351,G3,4.2,6.7,0.279,0.00,-0.106,,0.98,1.
$GPDTM,W84,,0.0,N,0.0,E,0.0,W84*6F
$GPRMC,185920.00,A,1559.36510,S,04802.61562,W,0.504,,190922,,,A*79
$GPVTG,,T,,M,0.504,N,0.934,K,A*2C
$GPGGA,185920.00,1559.36510,S,04802.61562,W,1,10,0.98,1215.0,M,-11.7,M,,*48
$GPGSA,A,3,25,12,02,18,05,29,20,24,23,15,,,1.81,0.98,1.51*0E
$GPGSV,3,1,11,02,50,166,42,05,46,089,35,12,59,084,37,15,07,033,33*7F
$GPGSV,3,2,11,18,46,296,38,20,21,128,32,23,10,344,38,24,20,003,37*75
$GPGSV,3,3,11,25,66,180,40,29,37,204,37,31,12,230,*4E
$GPGLL,1559.36510,S,04802.61562,W,185920.00,A,A*60
$GPGRS,185920.00,1,2.3,1.4,0.0,0.6,1.7,1.7,1.5,1.0,3.3,0.7,,*49
$GPGST,185920.00,17,,,,2.7,3.2,6.6*52
$GPZDA,185920.00,19,09,2022,00,00*62
$GPGBS,185920.00,2.7,3.2,6.6,,,,*42
$PUBX,00,185920.00,1559.36510,S,04802.61562,W,1203.208,G3,4.2,6.6,0.934,0.00,0.025,,0.98,1.5
$PUBX,03,11,2,U,166,50,42,000,5,U,089,46,35,000,12,U,084,59,37,000,15,U,033,07,33,000,18,U,2
$PUBX,04,185920.00,190922,154760.00,2228,18,-729663,-3703.636,21*25
$GPDTM,W84,,0.0,N,0.0,E,0.0,W84*6F
$GPRMC,185921.00,A,1559.36509,S,04802.61557,W,0.099,,190922,,,A*77
$GPVTG,,T,,M,0.099,N,0.183,K,A*29
$GPGGA,185921.00,1559.36509,S,04802.61557,W,1,10,0.98,1214.9,M,-11.7,M,,*4F
$GPGSA,A,3,25,12,02,18,05,29,20,24,23,15,,,1.81,0.98,1.51*0E
$GPGSV,3,1,11,02,50,166,37,05,46,089,32,12,59,084,33,15,07,033,31*7C
$GPGSV,3,2,11,18,46,296,34,20,21,128,31,23,10,344,33,24,20,003,32*74
$GPGSV,3,3,11,25,66,180,36,29,37,204,34,31,12,230,*4C
$GPGLL,1559.36509,S,04802.61557,W,185921.00,A,A*6F
$GPGRS,185921.00,1,-0.1,-0.8,-2.3,-1.5,-0.4,-0.2,-1.0,-1.2,1.2,-2.1,,*6D
$GPGST,185921.00,22,,,,2.7,3.2,6.6*55
$GPZDA,185921.00,19,09,2022,00,00*63
$GPGBS,185921.00,2.7,3.2,6.6,,,,*43
$PUBX,00,185921.00,1559.36509,S,04802.61557,W,1203.128,G3,4.2,6.6,0.183,0.00,0.055,,0.98,1.5
$PUBX,03,11,2,U,166,50,37,000,5,U,089,46,32,000,12,U,084,59,33,000,15,U,033,07,31,000,18,U,2
$PUBX,04,185921.00,190922,154761.00,2228,18,-733355,-3683.377,21*27
$GPDTM,W84,,0.0,N,0.0,E,0.0,W84*6F
$GPRMC,185922.00,A,1559.36507,S,04802.61557,W,0.016,,190922,,,A*7D
$GPVTG,,T,,M,0.016,N,0.030,K,A*27
$GPGGA,185922.00,1559.36507,S,04802.61557,W,1,10,0.98,1215.0,M,-11.7,M,,*4A
$GPGSA,A,3,25,12,02,18,05,29,20,24,23,15,,,1.81,0.98,1.51*0E
$GPGSV,3,1,11,02,50,166,37,05,46,089,31,12,59,084,33,15,07,033,30*7E
$GPGSV,3,2,11,18,46,296,33,20,21,128,30,23,10,344,33,24,20,003,32*72
$GPGSV,3,3,11,25,66,180,35,29,37,204,33,31,12,230,*48
$GPGLL,1559.36507,S,04802.61557,W,185922.00,A,A*62
$GPGRS,185922.00,1,0.1,-0.9,-2.1,-1.8,-0.8,-0.2,-1.1,-1.3,1.1,-0.4,,*45
$GPGST,185922.00,23,,,,2.7,3.2,6.6*57
$GPZDA,185922.00,19,09,2022,00,00*60
$GPGBS,185922.00,2.7,3.2,6.6,,,,*40
$PUBX,00,185922.00,1559.36507,S,04802.61557,W,1203.209,G3,4.2,6.6,0.030,0.00,0.001,,0.98,1.5
$PUBX,03,11,2,U,166,50,37,001,5,U,089,46,31,000,12,U,084,59,33,001,15,U,033,07,30,000,18,U,2
$PUBX,04,185922.00,190922,154762.00,2228,18,-737032,-3672.556,21*2A
$GPTXT,01,01,00,txbuf alloc*7F
$GPDTM,W84,,0.0,N,0.0,E,0.0,W84*6F
$GPRMC,185923.00,A,1559.36506,S,04802.61558,W,0.030,,190922,,,A*76
$GPVTG,,T,,M,0.030,N,0.056,K,A*23
$GPGGA,185923.00,1559.36506,S,04802.61558,W,1,10,0.98,1214.9,M,-11.7,M,,*4D
$GPGSA,A,3,25,12,02,18,05,29,20,24,23,15,,,1.81,0.98,1.51*0E
$GPGSV,3,1,11,02,49,166,37,05,46,089,32,12,59,084,32,15,07,033,29*7C
$GPGSV,3,2,11,18,46,296,32,20,21,128,29,23,10,344,33,24,20,003,31*78
$GPGSV,3,3,11,25,66,180,34,29,37,204,33,31,12,230,*49
$GPGLL,1559.36506,S,04802.61558,W,185923.00,A,A*6D
$GPGRS,185923.00,1,1.4,0.3,-1.3,-0.7,0.0,1.0,-0.4,-0.3,2.5,1.0,,*49
$GPGST,185923.00,24,,,,2.7,3.2,6.6*51
$GPZDA,185923.00,19,09,2022,00,00*61
$GPGBS,185923.00,2.7,3.2,6.6,,,,*41
$PUBX,00,185923.00,1559.36506,S,04802.61558,W,1203.190,G3,4.2,6.6,0.056,0.00,0.003,,0.98,1.5
$PUBX,03,11,2,U,166,49,37,002,5,U,089,46,32,000,12,U,084,59,32,000,15,U,033,07,29,000,18,U,2
$GPDTM,W84,,0.0,N,0.0,E,0.0,W84*6F
$GPRMC,185924.00,A,1559.36506,S,04802.61559,W,0.018,,190922,,,A*7A
$GPVTG,,T,,M,0.018,N,0.033,K,A*2A
$GPGGA,185924.00,1559.36506,S,04802.61559,W,1,10,0.98,1214.9,M,-11.7,M,,*4B
$GPGSA,A,3,25,12,02,18,05,29,20,24,23,15,,,1.81,0.98,1.51*0E
$GPGSV,3,1,11,02,49,166,37,05,46,089,31,12,59,084,31,15,07,033,28*7D
$GPGSV,3,2,11,18,46,296,31,20,21,128,21,23,10,344,32,24,20,003,30*73
$GPGSV,3,3,11,25,66,180,34,29,37,204,33,31,12,230,*49
$GPGLL,1559.36506,S,04802.61559,W,185924.00,A,A*6B
$GPGRS,185924.00,1,2.0,0.6,-0.5,0.1,0.2,1.7,0.4,-0.2,3.1,0.3,,*4E
$GPGST,185924.00,29,,,,2.7,3.2,6.7*5A
$GPZDA,185924.00,19,09,2022,00,00*66
$GPGBS,185924.00,2.7,3.2,6.7,,,,*47
$PUBX,00,185924.00,1559.36506,S,04802.61559,W,1203.161,G3,4.2,6.7,0.033,0.00,0.009,,0.98,1.5
$PUBX,03,11,2,U,166,49,37,003,5,U,089,46,31,001,12,U,084,59,31,000,15,U,033,07,28,000,18,U,2
$PUBX,04,185924.00,190922,154764.00,2228,18,-744393,-3687.661,21*2B
$GPDTM,W84,,0.0,N,0.0,E,0.0,W84*6F
$GPRMC,185925.00,A,1559.36507,S,04802.61557,W,0.162,,190922,,,A*78
$GPVTG,,T,,M,0.162,N,0.301,K,A*24
$GPGGA,185925.00,1559.36507,S,04802.61557,W,1,10,0.98,1214.9,M,-11.7,M,,*45
$GPGSA,A,3,25,12,02,18,05,29,20,24,23,15,,,1.80,0.98,1.51*0F
$GPGSV,3,1,11,02,49,166,39,05,46,089,36,12,59,084,34,15,07,033,31*79
$GPGSV,3,2,11,18,46,296,36,20,21,128,31,23,10,344,36,24,20,003,34*75
$GPGSV,3,3,11,25,66,180,37,29,37,204,35,31,12,230,17*4A
$GPGLL,1559.36507,S,04802.61557,W,185925.00,A,A*65
$GPGRS,185925.00,1,0.8,-0.5,-1.3,-1.0,-1.0,0.8,0.8,-1.4,1.7,-0.8,,*48
$GPGST,185925.00,20,,,,2.7,3.2,6.6*53
$GPZDA,185925.00,19,09,2022,00,00*67
$GPGBS,185925.00,2.7,3.2,6.6,,,,*47
$PUBX,00,185925.00,1559.36507,S,04802.61557,W,1203.105,G3,4.2,6.6,0.301,0.00,0.015,,0.98,1.5
$GPDTM,W84,,0.0,N,0.0,E,0.0,W84*6F
$GPRMC,185926.00,A,1559.36508,S,04802.61555,W,0.026,,190922,,,A*77
$GPVTG,,T,,M,0.026,N,0.049,K,A*2A
$GPGGA,185926.00,1559.36508,S,04802.61555,W,1,10,1.08,1214.8,M,-11.7,M,,*42
$GPGSA,A,3,25,12,02,18,05,29,20,24,23,15,,,2.11,1.08,1.81*01
$GPGSV,3,1,11,02,49,166,42,05,46,090,35,12,59,084,36,15,07,033,34*79
$GPGSV,3,2,11,18,46,296,38,20,21,128,32,23,10,344,37,24,20,003,35*78
$GPGSV,3,3,11,25,66,180,39,29,37,204,36,31,12,230,21*42
$GPGLL,1559.36508,S,04802.61555,W,185926.00,A,A*6B
$GPGRS,185926.00,1,0.5,-1.3,-1.9,-2.3,-1.8,-0.2,-0.7,-2.5,0.7,-1.7,,*4B
$GPGST,185926.00,18,,,,2.7,3.1,6.5*5B
$GPZDA,185926.00,19,09,2022,00,00*64
$GPGBS,185926.00,2.7,3.1,6.5,,,,*44
$PUBX,00,185926.00,1559.36508,S,04802.61555,W,1203.064,G3,4.1,6.5,0.049,0.00,0.035,,1.08,1.8
$GPDTM,W84,,0.0,N,0.0,E,0.0,W84*6F
$GPRMC,185927.00,A,1559.36509,S,04802.61558,W,0.072,,190922,,,A*7B
$GPVTG,,T,,M,0.072,N,0.134,K,A*20
$GPGGA,185927.00,1559.36509,S,04802.61558,W,1,10,0.98,1214.8,M,-11.7,M,,*47
$GPGSA,A,3,25,12,02,18,05,29,20,24,23,15,,,1.80,0.98,1.51*0F
$GPGSV,3,1,11,02,49,166,38,05,46,090,34,12,59,084,33,15,07,033,31*75
$GPGSV,3,2,11,18,46,296,35,20,21,128,31,23,10,344,34,24,20,003,32*72
$GPGSV,3,3,11,25,66,180,37,29,37,204,33,31,12,230,19*42
$GPGLL,1559.36509,S,04802.61558,W,185927.00,A,A*66
$GPGRS,185927.00,1,0.9,-1.6,-1.4,-1.8,-1.3,0.1,-1.7,-2.2,0.8,-1.0,,*6D
$GPGST,185927.00,21,,,,2.7,3.1,6.5*50
$GPZDA,185927.00,19,09,2022,00,00*65
$GPGBS,185927.00,2.7,3.1,6.5,,,,*45
$GPTXT,01,01,00,txbuf alloc*7F
$GPDTM,W84,,0.0,N,0.0,E,0.0,W84*6F
$GPRMC,185928.00,A,1559.36509,S,04802.61562,W,0.090,,190922,,,A*71
$GPVTG,,T,,M,0.090,N,0.167,K,A*2A
$GPGGA,185928.00,1559.36509,S,04802.61562,W,1,10,0.98,1214.9,M,-11.7,M,,*40
$GPGSA,A,3,25,12,02,18,05,29,20,24,23,15,,,1.80,0.98,1.51*0F
$GPGSV,3,1,11,02,49,166,36,05,46,090,32,12,59,084,33,15,07,033,30*7C
$GPGSV,3,2,11,18,46,296,34,20,21,128,31,23,10,344,33,24,20,003,32*74
$GPGSV,3,3,11,25,66,180,36,29,37,204,33,31,12,230,13*49
$GPGLL,1559.36509,S,04802.61562,W,185928.00,A,A*60
$GPGRS,185928.00,1,2.1,-0.7,-0.3,-0.3,-0.2,1.2,0.1,-0.9,1.7,-1.2,,*49
