$GPGGA,013821.44,1550.510473,S,04801.901890,W,1,00,    ,1182.09,M,0.0,M,0.0,0000*58
$GPGSV,2,1,7,8,48,249,35.2,10,21,139,13.5,16,12,337,28.2,22,84,117,21.6*79
$GPGSV,2,2,7,27,63,317,36.7,31,29,037,35.0,32,52,146,22.7*6E
$GPRMC,013821.44,A,1550.510473,S,04801.901890,W,001.3,105.2,220922,,,A*54
$GPGGA,013822.44,1550.510611,S,04801.901411,W,1,00,    ,1182.26,M,0.0,M,0.0,0000*55
$GPGSV,2,1,8,8,48,249,32.6,10,21,139,19.0,16,12,337,24.1,21,22,213,17.8*76
$GPGSV,2,2,8,22,84,117,20.6,27,63,317,33.4,31,29,037,35.4,32,52,146,23.6*42
$GPRMC,013822.44,A,1550.510611,S,04801.901411,W,001.6,093.2,220922,,,A*5F
$GPGGA,013823.44,1550.510577,S,04801.900823,W,1,00,    ,1182.12,M,0.0,M,0.0,0000*5C
$GPGSV,2,1,7,8,48,249,30.0,16,12,337,26.0,21,22,213,17.8,22,84,117,22.3*77
$GPGSV,2,2,7,27,63,317,18.9,31,29,037,31.6,32,52,146,25.6*68
$GPRMC,013823.44,A,1550.510577,S,04801.900823,W,002.9,091.4,220922,,,A*59
$GPGGA,013824.44,1550.510372,S,04801.899973,W,1,00,    ,1183.24,M,0.0,M,0.0,0000*59
$GPGSV,2,1,8,8,48,249,29.6,10,21,139,17.1,16,12,337,26.2,21,22,213,18.0*75
$GPGSV,2,2,8,22,84,117,20.3,27,63,317,26.7,31,29,037,32.7,32,52,146,24.4*41
$GPRMC,013824.44,A,1550.510372,S,04801.899973,W,003.7,089.9,220922,,,A*53
$GPGGA,013825.44,1550.510557,S,04801.898844,W,1,00,    ,1182.90,M,0.0,M,0.0,0000*53
$GPGSV,2,1,7,8,48,249,32.0,10,21,139,18.5,16,12,337,26.7,22,84,117,18.8*78
$GPGSV,2,2,7,27,63,317,28.4,31,29,037,33.3,32,52,146,23.4*65
$GPRMC,013825.44,A,1550.510557,S,04801.898844,W,005.3,094.6,220922,,,A*56
$GPGGA,013826.44,1550.510666,S,04801.897637,W,1,00,    ,1182.74,M,0.0,M,0.0,0000*5E
$GPGSV,2,1,5,8,48,249,30.5,16,12,337,25.2,27,63,317,27.8,31,29,037,37.8*7D
$GPGSV,2,2,5,32,52,146,22.4*63
$GPRMC,013826.44,A,1550.510666,S,04801.897637,W,005.3,086.3,220922,,,A*57
$GPGGA,013827.44,1550.510748,S,04801.895983,W,1,00,    ,1182.18,M,0.0,M,0.0,0000*5A
$GPGSV,2,1,6,8,48,249,29.3,16,12,337,24.1,22,84,117,19.0,27,63,317,28.0*77
$GPGSV,2,2,6,31,29,037,39.6,32,52,146,23.3*49
$GPRMC,013827.44,A,1550.510748,S,04801.895983,W,005.2,085.1,220922,,,A*59
$GPGGA,013828.44,1550.510736,S,04801.894117,W,1,00,    ,1183.32,M,0.0,M,0.0,0000*51
$GPGSV,2,1,7,8,48,249,32.8,10,21,139,16.4,16,12,337,22.5,22,84,117,20.6*7C
$GPGSV,2,2,7,27,63,317,28.3,31,29,037,30.1,32,52,146,30.2*67
$GPRMC,013828.44,A,1550.510736,S,04801.894117,W,006.5,087.3,220922,,,A*5F
$GPGGA,013829.44,1550.510663,S,04801.892234,W,1,00,    ,1183.00,M,0.0,M,0.0,0000*54
$GPGSV,2,1,8,8,48,249,31.7,10,21,139,18.2,16,12,337,23.9,21,22,213,14.9*7A
$GPGSV,2,2,8,22,84,117,19.7,27,63,317,29.5,31,29,038,22.2,32,52,146,29.7*47
$GPRMC,013829.44,A,1550.510663,S,04801.892234,W,007.0,092.7,220922,,,A*5F
$GPGGA,013830.44,1550.510731,S,04801.890391,W,1,00,    ,1183.18,M,0.0,M,0.0,0000*5F
$GPGSV,2,1,7,8,48,249,29.1,10,21,139,18.4,16,12,337,25.7,22,84,117,22.0*70
$GPGSV,2,2,7,27,63,317,33.6,31,29,038,22.7,32,52,146,25.6*62
$GPRMC,013830.44,A,1550.510731,S,04801.890391,W,006.1,088.8,220922,,,A*59
$GPGGA,013831.44,1550.510731,S,04801.888332,W,1,00,    ,1182.71,M,0.0,M,0.0,0000*50
$GPGSV,2,1,6,8,48,249,33.2,16,12,337,27.6,22,84,118,22.1,27,63,317,35.1*72
$GPGSV,2,2,6,31,29,038,22.1,32,52,146,31.2*49
$GPRMC,013831.44,A,1550.510731,S,04801.888332,W,006.7,087.6,220922,,,A*5F
$GPGGA,013832.44,1550.510999,S,04801.886242,W,1,00,    ,1182.61,M,0.0,M,0.0,0000*56
$GPGSV,2,1,7,8,48,249,34.6,16,12,337,22.9,21,22,213,15.7,22,84,118,23.3*7B
$GPGSV,2,2,7,27,63,317,34.3,31,29,038,26.4,32,52,146,32.2*65
$GPRMC,013832.44,A,1550.510999,S,04801.886242,W,006.8,082.9,220922,,,A*5D
$GPGGA,013833.44,1550.510849,S,04801.884224,W,1,00,    ,1183.25,M,0.0,M,0.0,0000*58
$GPGSV,2,1,6,8,48,249,28.2,16,12,337,25.0,22,84,118,24.4,27,63,317,28.6*74
$GPGSV,2,2,6,31,29,038,34.8,32,52,146,31.6*43
$GPRMC,013833.44,A,1550.510849,S,04801.884224,W,006.2,077.6,220922,,,A*5D
$GPGGA,013834.44,1550.510536,S,04801.882448,W,1,00,    ,1183.36,M,0.0,M,0.0,0000*52
$GPGSV,2,1,6,8,48,249,34.6,16,12,337,21.8,21,22,213,15.9,22,84,118,24.1*73
$GPGSV,2,2,6,31,29,038,38.4,32,52,146,29.6*4A
$GPRMC,013834.44,A,1550.510536,S,04801.882448,W,005.3,070.8,220922,,,A*5E
$GPGGA,013835.44,1550.509820,S,04801.881041,W,1,00,    ,1181.62,M,0.0,M,0.0,0000*5C
$GPGSV,2,1,6,8,48,249,27.2,16,12,337,20.9,22,84,118,28.8,27,63,318,17.3*71
$GPGSV,2,2,6,31,29,038,34.3,32,52,146,32.1*4C
$GPRMC,013835.44,A,1550.509820,S,04801.881041,W,004.7,010.5,220922,,,A*5D
$GPGGA,013836.44,1550.508854,S,04801.880708,W,1,00,    ,1181.61,M,0.0,M,0.0,0000*55
$GPGSV,2,1,6,8,48,249,22.1,16,12,337,25.5,22,84,118,29.6,27,63,318,34.2*71
$GPGSV,2,2,6,31,29,038,28.4,32,52,146,37.4*46
$GPRMC,013836.44,A,1550.508854,S,04801.880708,W,005.0,006.5,220922,,,A*56
$GPGGA,013837.44,1550.507300,S,04801.880504,W,1,00,    ,1179.68,M,0.0,M,0.0,0000*51
$GPGSV,2,1,7,8,48,249,20.7,16,12,337,28.6,21,22,213,16.2,22,84,118,28.8*7C
$GPGSV,2,2,7,27,63,318,35.9,31,29,038,33.5,32,52,146,37.0*63
$GPRMC,013837.44,A,1550.507300,S,04801.880504,W,007.4,005.1,220922,,,A*5D
$GPGGA,013838.44,1550.505236,S,04801.880069,W,1,00,    ,1178.92,M,0.0,M,0.0,0000*52
$GPGSV,2,1,8,8,48,249,20.0,10,21,139,13.9,16,12,337,27.5,21,22,213,18.1*71
$GPGSV,2,2,8,22,84,118,30.6,27,63,318,31.6,31,29,038,29.2,32,52,146,38.6*4D
$GPRMC,013838.44,A,1550.505236,S,04801.880069,W,008.1,006.0,220922,,,A*52
$GPGGA,013839.44,1550.503228,S,04801.879970,W,1,00,    ,1177.22,M,0.0,M,0.0,0000*59
$GPGSV,2,1,7,8,48,249,19.2,10,21,139,19.7,16,12,337,28.7,22,84,118,30.8*7B
$GPGSV,2,2,7,27,63,318,32.8,31,29,038,29.7,32,52,146,38.0*63
$GPRMC,013839.44,A,1550.503228,S,04801.879970,W,007.8,006.8,220922,,,A*53
$GPGGA,013840.44,1550.501317,S,04801.879727,W,1,00,    ,1176.30,M,0.0,M,0.0,0000*56
$GPGSV,2,1,8,8,48,249,24.6,10,21,139,25.3,16,12,337,31.9,21,22,213,19.3*74
$GPGSV,2,2,8,22,84,118,30.2,27,63,318,33.7,31,29,038,34.0,32,52,146,36.7*4B
$GPRMC,013840.44,A,1550.501317,S,04801.879727,W,006.7,013.3,220922,,,A*5F
$GPGGA,013841.44,1550.499520,S,04801.879352,W,1,00,    ,1175.53,M,0.0,M,0.0,0000*55
$GPGSV,2,1,8,8,48,249,26.0,10,21,139,23.1,16,12,337,33.2,21,22,213,21.8*7D
$GPGSV,2,2,8,22,84,118,31.2,27,63,318,34.2,31,29,038,26.2,32,52,146,32.0*4A
$GPRMC,013841.44,A,1550.499520,S,04801.879352,W,005.1,017.6,220922,,,A*5E
$GPGGA,013842.44,1550.498216,S,04801.878917,W,1,00,    ,1174.90,M,0.0,M,0.0,0000*51
$GPGSV,2,1,8,8,48,249,30.1,10,21,139,22.1,16,12,337,35.9,21,22,213,22.1*7D
$GPGSV,2,2,8,22,84,118,34.4,27,63,318,33.3,31,29,038,29.9,32,52,146,37.5*4B
$GPRMC,013842.44,A,1550.498216,S,04801.878917,W,003.5,020.2,220922,,,A*56
$GPGGA,013843.44,1550.497220,S,04801.878631,W,1,00,    ,1174.13,M,0.0,M,0.0,0000*5A
$GPGSV,2,1,8,8,48,249,25.7,10,21,139,20.0,16,12,337,36.5,21,22,213,23.5*76
$GPGSV,2,2,8,22,84,118,32.4,27,63,318,31.6,31,29,038,26.9,32,52,146,33.4*40
$GPRMC,013843.44,A,1550.497220,S,04801.878631,W,002.1,025.9,220922,,,A*5D
$GPGGA,013844.44,1550.496685,S,04801.878294,W,1,00,    ,1172.76,M,0.0,M,0.0,0000*59
$GPGSV,2,1,7,8,48,249,27.6,16,12,337,37.8,21,22,212,22.4,22,84,118,30.7*7C
$GPGSV,2,2,7,27,63,318,26.0,31,29,038,30.7,32,52,146,32.0*6C
$GPRMC,013844.44,A,1550.496685,S,04801.878294,W,003.1,037.4,220922,,,A*54
$GPGGA,013845.44,1550.496107,S,04801.877953,W,1,00,    ,1171.75,M,0.0,M,0.0,0000*5A
$GPGSV,2,1,8,8,48,249,25.8,10,21,139,18.8,16,12,337,32.7,21,22,212,25.5*7B
$GPGSV,2,2,8,22,84,118,31.4,27,63,318,31.7,31,29,038,32.2,32,52,146,29.6*45
$GPRMC,013845.44,A,1550.496107,S,04801.877953,W,002.7,034.3,220922,,,A*54
$GPGGA,013846.44,1550.495673,S,04801.877480,W,1,00,    ,1170.69,M,0.0,M,0.0,0000*51
$GPGSV,2,1,7,8,48,249,29.3,16,12,337,33.3,21,22,212,20.1,22,84,119,32.6*7D
$GPGSV,2,2,7,27,63,318,25.9,31,29,038,35.1,32,52,146,30.4*63
$GPRMC,013846.44,A,1550.495673,S,04801.877480,W,001.6,045.7,220922,,,A*53
$GPGGA,013847.44,1550.495272,S,04801.877223,W,1,00,    ,1170.75,M,0.0,M,0.0,0000*57
$GPGSV,2,1,8,8,48,249,32.9,10,21,139,18.0,16,12,337,31.6,21,22,212,20.2*74
$GPGSV,2,2,8,22,84,119,33.1,27,63,318,28.6,31,29,038,34.3,32,52,146,30.9*4A
$GPRMC,013847.44,A,1550.495272,S,04801.877223,W,002.6,037.0,220922,,,A*59
$GPGGA,013848.44,1550.494754,S,04801.876767,W,1,00,    ,1169.93,M,0.0,M,0.0,0000*5C
$GPGSV,2,1,8,8,48,249,31.0,10,21,139,24.6,16,12,337,33.1,21,22,212,22.7*75
$GPGSV,2,2,8,22,84,119,30.1,27,63,318,25.1,31,29,038,25.3,32,52,146,29.3*41
$GPRMC,013848.44,A,1550.494754,S,04801.876767,W,003.4,049.2,220922,,,A*5A
$GPGGA,013849.44,1550.494500,S,04801.875784,W,1,00,    ,1170.57,M,0.0,M,0.0,0000*50
$GPGSV,2,1,8,8,48,249,33.6,10,21,139,24.5,16,12,337,26.8,21,22,212,24.5*7B
$GPGSV,2,2,8,22,84,119,24.5,27,63,318,30.0,31,29,038,34.1,32,52,146,25.9*41
$GPRMC,013849.44,A,1550.494500,S,04801.875784,W,003.5,074.2,220922,,,A*59
$GPGGA,013850.44,1550.494297,S,04801.874438,W,1,00,    ,1170.25,M,0.0,M,0.0,0000*51
$GPGSV,2,1,8,8,48,249,27.5,10,21,139,19.3,16,12,337,28.9,21,22,212,25.6*78
$GPGSV,2,2,8,22,84,119,26.7,27,63,318,28.2,31,29,038,34.0,32,52,146,33.0*45
$GPRMC,013850.44,A,1550.494297,S,04801.874438,W,006.2,076.2,220922,,,A*5D
$GPGGA,013851.44,1550.493921,S,04801.872592,W,1,00,    ,1170.18,M,0.0,M,0.0,0000*58
$GPGSV,2,1,7,8,48,249,19.4,16,12,337,22.8,21,22,212,25.0,22,84,119,24.3*74
$GPGSV,2,2,7,27,63,318,35.9,31,29,038,35.9,32,52,146,28.3*64
$GPRMC,013851.44,A,1550.493921,S,04801.872592,W,007.6,085.8,220922,,,A*59
$GPGGA,013852.44,1550.493739,S,04801.870374,W,1,00,    ,1170.23,M,0.0,M,0.0,0000*58
$GPGSV,2,1,7,8,48,249,27.5,16,12,337,23.3,21,22,212,22.0,22,84,119,20.4*76
$GPGSV,2,2,7,27,63,318,34.8,31,29,038,33.2,32,52,146,20.3*61
$GPRMC,013852.44,A,1550.493739,S,04801.870374,W,008.2,087.9,220922,,,A*59
$GPGGA,013853.44,1550.493597,S,04801.867751,W,1,00,    ,1169.90,M,0.0,M,0.0,0000*5A
$GPGSV,2,1,8,8,48,249,27.2,10,21,139,15.4,16,12,337,22.3,21,22,212,25.3*71
$GPGSV,2,2,8,22,84,119,21.5,27,63,318,36.2,31,29,038,32.6,32,52,146,23.3*4D
$GPRMC,013853.44,A,1550.493597,S,04801.867751,W,009.7,089.3,220922,,,A*5B
$GPGGA,013854.44,1550.493416,S,04801.864745,W,1,00,    ,1170.10,M,0.0,M,0.0,0000*53
$GPGSV,2,1,6,8,48,249,25.1,21,22,212,25.2,22,84,119,23.3,27,63,318,34.0*7C
$GPGSV,2,2,6,31,29,038,33.1,32,52,146,22.9*40
$GPRMC,013854.44,A,1550.493416,S,04801.864745,W,009.8,089.9,220922,,,A*57
$GPGGA,013855.44,1550.493203,S,04801.861280,W,1,00,    ,1170.78,M,0.0,M,0.0,0000*57
$GPGSV,2,1,6,8,48,249,24.0,21,22,212,25.4,22,84,119,21.7,27,63,318,28.3*72
$GPGSV,2,2,6,31,29,038,30.5,32,52,146,25.5*4C
$GPRMC,013855.44,A,1550.493203,S,04801.861280,W,011.3,090.3,220922,,,A*5D
$GPGGA,013856.44,1550.493292,S,04801.857497,W,1,00,    ,1170.78,M,0.0,M,0.0,0000*59
$GPGSV,2,1,6,8,48,249,24.1,21,22,212,22.7,22,84,119,25.0,27,63,318,27.3*7B
$GPGSV,2,2,6,31,29,038,27.4,32,52,146,23.4*4C
$GPRMC,013856.44,A,1550.493292,S,04801.857497,W,012.4,090.5,220922,,,A*51
$GPGGA,013857.44,1550.493575,S,04801.852901,W,1,00,    ,1170.65,M,0.0,M,0.0,0000*5D
$GPGSV,2,1,7,8,48,249,26.5,16,12,337,15.0,21,22,212,21.4,22,84,119,27.6*73
$GPGSV,2,2,7,27,63,318,23.9,31,29,038,32.1,32,52,146,19.7*6A
$GPRMC,013857.44,A,1550.493575,S,04801.852901,W,015.6,095.9,220922,,,A*55
$GPGGA,013858.44,1550.494000,S,04801.848131,W,1,00,    ,1170.73,M,0.0,M,0.0,0000*55
$GPGSV,2,1,5,8,48,249,26.9,21,22,212,27.6,22,84,119,25.1,27,63,318,24.3*74
$GPGSV,2,2,5,31,29,038,23.0*61
$GPRMC,013858.44,A,1550.494000,S,04801.848131,W,016.5,096.4,220922,,,A*54
$GPGGA,013859.44,1550.494200,S,04801.843300,W,1,00,    ,1170.60,M,0.0,M,0.0,0000*5F
$GPGSV,2,1,5,8,48,249,27.4,16,12,337,19.0,21,22,212,27.8,22,84,119,23.8*7D
$GPGSV,2,2,5,27,63,318,27.6*6B
$GPRMC,013859.44,A,1550.494200,S,04801.843300,W,016.6,093.9,220922,,,A*57
$GPGGA,013900.44,1550.493969,S,04801.838572,W,1,00,    ,1170.34,M,0.0,M,0.0,0000*5F
$GPGSV,2,1,6,8,48,249,24.5,16,12,337,29.9,21,22,212,22.0,22,84,120,27.1*7C
$GPGSV,2,2,6,27,63,318,27.3,31,29,038,18.2*4A
$GPRMC,013900.44,A,1550.493969,S,04801.838572,W,016.6,091.0,220922,,,A*5D
$GPGGA,013901.44,1550.492594,S,04801.834795,W,1,00,    ,1171.01,M,0.0,M,0.0,0000*51
$GPGSV,2,1,6,8,48,249,26.4,16,12,337,30.6,21,22,212,19.0,22,84,120,22.4*70
$GPGSV,2,2,6,27,63,318,29.4,31,29,038,21.1*4A
$GPRMC,013901.44,A,1550.492594,S,04801.834795,W,014.7,080.8,220922,,,A*5F
$GPGGA,013902.44,1550.491973,S,04801.830360,W,1,00,    ,1170.91,M,0.0,M,0.0,0000*56
$GPGSV,2,1,5,8,48,249,21.7,16,12,337,24.0,22,84,120,25.0,27,63,318,30.9*7D
$GPGSV,2,2,5,32,52,146,17.3*62
$GPRMC,013902.44,A,1550.491973,S,04801.830360,W,015.1,081.9,220922,,,A*57
$GPGGA,013903.44,1550.491973,S,04801.830360,W,1,00,    ,,M,0.0,M,0.0,0000*41
$GPRMC,013903.44,A,,,,,,,220922,,,A*64
$GPGGA,013904.44,1550.490778,S,04801.821406,W,1,00,    ,1170.79,M,0.0,M,0.0,0000*55
$GPGSV,2,1,5,8,48,249,15.5,22,84,120,25.8,27,63,318,29.3,31,29,038,27.3*73
$GPGSV,2,2,5,32,52,146,28.0*6D
$GPRMC,013904.44,A,1550.490778,S,04801.821406,W,015.7,083.8,220922,,,A*57
$GPGGA,013905.44,1550.490917,S,04801.816525,W,1,00,    ,1170.70,M,0.0,M,0.0,0000*5E
$GPGSV,1,1,4,22,84,120,25.7,27,63,318,27.9,31,29,038,36.1,32,52,146,25.7*47
$GPRMC,013905.44,A,1550.490917,S,04801.816525,W,016.2,087.6,220922,,,A*59
$GPGGA,013906.44,1550.491245,S,04801.811019,W,1,00,    ,1170.60,M,0.0,M,0.0,0000*5C
$GPGSV,2,1,5,8,48,249,20.9,22,84,120,25.9,27,63,318,17.4,31,29,038,36.3*72
$GPGSV,2,2,5,32,52,146,25.1*61
$GPRMC,013906.44,A,1550.491245,S,04801.811019,W,016.9,089.5,220922,,,A*5C
$GPGGA,013907.44,1550.488811,S,04801.808056,W,1,00,    ,1170.65,M,0.0,M,0.0,0000*58
$GPGSV,2,1,6,8,48,249,24.8,21,22,212,14.4,22,84,120,25.8,27,63,318,22.0*70
$GPGSV,2,2,6,31,29,038,33.5,32,52,146,27.4*4C
$GPRMC,013907.44,A,1550.488811,S,04801.808056,W,014.8,073.1,220922,,,A*5F
$GPGGA,013908.44,1550.489486,S,04801.799707,W,1,00,    ,1170.26,M,0.0,M,0.0,0000*57
$GPGSV,2,1,5,8,48,249,26.7,22,84,120,27.3,27,63,318,32.3,31,29,038,32.9*7C
$GPGSV,2,2,5,32,52,146,24.0*61
$GPRMC,013908.44,A,1550.489486,S,04801.799707,W,018.2,088.0,220922,,,A*54
$GPGGA,013909.44,1550.489106,S,04801.793900,W,1,00,    ,1170.43,M,0.0,M,0.0,0000*5B
$GPGSV,2,1,6,8,48,249,20.9,16,12,337,18.4,22,84,120,26.0,27,63,318,31.5*74
$GPGSV,2,2,6,31,29,038,34.6,32,52,146,21.2*48
$GPRMC,013909.44,A,1550.489106,S,04801.793900,W,019.8,084.9,220922,,,A*55
$GPGGA,013910.44,1550.488799,S,04801.787558,W,1,00,    ,1170.38,M,0.0,M,0.0,0000*5A
$GPGSV,2,1,5,8,48,249,22.1,16,12,337,18.7,22,84,120,27.5,27,63,318,26.7*7E
$GPGSV,2,2,5,31,29,038,36.6*63
$GPRMC,013910.44,A,1550.488799,S,04801.787558,W,019.8,085.2,220922,,,A*52
$GPGGA,013911.44,1550.488903,S,04801.781258,W,1,00,    ,1170.43,M,0.0,M,0.0,0000*5B
$GPGSV,1,1,4,8,48,249,25.7,22,84,120,25.2,27,63,318,31.8,31,29,038,35.7*7F
$GPRMC,013911.44,A,1550.488903,S,04801.781258,W,019.8,086.8,220922,,,A*56
$GPGGA,013912.44,1550.489480,S,04801.774982,W,1,00,    ,1168.92,M,0.0,M,0.0,0000*5C
$GPGSV,1,1,4,8,48,249,27.3,22,84,120,27.1,27,63,318,34.9,31,29,038,35.5*7E
$GPRMC,013912.44,A,1550.489480,S,04801.774982,W,020.2,091.3,220922,,,A*59
$GPGGA,013913.44,1550.489894,S,04801.768821,W,1,00,    ,1168.69,M,0.0,M,0.0,0000*55
$GPGSV,1,1,4,8,48,249,19.1,22,84,120,23.1,27,63,318,36.1,31,29,038,35.1*7B
$GPRMC,013913.44,A,1550.489894,S,04801.768821,W,020.2,091.3,220922,,,A*54
$GPGGA,013914.44,1550.489894,S,04801.768821,W,1,00,    ,,M,0.0,M,0.0,0000*47
$GPRMC,013914.44,A,,,,,,,220922,,,A*62
$GPGGA,013915.44,1550.490242,S,04801.756940,W,1,00,    ,1168.38,M,0.0,M,0.0,0000*55
$GPGSV,2,1,6,8,48,249,18.8,10,21,138,13.5,16,12,337,17.6,22,84,120,22.7*72
$GPGSV,2,2,6,27,63,318,27.8,31,29,038,36.4*4B
$GPRMC,013915.44,A,1550.490242,S,04801.756940,W,020.3,091.2,220922,,,A*50
$GPGGA,013916.44,1550.490446,S,04801.751095,W,1,00,    ,1167.31,M,0.0,M,0.0,0000*54
$GPGSV,2,1,7,8,48,249,18.5,10,21,138,21.5,16,12,337,29.1,22,84,120,27.7*70
$GPGSV,2,2,7,27,63,318,33.1,31,29,038,29.3,32,52,146,17.4*66
$GPRMC,013916.44,A,1550.490446,S,04801.751095,W,020.4,090.2,220922,,,A*51
$GPGGA,013917.44,1550.490527,S,04801.745196,W,1,00,    ,1166.96,M,0.0,M,0.0,0000*58
$GPGSV,2,1,5,10,21,138,22.7,16,12,337,24.8,22,83,121,28.1,27,63,318,32.7*43
$GPGSV,2,2,5,32,52,146,28.0*6D
$GPRMC,013917.44,A,1550.490527,S,04801.745196,W,020.4,090.5,220922,,,A*56
$GPGGA,013918.44,1550.490600,S,04801.739304,W,1,00,    ,1166.69,M,0.0,M,0.0,0000*53
$GPGSV,2,1,5,10,21,138,25.9,16,12,337,26.7,22,83,121,25.5,27,63,318,31.6*4C
$GPGSV,2,2,5,32,52,146,29.5*69
$GPRMC,013918.44,A,1550.490600,S,04801.739304,W,020.4,090.5,220922,,,A*5D
$GPGGA,013919.44,1550.490404,S,04801.733297,W,1,00,    ,1166.18,M,0.0,M,0.0,0000*53
$GPGSV,2,1,7,8,48,249,15.1,10,21,138,28.0,16,12,337,17.9,21,22,212,14.2*78
$GPGSV,2,2,7,22,83,121,23.7,27,63,318,29.0,32,52,146,29.7*67
$GPRMC,013919.44,A,1550.490404,S,04801.733297,W,020.4,089.9,220922,,,A*5F
$GPGGA,013920.44,1550.490465,S,04801.727479,W,1,00,    ,1165.78,M,0.0,M,0.0,0000*58
$GPGSV,2,1,5,10,21,138,27.0,21,22,212,24.9,22,83,121,26.0,27,63,318,25.2*4D
$GPGSV,2,2,5,32,52,146,33.6*61
$GPRMC,013920.44,A,1550.490465,S,04801.727479,W,020.9,089.7,220922,,,A*52
$GPGGA,013921.44,1550.491394,S,04801.721824,W,1,00,    ,1164.47,M,0.0,M,0.0,0000*5E
$GPGSV,2,1,7,8,48,249,17.6,10,21,138,27.7,21,22,212,19.0,22,83,121,28.7*72
$GPGSV,2,2,7,27,63,318,27.6,31,29,038,14.5,32,52,146,33.0*6E
$GPRMC,013921.44,A,1550.491394,S,04801.721824,W,021.0,090.7,220922,,,A*59
$GPGGA,013922.44,1550.492228,S,04801.715612,W,1,00,    ,1164.23,M,0.0,M,0.0,0000*56
$GPGSV,2,1,6,8,48,249,25.4,10,21,138,29.8,21,22,212,25.2,22,83,121,23.6*76
$GPGSV,2,2,6,27,63,318,32.7,32,52,146,32.1*46
$GPRMC,013922.44,A,1550.492228,S,04801.715612,W,021.2,091.8,220922,,,A*5F
$GPGGA,013923.44,1550.492816,S,04801.709060,W,1,00,    ,1164.17,M,0.0,M,0.0,0000*59
$GPGSV,2,1,6,8,48,249,27.7,10,21,138,19.8,21,22,212,20.1,22,83,121,24.7*74
$GPGSV,2,2,6,27,63,318,34.6,32,52,146,29.3*49
$GPRMC,013923.44,A,1550.492816,S,04801.709060,W,021.4,091.8,220922,,,A*51
$GPGGA,013924.44,1550.492944,S,04801.702356,W,1,00,    ,1163.76,M,0.0,M,0.0,0000*55
$GPGSV,2,1,5,8,48,249,26.6,10,21,138,20.1,22,83,121,25.0,27,63,318,33.7*7E
$GPGSV,2,2,5,32,51,146,30.8*6F
$GPRMC,013924.44,A,1550.492944,S,04801.702356,W,021.5,092.1,220922,,,A*56
$GPGGA,013925.44,1550.493253,S,04801.695992,W,1,00,    ,1163.40,M,0.0,M,0.0,0000*50
$GPGSV,2,1,6,8,48,249,25.9,21,22,212,20.7,22,83,121,26.9,27,63,318,34.0*77
$GPGSV,2,2,6,31,29,038,17.4,32,51,146,29.9*4B
$GPRMC,013925.44,A,1550.493253,S,04801.695992,W,021.5,092.0,220922,,,A*57
$GPGGA,013926.44,1550.494014,S,04801.689612,W,1,00,    ,1163.48,M,0.0,M,0.0,0000*57
$GPGSV,2,1,6,8,48,249,21.9,21,22,212,18.5,22,83,121,26.0,27,63,318,27.9*78
$GPGSV,2,2,6,31,29,038,22.7,32,51,146,32.1*4C
$GPRMC,013926.44,A,1550.494014,S,04801.689612,W,021.8,091.4,220922,,,A*52
$GPGGA,013927.44,1550.494469,S,04801.681642,W,1,00,    ,1163.11,M,0.0,M,0.0,0000*59
$GPGSV,2,1,6,8,48,249,28.1,21,22,212,25.0,22,83,121,27.3,27,63,318,30.2*7D
$GPGSV,2,2,6,31,29,038,32.3,32,51,146,33.3*4A
$GPRMC,013927.44,A,1550.494469,S,04801.681642,W,022.5,091.3,220922,,,A*59
$GPGGA,013928.44,1550.495557,S,04801.675398,W,1,00,    ,1163.62,M,0.0,M,0.0,0000*56
$GPGSV,2,1,6,8,48,249,27.3,21,23,212,26.3,22,83,121,25.6,27,63,318,31.5*70
$GPGSV,2,2,6,31,29,038,22.8,32,51,146,30.4*44
$GPRMC,013928.44,A,1550.495557,S,04801.675398,W,021.9,091.7,220922,,,A*59
$GPGGA,013929.44,1550.497546,S,04801.669735,W,1,00,    ,1164.79,M,0.0,M,0.0,0000*56
$GPGSV,2,1,8,8,48,249,26.8,10,21,138,15.3,16,12,337,14.0,21,23,212,28.4*71
$GPGSV,2,2,8,22,83,121,25.6,27,63,318,31.4,31,29,038,22.4,32,51,146,31.6*41
$GPRMC,013929.44,A,1550.497546,S,04801.669735,W,022.1,091.6,220922,,,A*5E
$GPGGA,013930.44,1550.497631,S,04801.662792,W,1,00,    ,1165.00,M,0.0,M,0.0,0000*54
$GPGSV,2,1,8,8,48,249,31.9,10,21,138,30.1,16,12,337,21.5,21,23,212,17.9*71
$GPGSV,2,2,8,22,83,121,19.9,27,63,318,31.1,31,29,038,23.9,32,51,146,30.9*46
$GPRMC,013930.44,A,1550.497631,S,04801.662792,W,022.1,091.7,220922,,,A*52
$GPGGA,013931.44,1550.498599,S,04801.656143,W,1,00,    ,1170.40,M,0.0,M,0.0,0000*56
$GPGSV,2,1,8,8,48,249,32.6,10,21,138,27.7,16,12,337,21.9,21,23,212,20.5*79
$GPGSV,2,2,8,22,83,121,23.0,27,63,318,33.1,31,29,038,25.8,32,51,146,29.8*4A
$GPRMC,013931.44,A,1550.498599,S,04801.656143,W,021.8,097.5,220922,,,A*5E
$GPGGA,013932.44,1550.499318,S,04801.649975,W,1,00,    ,1169.81,M,0.0,M,0.0,0000*5D
$GPGSV,2,1,7,8,48,249,30.8,10,21,138,26.0,21,23,212,28.0,22,83,121,23.3*73
$GPGSV,2,2,7,27,63,318,34.2,31,29,038,20.0,32,51,146,30.3*69
$GPRMC,013932.44,A,1550.499318,S,04801.649975,W,021.5,093.2,220922,,,A*5E
$GPGGA,013933.44,1550.499523,S,04801.643858,W,1,00,    ,1169.31,M,0.0,M,0.0,0000*5D
$GPGSV,2,1,6,8,48,249,30.0,10,21,138,24.6,21,23,212,26.4,22,83,122,22.3*76
$GPGSV,2,2,6,27,63,318,31.0,32,51,146,32.1*41
$GPRMC,013933.44,A,1550.499523,S,04801.643858,W,021.7,090.5,220922,,,A*53
$GPGGA,013934.44,1550.499809,S,04801.637586,W,1,00,    ,1168.79,M,0.0,M,0.0,0000*5F
$GPGSV,2,1,7,8,48,249,28.8,10,21,138,26.3,21,23,212,30.7,22,83,122,23.6*71
$GPGSV,2,2,7,27,63,318,30.5,31,29,038,17.6,32,51,146,31.9*63
$GPRMC,013934.44,A,1550.499809,S,04801.637586,W,021.6,090.9,220922,,,A*51
$GPGGA,013935.44,1550.499683,S,04801.631312,W,1,00,    ,1166.13,M,0.0,M,0.0,0000*5D
$GPGSV,2,1,7,8,48,249,26.5,10,21,138,25.6,21,23,212,30.6,22,83,122,26.3*75
$GPGSV,2,2,7,27,63,318,28.8,31,29,038,32.9,32,51,146,32.0*65
$GPRMC,013935.44,A,1550.499683,S,04801.631312,W,020.9,090.5,220922,,,A*53
$GPGGA,013936.44,1550.499553,S,04801.624991,W,1,00,    ,1165.90,M,0.0,M,0.0,0000*5D
$GPGSV,2,1,6,8,48,249,27.1,10,21,138,23.7,21,23,212,21.5,22,83,122,22.7*75
$GPGSV,2,2,6,27,63,318,34.9,32,51,146,28.7*40
$GPRMC,013936.44,A,1550.499553,S,04801.624991,W,020.6,091.6,220922,,,A*56
$GPGGA,013937.44,1550.499546,S,04801.618592,W,1,00,    ,1165.64,M,0.0,M,0.0,0000*53
$GPGSV,2,1,6,8,48,249,28.9,10,21,138,24.6,21,23,212,21.6,22,83,122,23.5*74
$GPGSV,2,2,6,27,63,318,42.2,32,51,146,30.5*41
$GPRMC,013937.44,A,1550.499546,S,04801.618592,W,020.5,090.8,220922,,,A*5F
$GPGGA,013938.44,1550.498949,S,04801.611367,W,1,00,    ,1166.31,M,0.0,M,0.0,0000*58
$GPGSV,2,1,7,8,48,249,30.2,10,21,138,24.6,21,23,212,23.6,22,83,122,25.2*74
$GPGSV,2,2,7,27,63,318,32.9,31,29,038,18.9,32,51,146,30.3*66
$GPRMC,013938.44,A,1550.498949,S,04801.611367,W,021.3,086.3,220922,,,A*5C
$GPGGA,013939.44,1550.499131,S,04801.605520,W,1,00,    ,1166.22,M,0.0,M,0.0,0000*5D
$GPGSV,2,1,6,8,48,249,29.0,10,21,138,23.5,22,83,122,22.7,27,63,318,36.6*74
$GPGSV,2,2,6,31,29,038,18.5,32,51,146,28.9*44
$GPRMC,013939.44,A,1550.499131,S,04801.605520,W,018.9,094.4,220922,,,A*5F
$GPGGA,013940.44,1550.499793,S,04801.600091,W,1,00,    ,1167.03,M,0.0,M,0.0,0000*55
$GPGSV,2,1,7,8,48,249,31.4,10,21,138,22.4,21,23,212,18.8,22,83,122,23.3*76
$GPGSV,2,2,7,27,63,318,34.3,31,29,038,18.4,32,51,146,25.6*66
$GPRMC,013940.44,A,1550.499793,S,04801.600091,W,019.1,097.3,220922,,,A*58
$GPGGA,013941.44,1550.500309,S,04801.594414,W,1,00,    ,1167.85,M,0.0,M,0.0,0000*5B
$GPGSV,2,1,6,8,48,249,33.0,10,21,138,19.8,21,23,212,23.6,22,83,122,24.6*71
$GPGSV,2,2,6,27,63,318,36.3,32,51,146,26.8*49
$GPRMC,013941.44,A,1550.500309,S,04801.594414,W,019.5,093.6,220922,,,A*5D
$GPGGA,013942.44,1550.500309,S,04801.594414,W,1,00,    ,,M,0.0,M,0.0,0000*44
$GPRMC,013942.44,A,,,,,,,220922,,,A*61
$GPGGA,013943.44,1550.501060,S,04801.583342,W,1,00,    ,1167.70,M,0.0,M,0.0,0000*5C
$GPGSV,2,1,5,8,48,249,32.4,10,21,138,18.8,22,83,122,23.1,27,63,318,38.0*73
$GPGSV,2,2,5,32,51,146,27.0*61
$GPRMC,013943.44,A,1550.501060,S,04801.583342,W,018.4,091.2,220922,,,A*56
$GPGGA,013944.44,1550.501289,S,04801.578111,W,1,00,    ,1167.64,M,0.0,M,0.0,0000*5B
$GPGSV,2,1,5,8,48,249,32.6,10,21,138,22.5,22,83,122,22.8,27,63,318,37.0*72
$GPGSV,2,2,5,32,51,146,26.9*69
$GPRMC,013944.44,A,1550.501289,S,04801.578111,W,018.4,093.0,220922,,,A*54
$GPGGA,013945.44,1550.500741,S,04801.572618,W,1,00,    ,1167.22,M,0.0,M,0.0,0000*5C
$GPGSV,2,1,6,8,48,250,30.4,10,21,138,22.3,22,83,122,20.3,27,63,318,31.9*79
$GPGSV,2,2,6,31,29,038,23.9,32,51,146,30.1*41
$GPRMC,013945.44,A,1550.500741,S,04801.572618,W,017.9,089.4,220922,,,A*5C
$GPGGA,013946.44,1550.500828,S,04801.567303,W,1,00,    ,1167.84,M,0.0,M,0.0,0000*58
$GPGSV,2,1,5,8,48,250,35.7,22,83,122,19.7,27,63,319,38.8,31,29,038,37.6*70
$GPGSV,2,2,5,32,51,146,26.4*64
$GPRMC,013946.44,A,1550.500828,S,04801.567303,W,016.9,090.8,220922,,,A*51
$GPGGA,013947.44,1550.500609,S,04801.562431,W,1,00,    ,1167.91,M,0.0,M,0.0,0000*53
$GPGSV,2,1,7,8,48,250,36.3,10,21,138,15.9,21,23,212,13.4,22,83,122,23.1*72
$GPGSV,2,2,7,27,63,319,36.7,31,29,038,32.1,32,51,146,24.6*6D
$GPRMC,013947.44,A,1550.500609,S,04801.562431,W,017.0,091.2,220922,,,A*5D
$GPGGA,013948.44,1550.500565,S,04801.557391,W,1,00,    ,1167.78,M,0.0,M,0.0,0000*59
$GPGSV,2,1,5,8,48,250,35.5,22,83,122,20.7,27,63,319,32.0,31,29,038,19.0*70
$GPGSV,2,2,5,32,51,146,24.6*64
$GPRMC,013948.44,A,1550.500565,S,04801.557391,W,016.3,092.5,220922,,,A*56
$GPGGA,013949.44,1550.501214,S,04801.552956,W,1,00,    ,1168.02,M,0.0,M,0.0,0000*5E
$GPGSV,2,1,6,8,49,250,33.9,10,21,138,20.5,22,83,122,20.5,27,63,319,33.9*77
$GPGSV,2,2,6,31,29,038,22.3,32,51,146,24.9*47
$GPRMC,013949.44,A,1550.501214,S,04801.552956,W,015.6,098.0,220922,,,A*5A
$GPGGA,013950.44,1550.502064,S,04801.548564,W,1,00,    ,1168.46,M,0.0,M,0.0,0000*56
$GPGSV,2,1,7,8,49,250,34.9,10,21,138,24.3,21,23,212,18.6,22,83,123,22.1*7A
$GPGSV,2,2,7,27,63,319,36.1,31,29,038,22.1,32,51,146,27.7*68
$GPRMC,013950.44,A,1550.502064,S,04801.548564,W,015.2,099.4,220922,,,A*53
$GPGGA,013951.44,1550.502347,S,04801.544272,W,1,00,    ,1167.99,M,0.0,M,0.0,0000*54
$GPGSV,2,1,5,8,49,250,35.2,21,23,212,30.9,22,83,123,22.1,27,63,319,32.0*70
$GPGSV,2,2,5,32,51,146,30.0*67
$GPRMC,013951.44,A,1550.502347,S,04801.544272,W,015.5,091.0,220922,,,A*57
$GPGGA,013952.44,1550.502760,S,04801.539839,W,1,00,    ,1169.07,M,0.0,M,0.0,0000*50
$GPGSV,2,1,6,8,49,250,33.6,10,21,138,15.7,21,23,212,27.1,27,63,319,31.2*7F
$GPGSV,2,2,6,31,29,038,20.3,32,51,146,30.2*4B
$GPRMC,013952.44,A,1550.502760,S,04801.539839,W,015.3,091.4,220922,,,A*58
$GPGGA,013953.44,1550.501195,S,04801.534073,W,1,00,    ,1171.37,M,0.0,M,0.0,0000*5F
$GPGSV,2,1,7,8,49,250,31.0,10,21,138,18.4,21,23,212,29.0,22,83,123,18.4*76
$GPGSV,2,2,7,27,63,319,37.1,31,29,038,35.7,32,51,146,32.1*6B
$GPRMC,013953.44,A,1550.501195,S,04801.534073,W,014.9,089.8,220922,,,A*53
$GPGGA,013954.44,1550.501210,S,04801.529547,W,1,00,    ,1171.45,M,0.0,M,0.0,0000*5D
$GPGSV,2,1,7,8,49,250,31.8,16,12,338,12.3,21,23,212,25.0,22,83,123,21.9*7C
$GPGSV,2,2,7,27,63,319,36.3,31,29,038,34.9,32,51,146,32.3*65
$GPRMC,013954.44,A,1550.501210,S,04801.529547,W,013.1,089.7,220922,,,A*54
$GPGGA,013955.44,1550.500932,S,04801.525958,W,1,00,    ,1170.60,M,0.0,M,0.0,0000*5E
$GPGSV,2,1,7,8,49,250,29.3,10,21,138,20.4,21,23,212,21.1,22,83,123,25.0*74
$GPGSV,2,2,7,27,63,319,31.9,31,29,038,27.2,32,51,146,30.6*66
$GPRMC,013955.44,A,1550.500932,S,04801.525958,W,010.5,085.7,220922,,,A*5A
$GPGGA,013956.44,1550.500764,S,04801.523044,W,1,00,    ,1170.69,M,0.0,M,0.0,0000*5B
$GPGSV,2,1,5,8,49,250,30.0,21,23,212,28.6,22,83,123,24.6,27,63,319,30.9*7B
$GPGSV,2,2,5,32,51,146,29.2*6D
$GPRMC,013956.44,A,1550.500764,S,04801.523044,W,006.9,086.1,220922,,,A*58
$GPGGA,013957.44,1550.500913,S,04801.521240,W,1,00,    ,1171.31,M,0.0,M,0.0,0000*5C
$GPGSV,2,1,8,8,49,250,31.3,10,21,138,16.5,16,12,338,15.5,21,23,212,22.9*7C
$GPGSV,2,2,8,22,83,123,23.2,27,63,319,34.4,31,29,038,17.0,32,51,146,29.0*48
$GPRMC,013957.44,A,1550.500913,S,04801.521240,W,006.7,086.3,220922,,,A*5F
$GPGGA,013958.44,1550.500686,S,04801.519223,W,1,00,    ,1171.07,M,0.0,M,0.0,0000*5B
$GPGSV,2,1,5,8,49,250,26.3,21,23,212,22.1,22,83,123,22.4,27,63,319,41.6*7F
$GPGSV,2,2,5,32,51,146,28.2*6C
$GPRMC,013958.44,A,1550.500686,S,04801.519223,W,006.9,088.2,220922,,,A*5C
$GPGGA,013959.44,1550.500416,S,04801.516753,W,1,00,    ,1170.79,M,0.0,M,0.0,0000*54
$GPGSV,2,1,5,8,49,250,28.3,21,23,212,27.7,22,83,123,20.6,27,63,319,35.1*76
$GPGSV,2,2,5,32,51,146,29.5*6A
$GPRMC,013959.44,A,1550.500416,S,04801.516753,W,009.9,084.5,220922,,,A*5F
$GPGGA,014000.44,1550.500190,S,04801.513957,W,1,00,    ,1170.67,M,0.0,M,0.0,0000*5D
$GPGSV,2,1,7,8,49,250,26.3,10,21,138,16.9,21,23,212,29.2,22,83,123,21.6*7A
$GPGSV,2,2,7,27,63,319,34.1,31,29,038,15.3,32,51,146,30.6*6B
$GPRMC,014000.44,A,1550.500190,S,04801.513957,W,011.3,084.1,220922,,,A*5E
$GPGGA,014001.44,1550.500128,S,04801.510781,W,1,00,    ,1170.85,M,0.0,M,0.0,0000*55
$GPGSV,2,1,6,8,49,250,23.9,21,23,212,28.5,22,83,123,24.0,27,63,319,35.4*7E
$GPGSV,2,2,6,31,29,038,18.5,32,51,146,33.1*46
$GPRMC,014001.44,A,1550.500128,S,04801.510781,W,011.8,085.8,220922,,,A*59
$GPGGA,014002.44,1550.500269,S,04801.507073,W,1,00,    ,1171.53,M,0.0,M,0.0,0000*56
$GPGSV,2,1,7,8,49,250,26.3,10,21,138,16.2,21,23,212,26.8,22,83,123,22.7*76
$GPGSV,2,2,7,27,63,319,35.3,31,29,038,21.3,32,51,146,33.7*6D
$GPRMC,014002.44,A,1550.500269,S,04801.507073,W,013.4,089.3,220922,,,A*59
$GPGGA,014003.44,1550.499757,S,04801.502911,W,1,00,    ,1170.86,M,0.0,M,0.0,0000*5F
$GPGSV,2,1,6,8,49,250,26.4,21,23,212,20.6,22,83,123,22.3,27,63,319,35.1*7D
$GPGSV,2,2,6,31,29,038,30.9,32,51,146,34.9*4F
$GPRMC,014003.44,A,1550.499757,S,04801.502911,W,015.4,084.4,220922,,,A*55
$GPGGA,014004.44,1550.499147,S,04801.498287,W,1,00,    ,1169.40,M,0.0,M,0.0,0000*5B
$GPGSV,2,1,6,8,49,250,27.0,21,23,212,19.1,22,83,123,25.4,27,63,319,32.1*72
$GPGSV,2,2,6,31,29,038,38.5,32,51,146,35.3*40
$GPRMC,014004.44,A,1550.499147,S,04801.498287,W,016.2,082.7,220922,,,A*53
$GPGGA,014005.44,1550.497830,S,04801.493056,W,1,00,    ,1169.12,M,0.0,M,0.0,0000*5F
$GPGSV,2,1,7,8,49,250,27.2,10,21,138,17.8,21,23,212,24.4,22,83,123,23.3*76
$GPGSV,2,2,7,27,63,319,37.0,31,29,038,34.7,32,51,146,34.2*6E
$GPRMC,014005.44,A,1550.497830,S,04801.493056,W,016.0,081.7,220922,,,A*51
$GPGGA,014006.44,1550.497020,S,04801.488469,W,1,00,    ,1168.63,M,0.0,M,0.0,0000*50
$GPGSV,2,1,5,8,49,250,26.9,22,83,123,19.2,27,63,319,41.0,31,29,038,29.9*7F
$GPGSV,2,2,5,32,51,146,33.8*6C
$GPRMC,014006.44,A,1550.497020,S,04801.488469,W,015.9,080.8,220922,,,A*5D
$GPGGA,014007.44,1550.496328,S,04801.483962,W,1,00,    ,1168.52,M,0.0,M,0.0,0000*54
$GPGSV,2,1,5,8,49,250,26.1,21,23,212,16.3,22,83,124,22.6,27,63,319,34.4*7D
$GPGSV,2,2,5,32,51,146,33.0*64
$GPRMC,014007.44,A,1550.496328,S,04801.483962,W,016.0,080.6,220922,,,A*5F
$GPGGA,014008.44,1550.495668,S,04801.479486,W,1,00,    ,1168.60,M,0.0,M,0.0,0000*5A
$GPGSV,2,1,5,8,49,250,26.1,21,23,212,18.2,22,83,124,26.5,27,63,319,32.1*76
$GPGSV,2,2,5,32,51,146,32.4*61
$GPRMC,014008.44,A,1550.495668,S,04801.479486,W,015.8,080.4,220922,,,A*59
$GPGGA,014009.44,1550.494915,S,04801.475007,W,1,00,    ,1168.52,M,0.0,M,0.0,0000*5F
$GPGSV,2,1,6,8,49,250,27.4,10,21,138,14.4,16,12,338,11.8,22,83,124,28.3*77
$GPGSV,2,2,6,27,63,319,28.9,32,51,146,25.2*44
$GPRMC,014009.44,A,1550.494915,S,04801.475007,W,016.6,078.9,220922,,,A*5A
$GPGGA,014010.44,1550.494064,S,04801.470302,W,1,00,    ,1168.65,M,0.0,M,0.0,0000*5F
$GPGSV,2,1,6,8,49,250,27.0,10,21,138,20.4,22,83,124,24.0,27,63,319,32.9*7C
$GPGSV,2,2,6,31,29,038,16.6,32,51,146,30.9*40
$GPRMC,014010.44,A,1550.494064,S,04801.470302,W,016.8,078.8,220922,,,A*51
$GPGGA,014011.44,1550.493015,S,04801.465476,W,1,00,    ,1168.79,M,0.0,M,0.0,0000*52
$GPGSV,2,1,5,8,49,250,26.7,10,21,138,19.9,22,83,124,23.5,27,63,319,34.4*77
$GPGSV,2,2,5,32,51,146,32.6*63
$GPRMC,014011.44,A,1550.493015,S,04801.465476,W,017.7,075.4,220922,,,A*5E
$GPGGA,014012.44,1550.491750,S,04801.460507,W,1,00,    ,1168.69,M,0.0,M,0.0,0000*56
$GPGSV,2,1,6,8,49,250,27.5,10,21,138,18.9,21,23,212,15.5,22,83,124,22.7*7F
$GPGSV,2,2,6,27,63,319,34.7,32,51,146,33.7*45
$GPRMC,014012.44,A,1550.491750,S,04801.460507,W,018.2,074.5,220922,,,A*51
$GPGGA,014013.44,1550.490474,S,04801.455595,W,1,00,    ,1168.70,M,0.0,M,0.0,0000*56
$GPGSV,2,1,6,8,49,250,28.7,10,21,138,18.5,22,83,124,25.9,27,63,319,29.4*71
$GPGSV,2,2,6,31,29,038,18.1,32,51,146,29.0*48
$GPRMC,014013.44,A,1550.490474,S,04801.455595,W,017.7,076.0,220922,,,A*54
$GPGGA,014014.44,1550.489044,S,04801.450677,W,1,00,    ,1168.49,M,0.0,M,0.0,0000*5E
$GPGSV,2,1,5,8,49,250,30.1,22,83,124,24.3,27,63,319,28.7,31,29,038,26.1*77
$GPGSV,2,2,5,32,51,146,22.8*6C
$GPRMC,014014.44,A,1550.489044,S,04801.450677,W,018.2,075.0,220922,,,A*5F
$GPGGA,014015.44,1550.487408,S,04801.445755,W,1,00,    ,1168.30,M,0.0,M,0.0,0000*56
$GPGSV,2,1,7,8,49,250,32.4,10,21,138,16.2,21,23,212,14.9,22,83,124,22.9*7D
$GPGSV,2,2,7,27,62,319,32.5,31,29,038,20.3,32,51,146,25.0*6C
$GPRMC,014015.44,A,1550.487408,S,04801.445755,W,018.3,074.3,220922,,,A*5A
$GPGGA,014016.44,1550.486039,S,04801.440877,W,1,00,    ,1168.19,M,0.0,M,0.0,0000*53
$GPGSV,2,1,5,8,49,250,35.1,22,83,124,20.6,27,62,319,27.5,31,29,038,22.2*78
$GPGSV,2,2,5,32,51,146,22.4*60
$GPRMC,014016.44,A,1550.486039,S,04801.440877,W,018.4,073.6,220922,,,A*51
$GPGGA,014017.44,1550.484281,S,04801.435952,W,1,00,    ,1168.05,M,0.0,M,0.0,0000*58
$GPGSV,2,1,7,8,49,250,36.0,10,21,138,17.2,21,23,212,16.1,22,83,124,25.0*78
$GPGSV,2,2,7,27,62,319,27.8,31,29,038,20.4,32,51,146,17.9*6A
$GPRMC,014017.44,A,1550.484281,S,04801.435952,W,018.7,070.8,220922,,,A*59
$GPGGA,014018.44,1550.482454,S,04801.431642,W,1,00,    ,1168.67,M,0.0,M,0.0,0000*51
$GPGSV,2,1,7,8,49,250,36.2,10,21,138,20.0,16,12,338,12.1,21,23,212,20.4*79
$GPGSV,2,2,7,22,83,124,23.2,27,62,319,36.1,32,51,146,27.2*60
$GPRMC,014018.44,A,1550.482454,S,04801.431642,W,019.2,068.2,220922,,,A*53
$GPGGA,014019.44,1550.480319,S,04801.426762,W,1,00,    ,1168.54,M,0.0,M,0.0,0000*59
$GPGSV,2,1,6,8,49,250,36.6,10,21,138,18.5,21,23,212,18.3,22,83,124,22.3*7F
$GPGSV,2,2,6,27,62,319,38.2,32,51,146,21.9*40
$GPRMC,014019.44,A,1550.480319,S,04801.426762,W,019.7,066.1,220922,,,A*53
$GPGGA,014020.44,1550.478059,S,04801.421781,W,1,00,    ,1168.31,M,0.0,M,0.0,0000*5A
$GPGSV,2,1,5,8,49,250,37.1,10,21,138,17.8,22,83,124,24.4,27,62,319,31.6*7E
$GPGSV,2,2,5,32,51,146,25.4*67
$GPRMC,014020.44,A,1550.478059,S,04801.421781,W,019.9,066.8,220922,,,A*54
$GPGGA,014021.44,1550.475963,S,04801.417274,W,1,00,    ,1168.48,M,0.0,M,0.0,0000*52
$GPGSV,2,1,5,8,49,250,37.6,10,21,138,18.1,22,83,124,22.5,27,62,319,32.6*7B
$GPGSV,2,2,5,32,51,146,24.6*64
$GPRMC,014021.44,A,1550.475963,S,04801.417274,W,019.1,065.4,220922,,,A*55
$GPGGA,014022.44,1550.474181,S,04801.412654,W,1,00,    ,1168.80,M,0.0,M,0.0,0000*53
$GPGSV,2,1,6,8,49,250,38.1,10,21,138,19.4,21,23,212,17.2,22,83,124,24.5*78
$GPGSV,2,2,6,27,62,319,29.5,32,51,146,24.6*4D
$GPRMC,014022.44,A,1550.474181,S,04801.412654,W,019.0,067.9,220922,,,A*5E
$GPGGA,014023.44,1550.472372,S,04801.407782,W,1,00,    ,1168.73,M,0.0,M,0.0,0000*58
$GPGSV,1,1,4,8,49,250,37.5,22,83,124,24.6,27,62,319,34.8,32,51,146,27.8*7C
$GPRMC,014023.44,A,1550.472372,S,04801.407782,W,018.8,068.3,220922,,,A*55
$GPGGA,014024.44,1550.470565,S,04801.402436,W,1,00,    ,1168.20,M,0.0,M,0.0,0000*52
$GPGSV,2,1,7,8,49,250,37.8,10,21,138,26.2,16,12,338,13.1,21,23,212,17.4*73
$GPGSV,2,2,7,22,83,124,23.5,27,62,319,36.2,32,51,146,23.6*64
$GPRMC,014024.44,A,1550.470565,S,04801.402436,W,018.5,067.0,220922,,,A*58
$GPGGA,014025.44,1550.467994,S,04801.396434,W,1,00,    ,1164.33,M,0.0,M,0.0,0000*51
$GPGSV,2,1,7,8,49,250,38.5,10,21,138,26.8,16,12,338,25.3,21,23,212,20.1*7D
$GPGSV,2,2,7,22,83,125,24.3,27,62,319,30.7,32,51,146,35.6*60
$GPRMC,014025.44,A,1550.467994,S,04801.396434,W,017.5,065.3,220922,,,A*5B
$GPGGA,014026.44,1550.465900,S,04801.391455,W,1,00,    ,1161.83,M,0.0,M,0.0,0000*53
$GPGSV,2,1,8,8,49,250,38.9,10,21,138,23.8,16,12,338,28.7,21,23,212,17.8*7F
$GPGSV,2,2,8,22,83,125,24.5,27,62,319,34.5,31,29,038,14.2,32,51,146,35.2*40
$GPRMC,014026.44,A,1550.465900,S,04801.391455,W,017.1,066.4,220922,,,A*57
$GPGGA,014027.44,1550.463795,S,04801.387135,W,1,00,    ,1161.79,M,0.0,M,0.0,0000*57
$GPGSV,2,1,8,8,49,250,38.9,10,21,138,18.4,16,12,338,27.5,21,23,212,17.7*79
$GPGSV,2,2,8,22,83,125,24.0,27,62,319,27.6,31,29,038,25.7,32,51,146,32.7*41
$GPRMC,014027.44,A,1550.463795,S,04801.387135,W,017.1,066.6,220922,,,A*54
$GPGGA,014028.44,1550.461822,S,04801.383171,W,1,00,    ,1162.39,M,0.0,M,0.0,0000*5A
$GPGSV,2,1,6,8,49,250,38.3,10,21,138,19.9,22,83,125,23.6,27,62,319,31.6*7B
$GPGSV,2,2,6,31,29,038,27.2,32,51,146,28.0*46
$GPRMC,014028.44,A,1550.461822,S,04801.383171,W,017.1,067.4,220922,,,A*5D
$GPGGA,014029.44,1550.460440,S,04801.379008,W,1,00,    ,1159.36,M,0.0,M,0.0,0000*5F
$GPGSV,2,1,6,8,49,250,37.5,10,21,138,33.2,22,83,125,21.8,27,62,319,28.4*77
$GPGSV,2,2,6,31,29,038,23.8,32,51,146,35.7*43
$GPRMC,014029.44,A,1550.460440,S,04801.379008,W,016.7,065.7,220922,,,A*59
$GPGGA,014030.44,1550.458655,S,04801.374772,W,1,00,    ,1159.30,M,0.0,M,0.0,0000*5B
$GPGSV,2,1,6,8,49,250,38.9,10,21,138,21.8,21,23,212,17.0,22,83,125,25.9*79
$GPGSV,2,2,6,31,29,038,19.8,32,51,146,34.9*45
$GPRMC,014030.44,A,1550.458655,S,04801.374772,W,016.5,065.9,220922,,,A*57
$GPGGA,014031.44,1550.456805,S,04801.370832,W,1,00,    ,1159.13,M,0.0,M,0.0,0000*51
$GPGSV,2,1,6,8,49,250,39.5,21,23,212,18.2,22,83,125,24.1,27,62,319,18.4*74
$GPGSV,2,2,6,31,29,038,18.7,32,51,146,25.5*47
$GPRMC,014031.44,A,1550.456805,S,04801.370832,W,016.1,068.0,220922,,,A*5C
$GPGGA,014032.44,1550.455118,S,04801.366632,W,1,00,    ,1159.13,M,0.0,M,0.0,0000*5D
$GPGSV,2,1,6,8,49,250,38.5,10,21,138,17.0,21,23,212,18.7,22,83,125,24.8*70
$GPGSV,2,2,6,27,62,319,19.1,32,51,146,19.5*47
$GPRMC,014032.44,A,1550.455118,S,04801.366632,W,016.7,068.4,220922,,,A*52
$GPGGA,014033.44,1550.453027,S,04801.362396,W,1,00,    ,1158.95,M,0.0,M,0.0,0000*57
$GPGSV,2,1,6,8,49,250,38.3,16,12,338,13.4,22,83,125,19.9,27,62,319,28.8*78
$GPGSV,2,2,6,31,29,038,20.1,32,51,146,18.9*48
$GPRMC,014033.44,A,1550.453027,S,04801.362396,W,016.5,065.9,220922,,,A*55
$GPGGA,014034.44,1550.450778,S,04801.358236,W,1,00,    ,1158.65,M,0.0,M,0.0,0000*53
$GPGSV,2,1,7,8,49,250,38.7,10,21,138,17.0,21,23,212,17.9,22,83,125,23.2*7F
$GPGSV,2,2,7,27,62,319,30.2,31,29,038,24.2,32,51,146,19.2*61
$GPRMC,014034.44,A,1550.450778,S,04801.358236,W,016.9,067.4,220922,,,A*5D
$GPGGA,014035.44,1550.449154,S,04801.353724,W,1,00,    ,1158.41,M,0.0,M,0.0,0000*59
$GPGSV,2,1,5,8,49,250,38.7,10,21,138,22.8,22,83,125,24.6,27,62,319,33.3*75
$GPGSV,2,2,5,32,51,146,22.5*61
$GPRMC,014035.44,A,1550.449154,S,04801.353724,W,016.8,067.8,220922,,,A*5C
$GPGGA,014036.44,1550.447854,S,04801.349956,W,1,00,    ,1158.88,M,0.0,M,0.0,0000*58
$GPGSV,2,1,7,8,49,250,38.3,10,21,138,22.6,21,23,212,17.4,22,83,125,20.5*72
$GPGSV,2,2,7,27,62,319,31.2,31,29,038,18.0,32,51,146,35.4*65
$GPRMC,014036.44,A,1550.447854,S,04801.349956,W,016.9,066.9,220922,,,A*59
$GPGGA,014037.44,1550.447171,S,04801.346468,W,1,00,    ,1159.31,M,0.0,M,0.0,0000*5B
$GPGSV,2,1,6,8,49,250,38.5,10,21,138,20.8,22,83,125,20.1,27,62,319,22.0*76
$GPGSV,2,2,6,31,29,038,21.0,32,51,146,36.3*4E
$GPRMC,014037.44,A,1550.447171,S,04801.346468,W,016.2,064.9,220922,,,A*50
$GPGGA,014038.44,1550.445918,S,04801.342904,W,1,00,    ,1160.45,M,0.0,M,0.0,0000*5B
$GPGSV,2,1,6,8,49,250,38.9,10,21,138,19.5,22,83,125,23.7,27,62,319,24.2*7C
$GPGSV,2,2,6,31,29,038,24.0,32,51,146,27.9*41
$GPRMC,014038.44,A,1550.445918,S,04801.342904,W,016.2,061.5,220922,,,A*50
$GPGGA,014039.44,1550.445918,S,04801.342904,W,1,00,    ,,M,0.0,M,0.0,0000*46
$GPRMC,014039.44,A,,,,,,,220922,,,A*63
$GPGGA,014040.44,1550.441374,S,04801.334218,W,1,00,    ,1160.88,M,0.0,M,0.0,0000*56
$GPGSV,2,1,7,8,49,250,38.8,10,21,138,16.4,16,12,338,15.8,21,23,212,22.3*77
$GPGSV,2,2,7,22,83,125,21.8,27,62,319,25.2,32,51,146,36.5*6F
$GPRMC,014040.44,A,1550.441374,S,04801.334218,W,018.7,062.7,220922,,,A*56
$GPGGA,014041.44,1550.439964,S,04801.328552,W,1,00,    ,1155.98,M,0.0,M,0.0,0000*50
$GPGSV,2,1,8,8,49,250,38.7,10,21,138,31.4,16,12,338,29.2,21,23,212,20.3*75
$GPGSV,2,2,8,22,83,125,23.8,27,62,319,36.3,31,30,038,18.8,32,51,146,35.4*46
$GPRMC,014041.44,A,1550.439964,S,04801.328552,W,016.9,067.2,220922,,,A*57
$GPGGA,014042.44,1550.438149,S,04801.323342,W,1,00,    ,1154.44,M,0.0,M,0.0,0000*59
$GPGSV,2,1,8,8,49,250,38.7,10,21,138,33.2,16,12,338,25.7,21,23,212,21.1*7B
$GPGSV,2,2,8,22,83,125,25.8,27,62,319,35.2,31,30,038,22.5,32,51,146,35.9*4B
$GPRMC,014042.44,A,1550.438149,S,04801.323342,W,017.5,066.3,220922,,,A*53
$GPGGA,014043.44,1550.436410,S,04801.318323,W,1,00,    ,1152.75,M,0.0,M,0.0,0000*54
$GPGSV,2,1,7,8,49,250,38.0,10,21,138,33.8,21,23,212,18.8,22,83,126,23.7*7E
$GPGSV,2,2,7,27,62,319,25.5,31,30,038,24.7,32,51,146,35.3*60
$GPRMC,014043.44,A,1550.436410,S,04801.318323,W,017.8,066.1,220922,,,A*55
$GPGGA,014044.44,1550.434355,S,04801.313209,W,1,00,    ,1152.04,M,0.0,M,0.0,0000*53
$GPGSV,2,1,7,8,49,250,38.3,10,21,138,24.5,21,23,212,20.6,22,83,126,20.7*70
$GPGSV,2,2,7,27,62,319,24.3,31,30,038,35.0,32,51,146,37.6*67
$GPRMC,014044.44,A,1550.434355,S,04801.313209,W,018.5,065.9,220922,,,A*5D
$GPGGA,014045.44,1550.432349,S,04801.308370,W,1,00,    ,1151.07,M,0.0,M,0.0,0000*5C
$GPGSV,2,1,7,8,49,250,39.0,16,12,338,17.1,21,23,212,23.4,22,83,126,22.6*70
$GPGSV,2,2,7,27,62,319,20.3,31,30,038,38.4,32,51,146,30.9*62
$GPRMC,014045.44,A,1550.432349,S,04801.308370,W,018.7,063.8,220922,,,A*57
$GPGGA,014046.44,1550.429704,S,04801.303704,W,1,00,    ,1150.03,M,0.0,M,0.0,0000*51
$GPGSV,2,1,6,8,49,250,38.1,21,23,212,21.6,22,83,126,24.9,27,62,319,28.9*7A
$GPGSV,2,2,6,31,30,038,38.9,32,51,146,23.7*47
$GPRMC,014046.44,A,1550.429704,S,04801.303704,W,018.8,065.0,220922,,,A*5E
$GPGGA,014047.44,1550.427230,S,04801.298664,W,1,00,    ,1149.19,M,0.0,M,0.0,0000*5B
$GPGSV,2,1,6,8,49,250,38.1,21,23,212,21.2,22,83,126,25.6,27,62,319,30.1*71
$GPGSV,2,2,6,31,30,038,36.9,32,51,146,29.0*44
$GPRMC,014047.44,A,1550.427230,S,04801.298664,W,019.2,067.8,220922,,,A*56
$GPGGA,014048.44,1550.424694,S,04801.293716,W,1,00,    ,1148.50,M,0.0,M,0.0,0000*5E
$GPGSV,2,1,7,8,49,250,39.0,10,21,138,25.3,21,23,212,24.0,22,83,126,22.5*77
$GPGSV,2,2,7,27,62,319,22.6,31,30,038,38.0,32,51,146,27.1*6F
$GPRMC,014048.44,A,1550.424694,S,04801.293716,W,018.8,067.6,220922,,,A*5A
$GPGGA,014049.44,1550.423472,S,04801.288142,W,1,00,    ,1148.40,M,0.0,M,0.0,0000*5E
$GPGSV,2,1,8,8,49,250,39.2,10,21,138,31.3,16,12,338,18.6,21,23,212,22.7*76
$GPGSV,2,2,8,22,83,126,23.1,27,62,319,30.5,31,30,038,37.8,32,51,146,36.2*44
$GPRMC,014049.44,A,1550.423472,S,04801.288142,W,019.1,065.1,220922,,,A*56
$GPGGA,014050.44,1550.421030,S,04801.282720,W,1,00,    ,1148.26,M,0.0,M,0.0,0000*5E
$GPGSV,2,1,7,8,49,250,38.4,16,12,338,24.1,21,23,212,19.5,22,83,126,22.0*7B
$GPGSV,2,2,7,27,62,319,37.7,31,30,038,37.6,32,51,146,35.7*66
$GPRMC,014050.44,A,1550.421030,S,04801.282720,W,019.0,065.2,220922,,,A*54
$GPGGA,014051.44,1550.418759,S,04801.277794,W,1,00,    ,1147.65,M,0.0,M,0.0,0000*50
$GPGSV,2,1,7,8,49,250,39.0,16,12,338,25.8,21,23,212,18.4,22,83,126,23.9*7E
$GPGSV,2,2,7,27,62,319,29.9,31,30,038,36.2,32,51,146,32.9*6B
$GPRMC,014051.44,A,1550.418759,S,04801.277794,W,018.8,065.5,220922,,,A*5C
$GPGGA,014052.44,1550.416323,S,04801.273024,W,1,00,    ,1146.73,M,0.0,M,0.0,0000*5A
$GPGSV,2,1,6,8,49,250,39.5,16,12,338,25.1,21,23,212,19.1,22,83,126,23.0*7E
$GPGSV,2,2,6,27,62,319,34.7,31,30,038,36.7*4D
$GPRMC,014052.44,A,1550.416323,S,04801.273024,W,018.6,065.8,220922,,,A*53
$GPGGA,014053.44,1550.414252,S,04801.268015,W,1,00,    ,1147.08,M,0.0,M,0.0,0000*5B
$GPGSV,2,1,7,8,49,250,39.3,10,21,138,14.4,16,12,338,22.6,22,83,126,23.9*73
$GPGSV,2,2,7,27,62,319,31.7,31,30,038,37.4,32,51,146,17.7*62
$GPRMC,014053.44,A,1550.414252,S,04801.268015,W,018.6,065.9,220922,,,A*5E
$GPGGA,014054.44,1550.412047,S,04801.262787,W,1,00,    ,1147.52,M,0.0,M,0.0,0000*55
$GPGSV,2,1,7,8,49,250,38.8,16,12,338,21.5,21,23,212,16.7,22,83,126,19.4*77
$GPGSV,2,2,7,27,62,319,30.3,31,30,039,36.0,32,51,146,34.8*6D
$GPRMC,014054.44,A,1550.412047,S,04801.262787,W,018.3,065.6,220922,,,A*55
$GPGGA,014055.44,1550.410405,S,04801.257744,W,1,00,    ,1147.24,M,0.0,M,0.0,0000*5C
$GPGSV,2,1,8,8,49,250,38.4,10,21,138,15.8,16,12,338,22.8,21,23,212,26.0*78
$GPGSV,2,2,8,22,83,126,28.9,27,62,319,23.5,31,30,039,25.1,32,51,146,33.7*4E
$GPRMC,014055.44,A,1550.410405,S,04801.257744,W,018.4,065.6,220922,,,A*5A
$GPGGA,014056.44,1550.408879,S,04801.253247,W,1,00,    ,1146.95,M,0.0,M,0.0,0000*58
$GPGSV,2,1,7,8,49,250,39.1,16,12,338,23.1,21,23,212,23.7,22,83,126,20.0*71
$GPGSV,2,2,7,27,62,319,22.4,31,30,039,19.2,32,51,146,36.2*6E
$GPRMC,014056.44,A,1550.408879,S,04801.253247,W,016.1,069.0,220922,,,A*54
$GPGGA,014057.44,1550.407966,S,04801.249103,W,1,00,    ,1148.61,M,0.0,M,0.0,0000*54
$GPGSV,2,1,6,8,49,250,39.6,16,12,338,24.3,22,83,126,21.8,27,62,319,33.7*73
$GPGSV,2,2,6,31,30,039,21.9,32,51,146,36.6*4B
$GPRMC,014057.44,A,1550.407966,S,04801.249103,W,015.5,071.7,220922,,,A*54
$GPGGA,014058.44,1550.406500,S,04801.244521,W,1,00,    ,1148.64,M,0.0,M,0.0,0000*5A
$GPGSV,2,1,6,8,49,250,38.8,10,21,138,15.6,16,12,338,22.2,22,83,126,22.9*7E
$GPGSV,2,2,6,27,62,319,35.5,32,51,146,35.7*41
$GPRMC,014058.44,A,1550.406500,S,04801.244521,W,016.6,067.4,220922,,,A*5B
$GPGGA,014059.44,1550.404567,S,04801.239981,W,1,00,    ,1148.25,M,0.0,M,0.0,0000*51
$GPGSV,2,1,6,8,49,250,37.8,10,21,138,23.5,16,12,338,22.3,22,83,126,20.4*79
$GPGSV,2,2,6,27,62,319,30.3,32,51,146,35.4*41
$GPRMC,014059.44,A,1550.404567,S,04801.239981,W,016.5,064.6,220922,,,A*57
$GPGGA,014100.44,1550.402391,S,04801.235542,W,1,00,    ,1148.12,M,0.0,M,0.0,0000*5E
$GPGSV,2,1,7,8,49,250,37.4,10,21,138,21.2,16,12,338,22.7,22,83,126,23.9*7B
$GPGSV,2,2,7,27,62,320,33.9,31,30,039,15.9,32,51,146,34.8*66
$GPRMC,014100.44,A,1550.402391,S,04801.235542,W,016.8,063.1,220922,,,A*51
$GPGGA,014101.44,1550.400387,S,04801.231233,W,1,00,    ,1147.91,M,0.0,M,0.0,0000*5B
$GPGSV,2,1,7,8,49,250,38.6,10,21,138,18.4,21,23,212,15.7,22,83,126,28.2*71
$GPGSV,2,2,7,27,62,320,29.3,31,30,039,22.9,32,51,146,37.0*68
$GPRMC,014101.44,A,1550.400387,S,04801.231233,W,014.1,065.4,220922,,,A*58
$GPGGA,014102.44,1550.398784,S,04801.227616,W,1,00,    ,1147.32,M,0.0,M,0.0,0000*54
$GPGSV,2,1,7,8,49,250,39.6,10,21,138,20.4,21,23,212,30.0,22,83,127,23.9*7A
$GPGSV,2,2,7,27,62,320,18.1,31,30,039,24.2,32,51,146,36.0*64
$GPRMC,014102.44,A,1550.398784,S,04801.227616,W,011.2,062.9,220922,,,A*52
$GPGGA,014103.44,1550.397568,S,04801.224834,W,1,00,    ,1146.89,M,0.0,M,0.0,0000*56
$GPGSV,2,1,7,8,49,250,39.7,10,21,138,18.0,21,23,212,31.4,22,83,127,27.6*7A
$GPGSV,2,2,7,27,62,320,21.4,31,30,039,35.5,32,51,146,34.1*6F
$GPRMC,014103.44,A,1550.397568,S,04801.224834,W,007.6,067.8,220922,,,A*56
$GPGGA,014104.44,1550.396600,S,04801.222708,W,1,00,    ,1147.22,M,0.0,M,0.0,0000*5B
$GPGSV,2,1,7,8,49,250,39.8,10,21,138,21.3,21,23,212,26.1,22,83,127,25.6*7D
$GPGSV,2,2,7,27,62,320,30.1,31,30,039,41.3,32,51,146,36.0*6C
$GPRMC,014104.44,A,1550.396600,S,04801.222708,W,006.6,066.1,220922,,,A*52
$GPGGA,014105.44,1550.395875,S,04801.221002,W,1,00,    ,1147.90,M,0.0,M,0.0,0000*52
$GPGSV,2,1,7,8,49,250,39.2,10,21,138,20.2,21,23,212,23.5,22,83,127,24.4*75
$GPGSV,2,2,7,27,62,320,27.8,31,30,039,34.5,32,51,146,35.2*66
$GPRMC,014105.44,A,1550.395875,S,04801.221002,W,007.0,062.2,220922,,,A*52
$GPGGA,014106.44,1550.394896,S,04801.219328,W,1,00,    ,1147.46,M,0.0,M,0.0,0000*56
$GPGSV,2,1,8,8,49,250,38.9,10,21,138,23.3,16,12,338,14.3,21,23,212,26.4*71
$GPGSV,2,2,8,22,83,127,23.6,27,62,320,20.1,31,30,039,36.2,32,51,146,33.5*45
$GPRMC,014106.44,A,1550.394896,S,04801.219328,W,006.5,069.0,220922,,,A*50
$GPGGA,014107.44,1550.394318,S,04801.217383,W,1,00,    ,1147.05,M,0.0,M,0.0,0000*52
$GPGSV,2,1,7,8,49,250,38.8,10,21,138,30.1,21,23,212,24.7,22,83,127,19.9*7A
$GPGSV,2,2,7,27,62,320,24.2,31,30,039,35.9,32,51,146,35.2*62
$GPRMC,014107.44,A,1550.394318,S,04801.217383,W,008.7,067.7,220922,,,A*56
$GPGGA,014108.44,1550.393413,S,04801.214718,W,1,00,    ,1147.01,M,0.0,M,0.0,0000*57
$GPGSV,2,1,7,8,49,250,39.8,10,21,138,31.2,21,23,212,29.1,22,83,127,23.1*73
$GPGSV,2,2,7,27,62,320,31.6,31,30,039,36.0,32,51,146,33.6*6A
$GPRMC,014108.44,A,1550.393413,S,04801.214718,W,010.1,066.4,220922,,,A*5A
$GPGGA,014109.44,1550.392658,S,04801.211984,W,1,00,    ,1145.60,M,0.0,M,0.0,0000*51
$GPGSV,2,1,7,8,49,251,40.5,10,21,138,32.7,21,23,212,27.3,22,83,127,24.2*7F
$GPGSV,2,2,7,27,62,320,34.5,31,30,039,38.6,32,51,146,34.5*60
$GPRMC,014109.44,A,1550.392658,S,04801.211984,W,008.9,065.6,220922,,,A*59
$GPGGA,014110.44,1550.391488,S,04801.209853,W,1,00,    ,1143.92,M,0.0,M,0.0,0000*5C
$GPGSV,2,1,7,8,49,251,39.3,10,21,138,33.5,21,23,212,24.3,22,83,127,27.8*7E
$GPGSV,2,2,7,27,62,320,32.8,31,30,039,37.4,32,51,146,38.2*6D
$GPRMC,014110.44,A,1550.391488,S,04801.209853,W,006.9,066.5,220922,,,A*51
$GPGGA,014111.44,1550.390668,S,04801.207874,W,1,00,    ,1144.41,M,0.0,M,0.0,0000*52
$GPGSV,2,1,7,8,49,251,38.1,10,21,138,35.7,21,23,212,25.3,22,83,127,23.2*76
$GPGSV,2,2,7,27,62,320,31.7,31,30,039,35.1,32,51,146,34.6*6E
$GPRMC,014111.44,A,1550.390668,S,04801.207874,W,005.3,066.0,220922,,,A*5A
$GPGGA,014112.44,1550.389980,S,04801.206367,W,1,00,    ,1144.51,M,0.0,M,0.0,0000*59
$GPGSV,2,1,7,8,49,251,38.0,10,21,138,30.5,21,23,212,23.2,22,83,127,20.2*74
$GPGSV,2,2,7,27,62,320,34.3,31,30,039,34.6,32,51,146,33.3*6B
$GPRMC,014112.44,A,1550.389980,S,04801.206367,W,006.2,065.1,220922,,,A*50
$GPGGA,014113.44,1550.389238,S,04801.204765,W,1,00,    ,1144.25,M,0.0,M,0.0,0000*57
$GPGSV,2,1,7,8,49,251,39.5,10,21,138,28.0,16,11,338,13.4,21,23,212,23.8*70
$GPGSV,2,2,7,27,62,320,35.8,31,30,039,37.2,32,51,146,35.0*63
$GPRMC,014113.44,A,1550.389238,S,04801.204765,W,008.3,064.4,220922,,,A*56
$GPGGA,014114.44,1550.388108,S,04801.202427,W,1,00,    ,1144.01,M,0.0,M,0.0,0000*54
$GPGSV,2,1,7,8,49,251,39.8,10,21,138,28.6,21,23,212,26.6,22,83,127,23.8*7F
$GPGSV,2,2,7,27,62,320,34.7,31,30,039,38.7,32,51,146,34.8*6E
$GPRMC,014114.44,A,1550.388108,S,04801.202427,W,010.2,064.7,220922,,,A*58
$GPGGA,014115.44,1550.386848,S,04801.199623,W,1,00,    ,1144.26,M,0.0,M,0.0,0000*54
$GPGSV,2,1,7,8,49,251,39.1,10,21,138,22.5,21,23,212,24.7,22,83,127,22.4*71
$GPGSV,2,2,7,27,62,320,33.5,31,30,039,37.9,32,51,146,36.2*62
$GPRMC,014115.44,A,1550.386848,S,04801.199623,W,010.1,065.4,220922,,,A*5C
$GPGGA,014116.44,1550.385681,S,04801.196919,W,1,00,    ,1143.68,M,0.0,M,0.0,0000*5B
$GPGSV,2,1,8,8,49,251,39.2,10,21,138,18.5,16,11,338,24.0,21,23,212,27.5*77
$GPGSV,2,2,8,22,83,127,26.1,27,62,320,34.8,31,30,039,36.5,32,51,146,33.7*4E
$GPRMC,014116.44,A,1550.385681,S,04801.196919,W,009.1,073.0,220922,,,A*55
$GPGGA,014117.44,1550.384683,S,04801.194566,W,1,00,    ,1144.34,M,0.0,M,0.0,0000*51
$GPGSV,2,1,8,8,49,251,37.0,10,21,138,24.3,16,11,338,28.9,21,23,212,28.7*7A
$GPGSV,2,2,8,22,83,127,21.8,27,62,320,33.0,31,30,039,36.9,32,51,146,34.3*40
$GPRMC,014117.44,A,1550.384683,S,04801.194566,W,007.9,085.5,220922,,,A*5B
$GPGGA,014118.44,1550.384284,S,04801.192322,W,1,00,    ,1145.01,M,0.0,M,0.0,0000*5A
$GPGSV,2,1,8,8,49,251,34.4,10,21,138,22.2,16,11,338,24.5,21,23,212,26.8*7B
$GPGSV,2,2,8,22,83,127,26.3,27,62,320,29.4,31,30,039,37.8,32,51,146,30.8*4C
$GPRMC,014118.44,A,1550.384284,S,04801.192322,W,006.4,092.2,220922,,,A*5A
$GPGGA,014119.44,1550.383847,S,04801.190816,W,1,00,    ,1146.71,M,0.0,M,0.0,0000*53
$GPGSV,2,1,8,8,49,251,34.3,10,21,138,24.3,16,11,338,28.9,21,23,212,29.0*7C
$GPGSV,2,2,8,22,83,127,27.3,27,62,320,29.5,31,30,039,36.9,32,51,146,30.1*45
$GPRMC,014119.44,A,1550.383847,S,04801.190816,W,006.6,108.6,220922,,,A*53
$GPGGA,014120.44,1550.384193,S,04801.189192,W,1,00,    ,1147.39,M,0.0,M,0.0,0000*5E
$GPGSV,2,1,8,8,49,251,33.8,10,21,138,21.5,16,11,338,29.0,21,23,212,27.5*70
$GPGSV,2,2,8,22,83,127,24.7,27,62,320,29.6,31,30,039,32.7,32,51,146,33.8*41
$GPRMC,014120.44,A,1550.384193,S,04801.189192,W,006.2,134.3,220922,,,A*5D
$GPGGA,014121.44,1550.385480,S,04801.188003,W,1,00,    ,1148.14,M,0.0,M,0.0,0000*51
$GPGSV,2,1,8,8,49,251,29.2,10,21,138,21.3,16,11,338,25.5,21,23,212,31.4*78
$GPGSV,2,2,8,22,83,127,23.5,27,62,320,30.5,31,30,039,29.3,32,51,146,35.3*4C
$GPRMC,014121.44,A,1550.385480,S,04801.188003,W,006.3,149.4,220922,,,A*5E
$GPGGA,014122.44,1550.387070,S,04801.187119,W,1,00,    ,1148.13,M,0.0,M,0.0,0000*59
$GPGSV,2,1,8,8,49,251,24.1,10,21,138,18.2,16,11,338,29.4,21,23,212,28.5*79
$GPGSV,2,2,8,22,83,128,25.3,27,62,320,32.8,31,30,039,23.1,32,51,147,36.7*42
$GPRMC,014122.44,A,1550.387070,S,04801.187119,W,006.9,154.9,220922,,,A*5A
$GPGGA,014123.44,1550.388843,S,04801.186276,W,1,00,    ,1147.59,M,0.0,M,0.0,0000*55
$GPGSV,2,1,7,8,49,251,29.2,16,11,338,29.0,21,23,212,28.0,22,83,128,26.0*7E
$GPGSV,2,2,7,27,62,320,30.4,31,30,039,20.1,32,51,147,38.3*60
$GPRMC,014123.44,A,1550.388843,S,04801.186276,W,007.0,159.9,220922,,,A*52
$GPGGA,014124.44,1550.390802,S,04801.185636,W,1,00,    ,1147.35,M,0.0,M,0.0,0000*57
$GPGSV,2,1,7,8,49,251,30.4,10,21,138,16.7,16,11,338,32.6,21,23,212,29.5*74
$GPGSV,2,2,7,22,83,128,23.1,27,62,320,27.8,32,51,147,39.3*63
$GPRMC,014124.44,A,1550.390802,S,04801.185636,W,006.9,158.1,220922,,,A*5B
$GPGGA,014125.44,1550.392515,S,04801.184978,W,1,00,    ,1147.54,M,0.0,M,0.0,0000*5C
$GPGSV,2,1,8,8,49,251,31.9,10,21,138,20.9,16,11,338,30.6,21,23,212,28.5*7F
$GPGSV,2,2,8,22,83,128,22.1,27,62,320,32.9,31,30,039,18.8,32,51,147,39.3*4C
$GPRMC,014125.44,A,1550.392515,S,04801.184978,W,006.1,158.6,220922,,,A*58
$GPGGA,014126.44,1550.394310,S,04801.184224,W,1,00,    ,1146.39,M,0.0,M,0.0,0000*52
$GPGSV,2,1,7,8,49,251,31.7,16,11,338,31.6,21,23,212,28.8,22,83,128,26.2*77
$GPGSV,2,2,7,27,62,320,33.2,31,30,039,22.4,32,51,147,40.1*6F
$GPRMC,014126.44,A,1550.394310,S,04801.184224,W,004.7,159.4,220922,,,A*5B
$GPGGA,014127.44,1550.395492,S,04801.183800,W,1,00,    ,1146.27,M,0.0,M,0.0,0000*5B
$GPGSV,2,1,8,8,49,251,32.3,10,21,138,17.9,16,11,338,34.8,21,23,212,28.4*79
$GPGSV,2,2,8,22,83,128,23.7,27,62,320,25.5,31,30,039,25.9,32,51,147,37.7*44
$GPRMC,014127.44,A,1550.395492,S,04801.183800,W,003.0,156.3,220922,,,A*55
$GPGGA,014128.44,1550.396186,S,04801.183520,W,1,00,    ,1145.23,M,0.0,M,0.0,0000*5F
$GPGSV,2,1,7,8,49,251,30.5,16,11,338,33.8,21,23,212,32.7,22,83,128,22.2*78
$GPGSV,2,2,7,27,62,320,33.0,31,30,039,22.7,32,51,147,32.2*68
$GPRMC,014128.44,A,1550.396186,S,04801.183520,W,001.8,157.1,220922,,,A*5F
$GPGGA,014129.44,1550.396599,S,04801.183414,W,1,00,    ,1144.89,M,0.0,M,0.0,0000*53
$GPGSV,2,1,7,8,49,251,31.8,16,11,338,32.1,21,23,212,32.7,22,83,128,28.4*70
$GPGSV,2,2,7,27,62,320,33.8,31,30,039,19.7,32,51,147,31.8*61
$GPRMC,014129.44,A,1550.396599,S,04801.183414,W,000.2,,220922,,,A*75
$GPGGA,014130.44,1550.396511,S,04801.183613,W,1,00,    ,1145.16,M,0.0,M,0.0,0000*59
$GPGSV,2,1,8,8,49,251,30.7,10,21,138,15.6,16,11,338,33.2,21,23,212,30.9*7B
$GPGSV,2,2,8,22,83,128,26.6,27,62,320,27.4,31,30,039,19.9,32,51,147,29.5*41
$GPRMC,014130.44,A,1550.396511,S,04801.183613,W,000.1,,220922,,,A*7B