$GPGGA,013821.00,1550.51189,S,04801.89928,W,1,09,0.95,1177.4,M,-11.9,M,,*45
$GPGSA,A,3,22,27,32,08,31,10,21,16,26,,,,1.54,0.95,1.21*03
$GPGSV,3,1,12,03,10,268,16,04,00,323,,08,48,248,41,10,21,138,19*78
$GPGSV,3,2,12,16,12,336,30,18,06,062,,21,22,212,23,22,84,116,36*7D
$GPGSV,3,3,12,26,07,001,35,27,63,317,33,31,29,037,31,32,52,145,42*74
$GPGLL,1550.51189,S,04801.89928,W,013821.00,A,A*65
$GPGRS,013821.00,1,-2.8,1.4,-1.2,-1.6,-3.2,-119,8.4,5.4,-2.1,,,*7A
$GPGST,013821.00,35,,,,1.9,1.5,4.0*50
$GPZDA,013821.00,22,09,2022,00,00*64
$GPGBS,013821.00,1.9,1.5,4.0,,,,*40
$PUBX,00,013821.00,1550.51189,S,04801.89928,W,1165.487,G3,2.5,4.0,0.579,0.00,-0.045,,0.95,1.
$PUBX,03,12,3,-,268,10,16,000,4,-,323,00,,000,8,U,248,48,41,064,10,U,138,21,19,000,16,U,336,
$PUBX,04,013821.00,220922,351501.00,2228,18,-483753,-4651.323,21*20
$GPDTM,W84,,0.0,N,0.0,E,0.0,W84*6F
$GPRMC,013822.00,A,1550.51192,S,04801.89893,W,1.667,95.19,220922,,,A*51
$GPVTG,95.19,T,,M,1.667,N,3.087,K,A*03
$GPGGA,013822.00,1550.51192,S,04801.89893,W,1,09,0.95,1177.5,M,-11.9,M,,*4C
$GPGSA,A,3,22,27,32,08,31,10,21,16,26,,,,1.54,0.95,1.21*03
$GPGSV,3,1,12,03,10,268,15,04,00,323,,08,48,248,41,10,21,138,20*71
$GPGSV,3,2,12,16,12,336,30,18,06,062,,21,22,212,21,22,84,116,36*7F
$GPGSV,3,3,12,26,07,001,27,27,63,317,40,31,29,037,34,32,52,145,42*76
$GPGLL,1550.51192,S,04801.89893,W,013822.00,A,A*6D
$GPGRS,013822.00,1,-2.3,0.7,-1.0,-1.3,-3.8,-87.7,7.2,3.5,-1.0,,,*5E
$GPGST,013822.00,32,,,,2.0,1.5,4.1*5F
$GPZDA,013822.00,22,09,2022,00,00*67
$GPGBS,013822.00,2.0,1.5,4.1,,,,*48
$PUBX,00,013822.00,1550.51192,S,04801.89893,W,1165.653,G3,2.5,4.1,3.087,95.19,-0.042,,0.95,1
$PUBX,03,12,3,-,268,10,15,000,4,-,323,00,,000,8,U,248,48,41,064,10,U,138,21,20,000,16,U,336,
$PUBX,04,013822.00,220922,351502.00,2228,18,-488406,-4654.463,21*2E
$GPDTM,W84,,0.0,N,0.0,E,0.0,W84*6F
$GPRMC,013823.00,A,1550.51200,S,04801.89813,W,3.387,96.45,220922,,,A*53
$GPVTG,96.45,T,,M,3.387,N,6.272,K,A*0D
$GPGGA,013823.00,1550.51200,S,04801.89813,W,1,09,0.95,1177.6,M,-11.9,M,,*4E
$GPGSA,A,3,22,27,32,08,31,10,21,16,26,,,,1.54,0.95,1.21*03
$GPGSV,3,1,12,03,10,268,14,04,00,323,,08,48,248,40,10,21,138,20*71
$GPGSV,3,2,12,16,12,336,30,18,06,062,,21,22,212,20,22,84,116,35*7D
$GPGSV,3,3,12,26,07,001,26,27,63,317,36,31,29,037,33,32,52,145,43*70
$GPGLL,1550.51200,S,04801.89813,W,013823.00,A,A*6C
$GPGRS,013823.00,1,-2.4,0.5,-0.6,-0.2,-4.3,-100,-4.0,3.4,0.2,,,*75
$GPGST,013823.00,40,,,,2.0,1.6,4.2*5B
$GPZDA,013823.00,22,09,2022,00,00*66
$GPGBS,013823.00,2.0,1.6,4.2,,,,*49
$PUBX,00,013823.00,1550.51200,S,04801.89813,W,1165.763,G3,2.5,4.2,6.272,96.45,-0.040,,0.95,1
$PUBX,03,12,3,-,268,10,14,000,4,-,323,00,,000,8,U,248,48,40,064,10,U,138,21,20,000,16,U,336,
$PUBX,04,013823.00,220922,351503.00,2228,18,-493060,-4654.136,21*25
$GPDTM,W84,,0.0,N,0.0,E,0.0,W84*6F
$GPRMC,013824.00,A,1550.51211,S,04801.89707,W,4.004,97.01,220922,,,A*50
$GPVTG,97.01,T,,M,4.004,N,7.416,K,A*06
$GPGGA,013824.00,1550.51211,S,04801.89707,W,1,09,0.95,1177.7,M,-11.9,M,,*42
$GPGSA,A,3,22,27,32,08,31,10,21,16,26,,,,1.54,0.95,1.21*03
$GPGSV,3,1,12,03,10,268,12,04,00,323,,08,48,248,39,10,21,138,20*79
$GPGSV,3,2,12,16,12,336,33,18,06,062,,21,22,212,19,22,84,116,36*77
$GPGSV,3,3,12,26,07,001,26,27,63,317,31,31,29,037,23,32,52,145,43*76
$GPGLL,1550.51211,S,04801.89707,W,013824.00,A,A*61
$GPGRS,013824.00,1,-2.4,0.0,-0.8,0.0,-7.8,-106,1.9,4.4,1.3,,,*7E
$GPGST,013824.00,43,,,,2.1,1.6,4.3*5F
$GPZDA,013824.00,22,09,2022,00,00*61
$GPGBS,013824.00,2.1,1.6,4.3,,,,*4E
$PUBX,00,013824.00,1550.51211,S,04801.89707,W,1165.820,G3,2.6,4.3,7.416,97.01,-0.022,,0.95,1
$GPTXT,01,01,00,txbuf alloc*7F
$GPDTM,W84,,0.0,N,0.0,E,0.0,W84*6F
$GPRMC,013825.00,A,1550.51230,S,04801.89578,W,4.905,98.24,220922,,,A*58
$GPVTG,98.24,T,,M,4.905,N,9.084,K,A*07
$GPGGA,013825.00,1550.51230,S,04801.89578,W,1,09,0.95,1177.8,M,-11.9,M,,*45
$GPGSA,A,3,22,27,32,08,31,10,21,16,26,,,,1.54,0.95,1.21*03
$GPGSV,3,1,12,03,10,268,11,04,00,323,,08,48,248,40,10,21,138,22*76
$GPGSV,3,2,12,16,12,336,29,18,06,062,,21,22,212,18,22,84,116,35*7E
$GPGSV,3,3,12,26,07,001,27,27,63,317,39,31,29,037,29,32,52,145,42*74
$GPGLL,1550.51230,S,04801.89578,W,013825.00,A,A*69
$GPGRS,013825.00,1,-2.1,-0.3,-0.6,0.1,-9.3,-40.6,-9.2,3.2,2.5,,,*5F
$GPGST,013825.00,36,,,,2.1,1.6,4.4*5B
$GPZDA,013825.00,22,09,2022,00,00*60
$GPGBS,013825.00,2.1,1.6,4.4,,,,*48
$PUBX,00,013825.00,1550.51230,S,04801.89578,W,1165.875,G3,2.6,4.4,9.084,98.24,-0.017,,0.95,1
$PUBX,03,12,3,-,268,10,11,000,4,-,323,00,,000,8,U,248,48,40,064,10,U,138,21,22,000,16,U,336,
$PUBX,04,013825.00,220922,351505.00,2228,18,-502357,-4644.808,21*2E
$GPDTM,W84,,0.0,N,0.0,E,0.0,W84*6F
$GPRMC,013826.00,A,1550.51256,S,04801.89421,W,5.918,97.49,220922,,,A*5F
$GPVTG,97.49,T,,M,5.918,N,10.960,K,A*35
$GPGGA,013826.00,1550.51256,S,04801.89421,W,1,09,0.95,1177.4,M,-11.9,M,,*47
$GPGSA,A,3,22,27,32,08,31,10,21,16,26,,,,1.54,0.95,1.21*03
$GPGSV,3,1,12,03,10,268,12,04,00,323,,08,48,248,40,10,21,138,22*75
$GPGSV,3,2,12,16,12,336,29,18,06,062,,21,22,212,18,22,84,116,36*7D
$GPGSV,3,3,12,26,07,001,26,27,63,317,39,31,29,037,30,32,52,145,41*7E
$GPGLL,1550.51256,S,04801.89421,W,013826.00,A,A*67
$GPGRS,013826.00,1,-1.7,-0.5,-0.1,0.6,-9.2,-23.9,-11.6,3.2,0.9,,,*67
$GPGST,013826.00,35,,,,2.1,1.6,4.4*5B
$GPZDA,013826.00,22,09,2022,00,00*63
$GPGBS,013826.00,2.1,1.6,4.4,,,,*4B
$PUBX,00,013826.00,1550.51256,S,04801.89421,W,1165.526,G3,2.6,4.4,10.960,97.49,0.093,,0.95,1
$GPDTM,W84,,0.0,N,0.0,E,0.0,W84*6F
$GPRMC,013827.00,A,1550.51288,S,04801.89258,W,6.058,97.93,220922,,,A*5C
$GPVTG,97.93,T,,M,6.058,N,11.219,K,A*38
$GPGGA,013827.00,1550.51288,S,04801.89258,W,1,09,0.95,1177.3,M,-11.9,M,,*4A
$GPGSA,A,3,22,27,32,08,31,10,21,16,26,,,,1.54,0.95,1.21*03
$GPGSV,3,1,12,03,10,268,11,04,00,323,,08,48,248,40,10,21,138,22*76
$GPGSV,3,2,12,16,12,336,29,18,06,062,,21,22,212,18,22,84,116,36*7D
$GPGSV,3,3,12,26,07,001,28,27,63,317,37,31,29,037,36,32,52,145,44*7D
$GPGLL,1550.51288,S,04801.89258,W,013827.00,A,A*6D
$GPGRS,013827.00,1,-1.5,-0.1,0.2,0.7,-6.9,-10.3,2.7,3.2,1.9,,,*5E
$GPGST,013827.00,35,,,,2.0,1.6,4.5*5A
$GPZDA,013827.00,22,09,2022,00,00*62
$GPGBS,013827.00,2.0,1.6,4.5,,,,*4A
$GPDTM,W84,,0.0,N,0.0,E,0.0,W84*6F
$GPRMC,013828.00,A,1550.51336,S,04801.89100,W,5.875,99.52,220922,,,A*5E
$GPVTG,99.52,T,,M,5.875,N,10.880,K,A*34
$GPGGA,013828.00,1550.51336,S,04801.89100,W,1,09,0.95,1176.5,M,-11.9,M,,*48
$GPGSA,A,3,22,27,32,08,31,10,21,16,26,,,,1.54,0.95,1.21*03
$GPGSV,3,1,12,03,10,268,12,04,00,323,,08,48,248,40,10,21,138,21*76
$GPGSV,3,2,12,16,12,336,31,18,06,062,,21,22,212,17,22,84,116,37*7A
$GPGSV,3,3,12,26,07,001,32,27,63,317,41,31,29,037,37,32,52,145,44*76
$GPGLL,1550.51336,S,04801.89100,W,013828.00,A,A*68
$GPGRS,013828.00,1,-1.3,-1.0,0.0,0.4,-7.8,-9.1,3.6,3.5,3.0,,,*60
$GPGST,013828.00,38,,,,2.0,1.6,4.4*59
$GPZDA,013828.00,22,09,2022,00,00*6D
$GPGBS,013828.00,2.0,1.6,4.4,,,,*44
$GPDTM,W84,,0.0,N,0.0,E,0.0,W84*6F
$GPRMC,013829.00,A,1550.51360,S,04801.88924,W,6.603,96.57,220922,,,A*55
$GPVTG,96.57,T,,M,6.603,N,12.230,K,A*31
$GPGGA,013829.00,1550.51360,S,04801.88924,W,1,09,0.95,1175.9,M,-11.9,M,,*4A
$GPGSA,A,3,22,27,32,08,31,10,21,16,26,,,,1.54,0.95,1.21*03
$GPGSV,3,1,12,03,10,268,12,04,00,323,,08,48,248,40,10,21,138,23*74
$GPGSV,3,2,12,16,12,336,26,18,06,062,,21,22,212,18,22,84,116,38*7C
$GPGSV,3,3,12,26,07,001,32,27,63,317,39,31,29,037,32,32,52,145,44*7C
$GPGLL,1550.51360,S,04801.88924,W,013829.00,A,A*65
$GPGRS,013829.00,1,-1.7,1.0,-0.3,0.0,-18.1,-5.2,9.1,2.4,0.9,,,*5D
$GPGST,013829.00,35,,,,1.9,1.6,4.4*5F
$GPZDA,013829.00,22,09,2022,00,00*6C
$GPGBS,013829.00,1.9,1.6,4.4,,,,*4F
$PUBX,00,013829.00,1550.51360,S,04801.88924,W,1164.048,G3,2.5,4.4,12.230,96.57,0.426,,0.95,1
$PUBX,03,12,3,-,268,10,12,000,4,-,323,00,,000,8,U,248,48,40,064,10,U,138,21,23,000,16,U,336,
$PUBX,04,013829.00,220922,351509.00,2228,18,-520946,-4644.526,21*25
$GPTXT,01,01,00,txbuf alloc*7F
$GPDTM,W84,,0.0,N,0.0,E,0.0,W84*6F
$GPRMC,013830.00,A,1550.51377,S,04801.88734,W,6.739,95.36,220922,,,A*58
$GPVTG,95.36,T,,M,6.739,N,12.481,K,A*31
$GPGGA,013830.00,1550.51377,S,04801.88734,W,1,09,0.95,1175.8,M,-11.9,M,,*4A
$GPGSA,A,3,22,27,32,08,31,10,21,16,26,,,,1.54,0.95,1.21*03
$GPGSV,3,1,12,03,10,268,13,04,00,323,,08,48,248,41,10,21,138,21*76
$GPGSV,3,2,12,16,12,336,34,18,06,062,,21,22,212,17,22,84,116,38*70
$GPGSV,3,3,12,26,07,001,27,27,63,317,42,31,29,037,26,32,52,145,46*73
$GPGLL,1550.51377,S,04801.88734,W,013830.00,A,A*64
$GPGRS,013830.00,1,-2.1,0.5,0.0,0.1,-25.5,-6.4,2.0,1.6,-1.8,,,*52
$GPGST,013830.00,42,,,,1.9,1.6,4.4*57
$GPZDA,013830.00,22,09,2022,00,00*64
$GPGBS,013830.00,1.9,1.6,4.4,,,,*47
$PUBX,04,013830.00,220922,351510.00,2228,18,-525591,-4646.247,21*24
$GPDTM,W84,,0.0,N,0.0,E,0.0,W84*6F
$GPRMC,013831.00,A,1550.51384,S,04801.88538,W,6.863,93.20,220922,,,A*5A
$GPVTG,93.20,T,,M,6.863,N,12.710,K,A*3B
$GPGGA,013831.00,1550.51384,S,04801.88538,W,1,09,0.95,1176.1,M,-11.9,M,,*43
$GPGSA,A,3,22,27,32,08,31,10,21,16,26,,,,1.54,0.95,1.21*03
$GPGSV,3,1,12,03,10,268,12,04,00,323,,08,48,248,41,10,21,138,22*74
$GPGSV,3,2,12,16,12,336,29,18,06,062,,21,22,212,17,22,84,116,37*73
$GPGSV,3,3,12,26,07,001,25,27,63,317,41,31,29,037,25,32,52,145,42*75
$GPGLL,1550.51384,S,04801.88538,W,013831.00,A,A*67
$GPGRS,013831.00,1,-2.3,1.3,1.0,0.0,-26.7,-5.4,-5.5,3.0,-4.8,,,*7A
$GPGST,013831.00,38,,,,1.9,1.6,4.4*5B
$GPZDA,013831.00,22,09,2022,00,00*65
$GPGBS,013831.00,1.9,1.6,4.4,,,,*46
$PUBX,00,013831.00,1550.51384,S,04801.88538,W,1164.165,G3,2.5,4.4,12.710,93.20,0.060,,0.95,1
$PUBX,03,12,3,-,268,10,12,000,4,-,323,00,,000,8,U,248,48,41,064,10,U,138,21,22,000,16,U,336,
$PUBX,04,013831.00,220922,351511.00,2228,18,-530238,-4649.049,21*27
$GPDTM,W84,,0.0,N,0.0,E,0.0,W84*6F
$GPRMC,013832.00,A,1550.51370,S,04801.88337,W,6.930,85.94,220922,,,A*54
$GPVTG,85.94,T,,M,6.930,N,12.834,K,A*3D
$GPGGA,013832.00,1550.51370,S,04801.88337,W,1,09,0.95,1175.9,M,-11.9,M,,*49
$GPGSA,A,3,22,27,32,08,31,10,21,16,26,,,,1.54,0.95,1.21*03
$GPGSV,3,1,12,03,10,268,15,04,00,323,,08,48,248,42,10,21,138,21*73
$GPGSV,3,2,12,16,12,336,23,18,06,062,,21,22,212,18,22,84,116,35*74
$GPGSV,3,3,12,26,07,001,33,27,63,317,42,31,29,037,25,32,52,145,46*75
$GPGLL,1550.51370,S,04801.88337,W,013832.00,A,A*66
$GPGRS,013832.00,1,-2.3,0.5,1.2,-0.7,-25.0,-12.7,-15.1,3.8,-0.7,,,*51
$GPGST,013832.00,47,,,,1.9,1.6,4.4*50
$GPZDA,013832.00,22,09,2022,00,00*66
$GPGBS,013832.00,1.9,1.6,4.4,,,,*45
$PUBX,00,013832.00,1550.51370,S,04801.88337,W,1164.057,G3,2.5,4.4,12.834,85.94,0.113,,0.95,1
$PUBX,03,12,3,-,268,10,15,000,4,-,323,00,,000,8,U,248,48,42,064,10,U,138,21,21,000,16,U,336,
$GPDTM,W84,,0.0,N,0.0,E,0.0,W84*6F
$GPRMC,013833.00,A,1550.51350,S,04801.88156,W,6.233,83.15,220922,,,A*55
$GPVTG,83.15,T,,M,6.233,N,11.544,K,A*33
$GPGGA,013833.00,1550.51350,S,04801.88156,W,1,09,0.95,1175.9,M,-11.9,M,,*4F
$GPGSA,A,3,22,27,32,08,31,10,21,16,26,,,,1.54,0.95,1.21*03
$GPGSV,3,1,12,03,10,268,15,04,00,323,,08,48,248,35,10,21,138,19*78
$GPGSV,3,2,12,16,12,336,24,18,06,062,,21,22,212,19,22,84,116,36*71
$GPGSV,3,3,12,26,07,001,32,27,63,317,37,31,29,037,31,32,52,145,45*70
$GPGLL,1550.51350,S,04801.88156,W,013833.00,A,A*60
$GPGRS,013833.00,1,-3.0,0.0,0.3,-0.9,-21.6,-14.0,-15.3,-0.5,-0.5,,,*79
$GPGST,013833.00,42,,,,1.9,1.7,4.5*54
$GPZDA,013833.00,22,09,2022,00,00*67
$GPGBS,013833.00,1.9,1.7,4.5,,,,*44
$PUBX,00,013833.00,1550.51350,S,04801.88156,W,1163.965,G3,2.6,4.5,11.544,83.15,0.133,,0.95,1
$PUBX,03,12,3,-,268,10,15,000,4,-,323,00,,000,8,U,248,48,35,064,10,U,138,21,19,000,16,U,336,
$PUBX,04,013833.00,220922,351513.00,2228,18,-539531,-4643.092,21*2C
$GPDTM,W84,,0.0,N,0.0,E,0.0,W84*6F
$GPRMC,013834.00,A,1550.51333,S,04801.88016,W,5.105,82.02,220922,,,A*50
$GPVTG,82.02,T,,M,5.105,N,9.454,K,A*08
$GPGGA,013834.00,1550.51333,S,04801.88016,W,1,09,0.95,1176.0,M,-11.9,M,,*42
$GPGSA,A,3,22,27,32,08,31,10,21,16,26,,,,1.54,0.95,1.21*03
$GPGSV,3,1,12,03,10,268,16,04,00,323,,08,48,248,32,10,21,138,17*72
$GPGSV,3,2,12,16,12,336,26,18,06,062,,21,22,212,20,22,84,116,38*77
$GPGSV,3,3,12,26,07,001,20,27,63,317,25,31,29,037,38,32,52,145,40*7C
$GPGLL,1550.51333,S,04801.88016,W,013834.00,A,A*67
$GPGRS,013834.00,1,-2.7,-0.4,0.3,-1.1,-9.6,-23.8,-15.0,-3.5,-1.3,,,*69
$GPGST,013834.00,43,,,,2.1,2.0,4.7*5F
$GPZDA,013834.00,22,09,2022,00,00*60
$GPGBS,013834.00,2.1,2.0,4.7,,,,*4E
$PUBX,00,013834.00,1550.51333,S,04801.88016,W,1164.135,G3,2.9,4.7,9.454,82.02,0.072,,0.95,1.
$GPTXT,01,01,00,txbuf alloc*7F
$GPDTM,W84,,0.0,N,0.0,E,0.0,W84*6F
$GPRMC,013835.00,A,1550.51266,S,04801.87909,W,4.655,61.89,220922,,,A*55
$GPVTG,61.89,T,,M,4.655,N,8.621,K,A*04
$GPGGA,013835.00,1550.51266,S,04801.87909,W,1,09,0.95,1176.4,M,-11.9,M,,*4E
$GPGSA,A,3,22,27,32,08,31,10,21,16,26,,,,1.54,0.95,1.21*03
$GPGSV,3,1,12,03,10,268,20,04,00,323,,08,48,248,35,10,21,138,17*70
$GPGSV,3,2,12,16,12,336,26,18,06,062,,21,22,212,21,22,84,116,30*7E
$GPGSV,3,3,12,26,07,001,19,27,63,317,22,31,29,037,34,32,52,145,45*78
$GPGLL,1550.51266,S,04801.87909,W,013835.00,A,A*6F
$GPGRS,013835.00,1,-2.0,1.4,-0.1,-1.1,-7.6,-26.8,-17.0,-6.9,-3.4,,,*69
$GPGST,013835.00,56,,,,2.2,2.3,4.9*54
$GPZDA,013835.00,22,09,2022,00,00*61
$GPGBS,013835.00,2.2,2.3,4.9,,,,*41
$PUBX,00,013835.00,1550.51266,S,04801.87909,W,1164.545,G3,3.2,4.9,8.621,61.89,-0.056,,0.95,1
$PUBX,03,12,3,-,268,10,20,000,4,-,323,00,,000,8,U,248,48,35,000,10,U,138,21,17,000,16,U,336,
$PUBX,04,013835.00,220922,351515.00,2228,18,-548812,-4642.080,21*24
$GPDTM,W84,,0.0,N,0.0,E,0.0,W84*6F
$GPRMC,013836.00,A,1550.51157,S,04801.87828,W,6.486,51.19,220922,,,A*51
$GPVTG,51.19,T,,M,6.486,N,12.011,K,A*3E
$GPGGA,013836.00,1550.51157,S,04801.87828,W,1,09,0.95,1177.2,M,-11.9,M,,*49
$GPGSA,A,3,22,27,32,08,31,10,21,16,26,,,,1.54,0.95,1.21*03
$GPGSV,3,1,12,03,10,268,22,04,00,323,,08,48,248,27,10,21,138,17*71
$GPGSV,3,2,12,16,12,336,25,18,06,062,,21,22,212,22,22,84,116,34*7A
$GPGSV,3,3,12,26,07,001,19,27,63,317,29,31,29,037,40,32,52,145,46*73
$GPGLL,1550.51157,S,04801.87828,W,013836.00,A,A*6F
$GPGRS,013836.00,1,-1.3,-1.9,-0.2,-1.5,-7.0,-27.3,-16.7,-7.8,-2.5,,,*47
$GPGST,013836.00,54,,,,2.3,2.7,5.1*59
$GPZDA,013836.00,22,09,2022,00,00*62
$GPGBS,013836.00,2.3,2.7,5.1,,,,*4E
$PUBX,00,013836.00,1550.51157,S,04801.87828,W,1165.317,G3,3.5,5.1,12.011,51.19,-0.133,,0.95,
$GPDTM,W84,,0.0,N,0.0,E,0.0,W84*6F
$GPRMC,013837.00,A,1550.50989,S,04801.87818,W,6.695,24.77,220922,,,A*53
$GPVTG,24.77,T,,M,6.695,N,12.399,K,A*37
$GPGGA,013837.00,1550.50989,S,04801.87818,W,1,09,0.95,1176.9,M,-11.9,M,,*4B
$GPGSA,A,3,22,27,32,08,31,10,21,16,26,,,,1.54,0.95,1.21*03
$GPGSV,3,1,12,03,10,268,21,04,00,323,,08,48,248,26,10,21,138,18*7C
$GPGSV,3,2,12,16,12,336,25,18,06,062,,21,22,212,21,22,84,116,31*7C
$GPGSV,3,3,12,26,07,001,18,27,63,317,43,31,29,037,32,32,52,145,45*78
$GPGLL,1550.50989,S,04801.87818,W,013837.00,A,A*67
$GPGRS,013837.00,1,-1.2,-1.9,-0.7,-3.1,-8.1,-23.7,-19.9,-9.6,-2.6,,,*48
$GPGST,013837.00,53,,,,2.4,3.0,5.4*5B
$GPZDA,013837.00,22,09,2022,00,00*63
$GPGBS,013837.00,2.4,3.0,5.4,,,,*4B
$GPDTM,W84,,0.0,N,0.0,E,0.0,W84*6F
$GPRMC,013838.00,A,1550.50819,S,04801.87824,W,7.142,8.61,220922,,,A*6E
$GPVTG,8.61,T,,M,7.142,N,13.227,K,A*07
$GPGGA,013838.00,1550.50819,S,04801.87824,W,1,09,0.95,1176.7,M,-11.9,M,,*4D
$GPGSA,A,3,22,27,32,08,31,10,21,16,26,,,,1.54,0.95,1.21*03
$GPGSV,3,1,12,03,10,268,20,04,00,323,,08,48,248,25,10,21,138,19*7F
$GPGSV,3,2,12,16,12,336,25,18,06,062,,21,22,212,21,22,84,116,34*79
$GPGSV,3,3,12,26,07,001,18,27,63,317,41,31,29,037,39,32,52,145,45*71
$GPGLL,1550.50819,S,04801.87824,W,013838.00,A,A*6F
$GPGRS,013838.00,1,-0.3,-1.3,-0.2,-6.0,-3.3,-22.4,-24.8,-13.4,-2.8,,,*7F
$GPGST,013838.00,51,,,,2.3,3.2,5.7*50
$GPZDA,013838.00,22,09,2022,00,00*6C
$GPGBS,013838.00,2.3,3.2,5.7,,,,*42
$GPDTM,W84,,0.0,N,0.0,E,0.0,W84*6F
$GPRMC,013839.00,A,1550.50635,S,04801.87850,W,7.548,2.54,220922,,,A*6E
$GPVTG,2.54,T,,M,7.548,N,13.979,K,A*05
$GPGGA,013839.00,1550.50635,S,04801.87850,W,1,09,0.95,1176.6,M,-11.9,M,,*4E
$GPGSA,A,3,22,27,32,08,31,10,21,16,26,,,,1.54,0.95,1.21*03
$GPGSV,3,1,12,03,10,268,17,04,00,323,,08,48,248,25,10,21,138,19*7B
$GPGSV,3,2,12,16,12,336,26,18,06,062,,21,22,212,20,22,84,116,33*7C
$GPGSV,3,3,12,26,07,001,17,27,63,317,38,31,29,037,41,32,52,145,44*7E
$GPGLL,1550.50635,S,04801.87850,W,013839.00,A,A*6D
$GPGRS,013839.00,1,0.4,0.3,-0.1,-8.5,-2.8,-19.6,-26.1,-12.4,-4.8,,,*7C
$GPGST,013839.00,50,,,,2.2,3.2,6.0*55
$GPZDA,013839.00,22,09,2022,00,00*6D
$GPGBS,013839.00,2.2,3.2,6.0,,,,*46
$PUBX,00,013839.00,1550.50635,S,04801.87850,W,1164.671,G3,3.9,6.0,13.979,2.54,0.317,,0.95,1.
$PUBX,03,12,3,-,268,10,17,000,4,-,323,00,,000,8,U,248,48,25,000,10,U,138,21,19,000,16,U,336,
$PUBX,04,013839.00,220922,351519.00,2228,18,-567367,-4639.156,21*26
$GPTXT,01,01,00,txbuf alloc*7F
$GPDTM,W84,,0.0,N,0.0,E,0.0,W84*6F
$GPRMC,013840.00,A,1550.50429,S,04801.87829,W,7.509,6.38,220922,,,A*6A
$GPVTG,6.38,T,,M,7.509,N,13.906,K,A*06
$GPGGA,013840.00,1550.50429,S,04801.87829,W,1,09,0.95,1176.8,M,-11.9,M,,*4F
$GPGSA,A,3,22,27,32,08,31,10,21,16,26,,,,1.54,0.95,1.21*03
$GPGSV,3,1,12,03,10,268,15,04,00,323,,08,48,248,24,10,21,138,20*72
$GPGSV,3,2,12,16,12,336,26,18,06,062,,21,22,212,21,22,84,116,34*7A
$GPGSV,3,3,12,26,07,001,18,27,63,317,44,31,29,037,38,32,52,145,45*75
$GPGLL,1550.50429,S,04801.87829,W,013840.00,A,A*62
$GPGRS,013840.00,1,0.7,0.1,-0.3,-8.9,-2.2,-14.8,-21.6,-9.3,-8.3,,,*4E
$GPGST,013840.00,49,,,,2.2,3.2,6.1*52
$GPZDA,013840.00,22,09,2022,00,00*63
$GPGBS,013840.00,2.2,3.2,6.1,,,,*49
$GPDTM,W84,,0.0,N,0.0,E,0.0,W84*6F
$GPRMC,013841.00,A,1550.50268,S,04801.87801,W,5.189,7.20,220922,,,A*64
$GPVTG,7.20,T,,M,5.189,N,9.609,K,A*3B
$GPGGA,013841.00,1550.50268,S,04801.87801,W,1,09,0.95,1176.5,M,-11.9,M,,*4A
$GPGSA,A,3,22,27,32,08,31,10,21,16,26,,,,1.54,0.95,1.21*03
$GPGSV,3,1,12,03,10,268,11,04,00,323,,08,48,248,27,10,21,138,30*74
$GPGSV,3,2,12,16,12,336,32,18,06,062,,21,22,212,21,22,84,116,34*7F
$GPGSV,3,3,12,26,07,001,17,27,63,317,42,31,29,037,28,32,52,145,44*7C
$GPGLL,1550.50268,S,04801.87801,W,013841.00,A,A*6A
$GPGRS,013841.00,1,0.4,-0.1,-0.3,-8.0,-4.6,-9.1,-17.4,-1.7,-9.2,,,*54
$GPGST,013841.00,42,,,,2.2,3.3,6.1*59
$GPZDA,013841.00,22,09,2022,00,00*62
$GPGBS,013841.00,2.2,3.3,6.1,,,,*49
$PUBX,00,013841.00,1550.50268,S,04801.87801,W,1164.569,G3,4.0,6.1,9.609,7.20,0.341,,0.95,1.2
$PUBX,03,12,3,-,268,10,11,000,4,-,323,00,,000,8,U,248,48,27,000,10,U,138,21,30,000,16,U,336,
$PUBX,04,013841.00,220922,351521.00,2228,18,-576645,-4637.556,21*2D
$GPDTM,W84,,0.0,N,0.0,E,0.0,W84*6F
$GPRMC,013842.00,A,1550.50144,S,04801.87743,W,4.098,13.69,220922,,,A*5B
$GPVTG,13.69,T,,M,4.098,N,7.589,K,A*06
$GPGGA,013842.00,1550.50144,S,04801.87743,W,1,09,0.95,1176.8,M,-11.9,M,,*40
$GPGSA,A,3,22,27,32,08,31,10,21,16,26,,,,1.54,0.95,1.21*03
$GPGSV,3,1,12,03,10,268,,04,00,323,,08,48,248,37,10,21,138,36*73
$GPGSV,3,2,12,16,12,336,28,18,06,062,,21,22,212,21,22,84,116,37*77
$GPGSV,3,3,12,26,07,001,17,27,63,317,40,31,29,037,33,32,52,145,44*74
$GPGLL,1550.50144,S,04801.87743,W,013842.00,A,A*6D
$GPGRS,013842.00,1,-0.2,-0.2,0.1,-5.9,-3.5,-0.5,-14.5,3.7,-10.1,,,*4B
$GPGST,013842.00,39,,,,2.3,3.3,6.0*56
$GPZDA,013842.00,22,09,2022,00,00*61
$GPGBS,013842.00,2.3,3.3,6.0,,,,*4A
$PUBX,00,013842.00,1550.50144,S,04801.87743,W,1164.958,G3,4.0,6.0,7.589,13.69,0.257,,0.95,1.
$PUBX,03,12,3,-,268,10,,000,4,-,323,00,,000,8,U,248,48,37,000,10,U,138,21,36,000,16,U,336,12
$PUBX,04,013842.00,220922,351522.00,2228,18,-581277,-4631.131,21*23
$GPDTM,W84,,0.0,N,0.0,E,0.0,W84*6F
$GPRMC,013843.00,A,1550.50044,S,04801.87684,W,2.506,17.07,220922,,,A*59
$GPVTG,17.07,T,,M,2.506,N,4.642,K,A*09
$GPGGA,013843.00,1550.50044,S,04801.87684,W,1,09,0.95,1177.7,M,-11.9,M,,*44
$GPGSA,A,3,22,27,32,08,31,10,21,16,26,,,,1.54,0.95,1.21*03
$GPGSV,3,1,12,03,10,268,,04,00,323,,08,48,248,41,10,21,138,33*77
$GPGSV,3,2,12,16,12,336,33,18,06,062,,21,22,212,23,22,84,116,42*7D
$GPGSV,3,3,12,26,07,001,16,27,63,317,41,31,29,037,28,32,52,145,43*79
$GPGLL,1550.50044,S,04801.87684,W,013843.00,A,A*67
$GPGRS,013843.00,1,-0.9,2.3,0.3,-3.5,-1.4,2.3,-13.2,5.9,-12.3,,,*45
$GPGST,013843.00,35,,,,2.2,3.1,5.6*5D
$GPZDA,013843.00,22,09,2022,00,00*60
$GPGBS,013843.00,2.2,3.1,5.6,,,,*4D
$PUBX,00,013843.00,1550.50044,S,04801.87684,W,1165.801,G3,3.8,5.6,4.642,17.07,0.059,,0.95,1.
$PUBX,03,12,3,-,268,10,,000,4,-,323,00,,000,8,U,248,48,41,000,10,U,138,21,33,000,16,U,336,12
$PUBX,04,013843.00,220922,351523.00,2228,18,-585904,-4628.972,21*2F
$GPDTM,W84,,0.0,N,0.0,E,0.0,W84*6F
$GPRMC,013844.00,A,1550.49986,S,04801.87664,W,2.035,15.51,220922,,,A*5B
$GPVTG,15.51,T,,M,2.035,N,3.768,K,A*03
$GPGGA,013844.00,1550.49986,S,04801.87664,W,1,09,0.95,1177.5,M,-11.9,M,,*40
$GPGSA,A,3,22,27,32,08,31,10,21,16,26,,,,1.54,0.95,1.21*03
$GPGSV,3,1,12,03,10,268,,04,00,323,,08,48,248,36,10,21,138,22*77
$GPGSV,3,2,12,16,12,336,30,18,06,062,,21,22,212,22,22,84,116,36*7C
$GPGSV,3,3,12,26,07,001,16,27,63,317,35,31,29,037,32,32,52,145,45*77
$GPGLL,1550.49986,S,04801.87664,W,013844.00,A,A*61
$GPGRS,013844.00,1,-1.1,0.1,0.2,-2.2,-1.4,3.5,-12.5,6.4,-14.4,,,*42
$GPGST,013844.00,48,,,,2.3,3.1,5.7*50
$GPZDA,013844.00,22,09,2022,00,00*67
$GPGBS,013844.00,2.3,3.1,5.7,,,,*4A
$GPTXT,01,01,00,txbuf alloc*7F
$GPDTM,W84,,0.0,N,0.0,E,0.0,W84*6F
$GPRMC,013845.00,A,1550.49911,S,04801.87617,W,3.421,28.90,220922,,,A*53
$GPVTG,28.90,T,,M,3.421,N,6.335,K,A*09
$GPGGA,013845.00,1550.49911,S,04801.87617,W,1,09,0.95,1177.1,M,-11.9,M,,*4F
$GPGSA,A,3,22,27,32,08,31,10,21,16,26,,,,1.54,0.95,1.21*03
$GPGSV,3,1,12,03,10,268,,04,00,323,,08,48,248,38,10,21,138,24*7F
$GPGSV,3,2,12,16,12,336,25,18,06,062,,21,22,212,25,22,84,116,38*71
$GPGSV,3,3,12,26,07,001,16,27,63,317,41,31,29,037,35,32,52,145,44*72
$GPGLL,1550.49911,S,04801.87617,W,013845.00,A,A*6A
$GPGRS,013845.00,1,-0.9,-0.1,0.0,-1.6,-3.3,3.7,-3.5,5.3,-15.7,,,*53
$GPGST,013845.00,39,,,,2.2,2.9,5.7*5F
$GPZDA,013845.00,22,09,2022,00,00*66
$GPGBS,013845.00,2.2,2.9,5.7,,,,*43
$PUBX,00,013845.00,1550.49911,S,04801.87617,W,1165.206,G3,3.7,5.7,6.335,28.90,0.282,,0.95,1.
$PUBX,04,013845.00,220922,351525.00,2228,18,-595163,-4628.968,21*2C
$GPDTM,W84,,0.0,N,0.0,E,0.0,W84*6F
$GPRMC,013846.00,A,1550.49858,S,04801.87548,W,2.253,38.81,220922,,,A*56
$GPVTG,38.81,T,,M,2.253,N,4.173,K,A*08
$GPGGA,013846.00,1550.49858,S,04801.87548,W,1,09,0.98,1176.9,M,-11.9,M,,*4D
$GPGSA,A,3,22,27,32,08,31,10,21,16,26,,,,1.66,0.98,1.33*0C
$GPGSV,3,1,12,03,10,268,,04,00,323,,08,48,248,39,10,21,138,24*7E
$GPGSV,3,2,12,16,12,336,32,18,06,062,,21,22,212,26,22,84,116,42*79
$GPGSV,3,3,12,26,07,001,19,27,63,317,48,31,29,037,38,32,52,145,46*7B
$GPGLL,1550.49858,S,04801.87548,W,013846.00,A,A*6C
$GPGRS,013846.00,1,-0.9,-1.1,0.0,-2.5,-1.5,1.1,-1.5,6.5,-44.9,,,*5C
$GPGST,013846.00,31,,,,2.1,2.7,5.4*5A
$GPZDA,013846.00,22,09,2022,00,00*65
$GPGBS,013846.00,2.1,2.7,5.4,,,,*4E
$PUBX,00,013846.00,1550.49858,S,04801.87548,W,1165.050,G3,3.4,5.4,4.173,38.81,0.300,,0.98,1.
$GPDTM,W84,,0.0,N,0.0,E,0.0,W84*6F
$GPRMC,013847.00,A,1550.49832,S,04801.87519,W,1.762,40.42,220922,,,A*5B
$GPVTG,40.42,T,,M,1.762,N,3.263,K,A*09
$GPGGA,013847.00,1550.49832,S,04801.87519,W,1,09,0.98,1176.4,M,-11.9,M,,*49
$GPGSA,A,3,22,27,32,08,31,10,21,16,26,,,,1.66,0.98,1.33*0C
$GPGSV,3,1,12,03,10,268,,04,00,323,,08,48,248,39,10,21,138,24*7E
$GPGSV,3,2,12,16,12,336,32,18,06,062,,21,22,212,26,22,84,116,43*78
$GPGSV,3,3,12,26,07,001,18,27,63,317,36,31,29,037,38,32,52,145,44*71
$GPGLL,1550.49832,S,04801.87519,W,013847.00,A,A*65
$GPGRS,013847.00,1,-1.1,-0.5,0.4,-0.3,-2.4,-0.3,1.9,7.5,-37.6,,,*56
$GPGST,013847.00,23,,,,2.0,2.5,5.2*5D
$GPZDA,013847.00,22,09,2022,00,00*64
$GPGBS,013847.00,2.0,2.5,5.2,,,,*4A
$PUBX,04,013847.00,220922,351527.00,2228,18,-604413,-4622.124,21*2F
$GPDTM,W84,,0.0,N,0.0,E,0.0,W84*6F
$GPRMC,013848.00,A,1550.49784,S,04801.87457,W,2.717,42.27,220922,,,A*5D
$GPVTG,42.27,T,,M,2.717,N,5.031,K,A*0A
$GPGGA,013848.00,1550.49784,S,04801.87457,W,1,09,0.98,1176.1,M,-11.9,M,,*4A
$GPGSA,A,3,22,27,32,08,31,10,21,16,26,,,,1.66,0.98,1.33*0C
$GPGSV,3,1,12,03,10,268,,04,00,323,,08,48,248,39,10,21,138,31*7A
$GPGSV,3,2,12,16,12,336,32,18,06,062,,21,22,212,25,22,84,116,42*7A
$GPGSV,3,3,12,26,07,001,16,27,63,317,36,31,29,037,38,32,52,145,44*7F
$GPGLL,1550.49784,S,04801.87457,W,013848.00,A,A*63
$GPGRS,013848.00,1,-1.0,0.4,0.9,-4.5,-2.8,0.0,1.3,8.7,-36.0,,,*59
$GPGST,013848.00,19,,,,2.0,2.4,5.0*58
$GPZDA,013848.00,22,09,2022,00,00*6B
$GPGBS,013848.00,2.0,2.4,5.0,,,,*46
$GPDTM,W84,,0.0,N,0.0,E,0.0,W84*6F
$GPRMC,013849.00,A,1550.49737,S,04801.87399,W,3.239,52.25,220922,,,A*5A
$GPVTG,52.25,T,,M,3.239,N,5.999,K,A*0A
$GPGGA,013849.00,1550.49737,S,04801.87399,W,1,09,0.98,1175.6,M,-11.9,M,,*42
$GPGSA,A,3,22,27,32,08,31,10,21,16,26,,,,1.66,0.98,1.33*0C
$GPGSV,3,1,12,03,10,268,,04,00,323,,08,48,248,41,10,21,138,28*7D
$GPGSV,3,2,12,16,12,336,32,18,06,062,,21,22,212,30,22,84,116,39*72
$GPGSV,3,3,12,26,07,001,17,27,63,317,43,31,29,037,38,32,52,145,43*7B
$GPGLL,1550.49737,S,04801.87399,W,013849.00,A,A*6F
$GPGRS,013849.00,1,-1.1,0.7,1.0,1.4,-0.2,2.7,-1.8,7.1,-36.0,,,*59
$GPGST,013849.00,16,,,,1.9,2.3,4.9*53
$GPZDA,013849.00,22,09,2022,00,00*6A
$GPGBS,013849.00,1.9,2.3,4.9,,,,*42
$PUBX,00,013849.00,1550.49737,S,04801.87399,W,1163.743,G3,3.0,4.9,5.999,52.25,0.172,,0.98,1.
$PUBX,03,12,3,-,268,10,,000,4,-,323,00,,000,8,U,248,48,41,001,10,U,138,21,28,000,16,U,336,12
$PUBX,04,013849.00,220922,351529.00,2228,18,-613661,-4625.797,21*27
$GPTXT,01,01,00,txbuf alloc*7F
$GPDTM,W84,,0.0,N,0.0,E,0.0,W84*6F
$GPRMC,013850.00,A,1550.49694,S,04801.87319,W,3.541,60.33,220922,,,A*5C
$GPVTG,60.33,T,,M,3.541,N,6.557,K,A*09
$GPGGA,013850.00,1550.49694,S,04801.87319,W,1,08,0.98,1174.1,M,-11.9,M,,*4D
$GPGSA,A,3,22,27,32,08,31,10,21,16,,,,,1.66,0.98,1.33*08
$GPGSV,3,1,12,03,10,268,,04,00,323,,08,48,248,33,10,21,138,28*78
$GPGSV,3,2,12,16,12,336,40,18,06,062,,21,22,212,29,22,84,116,38*7E
$GPGSV,3,3,12,26,07,001,,27,63,317,38,31,29,037,37,32,52,145,45*78
$GPGLL,1550.49694,S,04801.87319,W,013850.00,A,A*67
$GPGRS,013850.00,1,-0.8,0.6,0.8,-1.6,-1.6,4.8,-5.9,6.9,,,,*48
$GPGST,013850.00,17,,,,1.9,2.3,4.7*54
$GPZDA,013850.00,22,09,2022,00,00*62
$GPGBS,013850.00,1.9,2.3,4.7,,,,*44
$PUBX,00,013850.00,1550.49694,S,04801.87319,W,1162.251,G3,3.0,4.7,6.557,60.33,0.299,,0.98,1.
$PUBX,03,12,3,-,268,10,,000,4,-,323,00,,000,8,U,248,48,33,000,10,U,138,21,28,000,16,U,336,12
$PUBX,04,013850.00,220922,351530.00,2228,18,-618288,-4621.789,21*24
$GPDTM,W84,,0.0,N,0.0,E,0.0,W84*6F
$GPRMC,013851.00,A,1550.49701,S,04801.87182,W,6.661,84.52,220922,,,A*59
$GPVTG,84.52,T,,M,6.661,N,12.336,K,A*34
$GPGGA,013851.00,1550.49701,S,04801.87182,W,1,08,0.98,1173.5,M,-11.9,M,,*42
$GPGSA,A,3,22,27,32,08,31,10,21,16,,,,,1.66,0.98,1.33*08
$GPGSV,3,1,12,03,10,268,,04,00,323,,08,48,248,28,10,21,138,28*72
$GPGSV,3,2,12,16,12,336,36,18,06,062,,21,22,212,29,22,84,116,40*70
$GPGSV,3,3,12,26,07,001,,27,63,317,41,31,29,037,45,32,52,145,48*7E
$GPGLL,1550.49701,S,04801.87182,W,013851.00,A,A*6B
$GPGRS,013851.00,1,-0.1,0.7,0.5,-2.5,-3.7,5.6,-5.1,7.4,,,,*44
$GPGST,013851.00,23,,,,1.8,2.3,4.6*52
$GPZDA,013851.00,22,09,2022,00,00*63
$GPGBS,013851.00,1.8,2.3,4.6,,,,*45
$PUBX,00,013851.00,1550.49701,S,04801.87182,W,1161.577,G3,2.9,4.6,12.336,84.52,0.596,,0.98,1
$PUBX,03,12,3,-,268,10,,000,4,-,323,00,,000,8,U,248,48,28,000,10,U,138,21,28,000,16,U,336,12
$PUBX,04,013851.00,220922,351531.00,2228,18,-622907,-4615.524,21*23
$GPDTM,W84,,0.0,N,0.0,E,0.0,W84*6F
$GPRMC,013852.00,A,1550.49706,S,04801.86942,W,9.002,90.31,220922,,,A*54
$GPVTG,90.31,T,,M,9.002,N,16.671,K,A*3A
$GPGGA,013852.00,1550.49706,S,04801.86942,W,1,09,0.98,1173.4,M,-11.9,M,,*43
$GPGSA,A,3,22,27,32,08,31,10,21,16,26,,,,1.66,0.98,1.33*0C
$GPGSV,3,1,12,03,10,268,,04,00,323,,08,48,248,39,10,21,138,23*79
$GPGSV,3,2,12,16,12,336,29,18,06,062,,21,22,212,32,22,84,116,36*75
$GPGSV,3,3,12,26,07,001,15,27,63,317,38,31,29,037,39,32,52,145,46*71
$GPGLL,1550.49706,S,04801.86942,W,013852.00,A,A*6A
$GPGRS,013852.00,1,0.6,1.1,0.5,-4.6,-2.4,4.9,-2.7,5.4,-86.2,,,*5F
$GPGST,013852.00,35,,,,1.8,2.3,4.7*57
$GPZDA,013852.00,22,09,2022,00,00*60
$GPGBS,013852.00,1.8,2.3,4.7,,,,*47
$PUBX,00,013852.00,1550.49706,S,04801.86942,W,1161.486,G3,2.9,4.7,16.671,90.31,0.529,,0.98,1
$PUBX,03,12,3,-,268,10,,000,4,-,323,00,,000,8,U,248,48,39,000,10,U,138,21,23,000,16,U,336,12
$PUBX,04,013852.00,220922,351532.00,2228,18,-627520,-4613.569,21*20
$GPDTM,W84,,0.0,N,0.0,E,0.0,W84*6F
$GPRMC,013853.00,A,1550.49709,S,04801.86658,W,10.259,91.33,220922,,,A*69
$GPVTG,91.33,T,,M,10.259,N,18.999,K,A*0A
$GPGGA,013853.00,1550.49709,S,04801.86658,W,1,09,0.98,1173.3,M,-11.9,M,,*4E
$GPGSA,A,3,22,27,32,08,31,10,21,16,26,,,,1.66,0.98,1.33*0C
$GPGSV,3,1,12,03,10,268,,04,00,323,,08,48,248,29,10,21,138,23*78
$GPGSV,3,2,12,16,12,336,36,18,06,062,,21,22,212,37,22,84,116,37*7F
$GPGSV,3,3,12,26,07,001,16,27,63,317,42,31,29,037,37,32,52,145,46*71
$GPGLL,1550.49709,S,04801.86658,W,013853.00,A,A*60
$GPGRS,013853.00,1,0.7,1.9,0.9,-4.2,-0.4,1.0,-0.4,6.8,-84.9,,,*56
$GPGST,013853.00,32,,,,1.8,2.4,4.9*58
$GPZDA,013853.00,22,09,2022,00,00*61
$GPGBS,013853.00,1.8,2.4,4.9,,,,*4F
$PUBX,00,013853.00,1550.49709,S,04801.86658,W,1161.413,G3,3.0,4.9,18.999,91.33,0.380,,0.98,1
$PUBX,03,12,3,-,268,10,,000,4,-,323,00,,000,8,U,248,48,29,000,10,U,138,21,23,000,16,U,336,12
$PUBX,04,013853.00,220922,351533.00,2228,18,-632135,-4617.153,21*2D
$GPDTM,W84,,0.0,N,0.0,E,0.0,W84*6F
$GPRMC,013854.00,A,1550.49699,S,04801.86314,W,11.665,90.59,220922,,,A*6C
$GPVTG,90.59,T,,M,11.665,N,21.603,K,A*0B
$GPGGA,013854.00,1550.49699,S,04801.86314,W,1,09,0.98,1173.7,M,-11.9,M,,*48
$GPGSA,A,3,22,27,32,08,31,10,21,16,26,,,,1.66,0.98,1.33*0C
$GPGSV,3,1,12,03,10,268,16,04,00,323,,08,48,248,39,10,21,138,22*7F
$GPGSV,3,2,12,16,12,336,28,18,06,062,,21,22,212,34,22,84,116,36*72
$GPGSV,3,3,12,26,07,001,15,27,63,317,43,31,29,037,34,32,52,145,46*70
$GPGLL,1550.49699,S,04801.86314,W,013854.00,A,A*62
$GPGRS,013854.00,1,1.2,2.4,1.4,-3.9,0.0,0.3,0.6,4.7,-84.7,,,*5C
$GPGST,013854.00,30,,,,1.8,2.3,4.9*5A
$GPZDA,013854.00,22,09,2022,00,00*66
$GPGBS,013854.00,1.8,2.3,4.9,,,,*4F
$PUBX,00,013854.00,1550.49699,S,04801.86314,W,1161.808,G3,2.9,4.9,21.603,90.59,0.277,,0.98,1
$GPTXT,01,01,00,txbuf alloc*7F
$GPDTM,W84,,0.0,N,0.0,E,0.0,W84*6F
$GPRMC,013855.00,A,1550.49685,S,04801.85920,W,12.997,90.73,220922,,,A*67
$GPVTG,90.73,T,,M,12.997,N,24.071,K,A*04
$GPGGA,013855.00,1550.49685,S,04801.85920,W,1,09,1.21,1174.4,M,-11.9,M,,*4D
$GPGSA,A,3,22,27,32,08,31,10,21,16,26,,,,1.96,1.21,1.54*01
$GPGSV,3,1,12,03,10,268,15,04,00,323,,08,48,248,39,10,21,138,21*7F
$GPGSV,3,2,12,16,12,336,26,18,06,062,,21,22,212,38,22,84,116,39*7F
$GPGSV,3,3,12,26,07,001,21,27,63,317,40,31,29,037,34,32,52,145,44*76
$GPGLL,1550.49685,S,04801.85920,W,013855.00,A,A*60
$GPGRS,013855.00,1,0.4,2.8,1.6,-4.4,-0.3,-43.4,-0.8,1.0,-50.7,,,*45
$GPGST,013855.00,17,,,,1.8,2.2,4.9*5F
$GPZDA,013855.00,22,09,2022,00,00*67
$GPGBS,013855.00,1.8,2.2,4.9,,,,*4F
$PUBX,00,013855.00,1550.49685,S,04801.85920,W,1162.532,G3,2.8,4.9,24.071,90.73,0.197,,1.21,1
$GPDTM,W84,,0.0,N,0.0,E,0.0,W84*6F
$GPRMC,013856.00,A,1550.49670,S,04801.85525,W,13.810,88.29,220922,,,A*6E
$GPVTG,88.29,T,,M,13.810,N,25.577,K,A*0F
$GPGGA,013856.00,1550.49670,S,04801.85525,W,1,10,1.21,1173.8,M,-11.9,M,,*4E
$GPGSA,A,3,22,27,32,08,31,10,21,16,26,18,,,1.96,1.21,1.54*08
$GPGSV,3,1,12,03,10,268,14,04,00,323,,08,48,248,38,10,21,138,19*74
$GPGSV,3,2,12,16,12,336,30,18,06,062,15,21,22,212,34,22,84,116,36*7F
$GPGSV,3,3,12,26,07,001,19,27,63,317,39,31,29,037,34,32,52,145,43*74
$GPGLL,1550.49670,S,04801.85525,W,013856.00,A,A*60
$GPGRS,013856.00,1,0.5,2.6,1.3,-3.5,-0.7,-57.0,0.5,-2.5,-50.2,91.4,,*53
$GPGST,013856.00,14,,,,1.8,2.2,4.9*5F
$GPZDA,013856.00,22,09,2022,00,00*64
$GPGBS,013856.00,1.8,2.2,4.9,10,,57.1,77.6*48
$GPDTM,W84,,0.0,N,0.0,E,0.0,W84*6F
$GPRMC,013857.00,A,1550.49664,S,04801.85085,W,15.480,90.03,220922,,,A*67
$GPVTG,90.03,T,,M,15.480,N,28.669,K,A*0C
$GPGGA,013857.00,1550.49664,S,04801.85085,W,1,09,0.98,1172.7,M,-11.9,M,,*40
$GPGSA,A,3,22,27,32,08,31,10,21,16,26,,,,1.66,0.98,1.33*0C
$GPGSV,3,1,12,03,10,268,12,04,00,323,,08,48,248,40,10,21,138,16*72
$GPGSV,3,2,12,16,12,336,24,18,06,062,,21,22,212,35,22,84,116,38*71
$GPGSV,3,3,12,26,07,001,20,27,63,317,39,31,29,037,30,32,52,145,43*7A
$GPGLL,1550.49664,S,04801.85085,W,013857.00,A,A*6B
$GPGRS,013857.00,1,1.0,2.4,1.4,-3.3,0.8,-55.8,1.4,0.2,-1.7,,,*76
$GPGST,013857.00,37,,,,1.8,2.2,5.0*57
$GPZDA,013857.00,22,09,2022,00,00*65
$GPGBS,013857.00,1.8,2.2,5.0,,,,*45
$PUBX,00,013857.00,1550.49664,S,04801.85085,W,1160.827,G3,2.9,5.0,28.669,90.03,0.723,,0.98,1
$GPDTM,W84,,0.0,N,0.0,E,0.0,W84*6F
$GPRMC,013858.00,A,1550.49658,S,04801.84627,W,15.854,89.68,220922,,,A*68
$GPVTG,89.68,T,,M,15.854,N,29.362,K,A*03
$GPGGA,013858.00,1550.49658,S,04801.84627,W,1,10,0.95,1172.0,M,-11.9,M,,*4D
$GPGSA,A,3,22,27,32,08,31,10,21,16,26,18,,,1.54,0.95,1.21*0A
$GPGSV,3,1,12,03,10,268,13,04,00,323,,08,48,248,39,10,21,138,16*7D
$GPGSV,3,2,12,16,12,336,23,18,06,062,16,21,22,212,34,22,84,116,38*70
$GPGSV,3,3,12,26,07,001,29,27,63,317,37,31,29,037,29,32,52,145,27*77
$GPGLL,1550.49658,S,04801.84627,W,013858.00,A,A*64
$GPGRS,013858.00,1,0.8,1.8,1.3,-2.0,-0.7,-69.6,0.9,3.6,7.0,-99.5,,*48
$GPGST,013858.00,38,,,,1.9,2.2,5.1*57
$GPZDA,013858.00,22,09,2022,00,00*6A
$GPGBS,013858.00,1.9,2.2,5.1,,,,*4A
$PUBX,00,013858.00,1550.49658,S,04801.84627,W,1160.130,G3,2.9,5.1,29.362,89.68,0.733,,0.95,1
$GPDTM,W84,,0.0,N,0.0,E,0.0,W84*6F
$GPRMC,013859.00,A,1550.49670,S,04801.84144,W,16.625,93.85,220922,,,A*62
$GPVTG,93.85,T,,M,16.625,N,30.789,K,A*09
$GPGGA,013859.00,1550.49670,S,04801.84144,W,1,10,0.95,1169.9,M,-11.9,M,,*47
$GPGSA,A,3,22,27,32,08,31,10,21,16,26,18,,,1.54,0.95,1.21*0A
$GPGSV,3,1,12,03,10,268,15,04,00,323,,08,48,248,38,10,21,138,16*7A
$GPGSV,3,2,12,16,12,336,22,18,06,062,16,21,22,212,34,22,84,116,36*7F
$GPGSV,3,3,12,26,07,001,23,27,63,317,35,31,29,037,26,32,52,145,25*72
$GPGLL,1550.49670,S,04801.84144,W,013859.00,A,A*6D
$GPGRS,013859.00,1,0.8,1.4,-0.3,-2.4,-2.9,-71.0,2.0,8.2,0.3,-82.6,,*67
$GPGST,013859.00,38,,,,2.0,2.3,5.2*5E
$GPZDA,013859.00,22,09,2022,00,00*6B
$GPGBS,013859.00,2.0,2.3,5.2,,,,*43
$PUBX,00,013859.00,1550.49670,S,04801.84144,W,1158.029,G3,3.1,5.2,30.789,93.85,1.258,,0.95,1
$PUBX,03,12,3,-,268,10,15,000,4,-,323,00,,000,8,U,248,48,38,002,10,U,138,21,16,000,16,U,336,
$GPTXT,01,01,00,txbuf alloc*7F
$GPDTM,W84,,0.0,N,0.0,E,0.0,W84*6F
$GPRMC,013900.00,A,1550.49687,S,04801.83646,W,17.417,92.27,220922,,,A*6E
$GPVTG,92.27,T,,M,17.417,N,32.257,K,A*06
$GPGGA,013900.00,1550.49687,S,04801.83646,W,1,10,1.00,1168.6,M,-11.9,M,,*43
$GPGSA,A,3,22,27,32,08,31,10,21,16,26,18,,,1.59,1.00,1.24*0F
$GPGSV,3,1,12,03,10,268,15,04,00,323,,08,48,248,37,10,21,138,17*74
$GPGSV,3,2,12,16,12,336,29,18,06,062,21,21,22,212,31,22,84,116,35*76
$GPGSV,3,3,12,26,07,001,19,27,63,317,36,31,29,037,23,32,52,145,22*7A
$GPGLL,1550.49687,S,04801.83646,W,013900.00,A,A*6A
$GPGRS,013900.00,1,0.2,1.3,-22.6,-4.2,-31.0,-65.9,2.3,8.3,7.9,-46.6,,*60
$GPGST,013900.00,38,,,,2.2,2.5,5.4*51
$GPZDA,013900.00,22,09,2022,00,00*66
$GPGBS,013900.00,2.2,2.5,5.4,,,,*4C
$PUBX,00,013900.00,1550.49687,S,04801.83646,W,1156.725,G3,3.3,5.4,32.257,92.27,1.329,,1.00,1
$PUBX,03,12,3,-,268,10,15,000,4,-,323,00,,000,8,U,248,48,37,003,10,U,138,21,17,000,16,U,336,
$PUBX,04,013900.00,220922,351540.00,2228,18,-664493,-4624.217,21*27
$GPDTM,W84,,0.0,N,0.0,E,0.0,W84*6F
$GPRMC,013901.00,A,1550.49703,S,04801.83155,W,17.336,92.03,220922,,,A*65
$GPVTG,92.03,T,,M,17.336,N,32.106,K,A*03
$GPGGA,013901.00,1550.49703,S,04801.83155,W,1,10,0.90,1169.3,M,-11.9,M,,*46
$GPGSA,A,3,22,27,32,08,31,10,21,16,26,18,,,1.50,0.90,1.20*0A
$GPGSV,3,1,12,03,10,268,14,04,00,323,,08,48,248,40,10,21,138,20*71
$GPGSV,3,2,12,16,12,336,37,18,06,062,23,21,22,212,25,22,84,116,36*7D
$GPGSV,3,3,12,26,07,001,17,27,63,317,42,31,29,037,22,32,52,145,22*76
$GPGLL,1550.49703,S,04801.83155,W,013901.00,A,A*63
$GPGRS,013901.00,1,0.1,1.1,-24.0,-3.8,-41.2,-45.6,1.4,2.0,-4.1,-15.2,,*4C
$GPGST,013901.00,46,,,,2.3,2.6,5.5*5A
$GPZDA,013901.00,22,09,2022,00,00*67
$GPGBS,013901.00,2.3,2.6,5.5,,,,*4E
$PUBX,00,013901.00,1550.49703,S,04801.83155,W,1157.461,G3,3.4,5.5,32.106,92.03,0.776,,0.90,1
$PUBX,03,12,3,-,268,10,14,000,4,-,323,00,,000,8,U,248,48,40,000,10,U,138,21,20,000,16,U,336,
$PUBX,04,013901.00,220922,351541.00,2228,18,-669111,-4623.312,21*26
$GPDTM,W84,,0.0,N,0.0,E,0.0,W84*6F
$GPRMC,013902.00,A,1550.49697,S,04801.82653,W,17.505,91.80,220922,,,A*64
$GPVTG,91.80,T,,M,17.505,N,32.420,K,A*0C
$GPGGA,013902.00,1550.49697,S,04801.82653,W,1,10,0.90,1168.7,M,-11.9,M,,*4C
$GPGSA,A,3,22,27,32,08,31,10,21,16,26,18,,,1.51,0.90,1.21*0A
$GPGSV,3,1,12,03,10,268,12,04,00,323,,08,48,248,41,10,21,138,19*7C
$GPGSV,3,2,12,16,12,336,39,18,06,062,23,21,22,212,23,22,84,116,38*7B
$GPGSV,3,3,12,26,07,001,19,27,63,317,41,31,29,037,21,32,52,145,22*78
$GPGLL,1550.49697,S,04801.82653,W,013902.00,A,A*6C
$GPGRS,013902.00,1,0.6,1.3,-20.3,-2.6,-47.7,-44.2,-21.7,7.2,-86.3,-1.1,,*51
$GPGST,013902.00,42,,,,2.4,2.6,5.4*5B
$GPZDA,013902.00,22,09,2022,00,00*64
$GPGBS,013902.00,2.4,2.6,5.4,,,,*4B
$PUBX,00,013902.00,1550.49697,S,04801.82653,W,1156.853,G3,3.5,5.4,32.420,91.80,0.547,,0.90,1
$PUBX,03,12,3,-,268,10,12,000,4,-,323,00,,000,8,U,248,48,41,001,10,U,138,21,19,000,16,U,336,
$GPDTM,W84,,0.0,N,0.0,E,0.0,W84*6F
$GPRMC,013903.00,A,1550.49707,S,04801.82167,W,17.478,93.37,220922,,,A*68
$GPVTG,93.37,T,,M,17.478,N,32.369,K,A*03
$GPGGA,013903.00,1550.49707,S,04801.82167,W,1,10,0.90,1169.1,M,-11.9,M,,*42
$GPGSA,A,3,22,27,32,08,31,10,21,16,26,18,,,1.51,0.90,1.21*0A
$GPGSV,3,1,12,03,10,268,,04,00,323,,08,48,248,31,10,21,138,22*70
$GPGSV,3,2,12,16,12,336,29,18,06,062,25,21,22,212,20,22,84,116,37*70
$GPGSV,3,3,12,26,07,001,20,27,63,317,43,31,29,037,22,32,52,145,38*78
$GPGLL,1550.49707,S,04801.82167,W,013903.00,A,A*65
$GPGRS,013903.00,1,0.6,2.0,-30.5,-3.1,-41.7,-28.0,-23.3,-6.1,-82.6,0.8,,*52
$GPGST,013903.00,43,,,,2.6,2.8,5.6*55
$GPZDA,013903.00,22,09,2022,00,00*65
$GPGBS,013903.00,2.6,2.8,5.6,,,,*44
$PUBX,00,013903.00,1550.49707,S,04801.82167,W,1157.209,G3,3.8,5.6,32.369,93.37,0.429,,0.90,1
$PUBX,03,12,3,-,268,10,,000,4,-,323,00,,000,8,U,248,48,31,000,10,U,138,21,22,000,16,U,336,12
$PUBX,04,013903.00,220922,351543.00,2228,18,-678361,-4627.820,21*2D
$GPDTM,W84,,0.0,N,0.0,E,0.0,W84*6F
$GPRMC,013904.00,A,1550.49723,S,04801.81670,W,17.628,93.03,220922,,,A*6B
$GPVTG,93.03,T,,M,17.628,N,32.646,K,A*0B
$GPGGA,013904.00,1550.49723,S,04801.81670,W,1,09,1.40,1169.2,M,-11.9,M,,*46
$GPGSA,A,3,22,27,32,08,31,10,21,26,18,,,,2.40,1.40,1.95*0D
$GPGSV,3,1,12,03,10,268,,04,00,323,,08,48,248,22,10,21,138,23*73
$GPGSV,3,2,12,16,12,336,,18,06,062,30,21,22,212,19,22,84,116,36*74
$GPGSV,3,3,12,26,07,001,17,27,63,317,41,31,29,037,23,32,52,145,39*7E
$GPGLL,1550.49723,S,04801.81670,W,013904.00,A,A*66
$GPGRS,013904.00,1,0.5,1.8,-0.1,-3.8,-43.7,-25.1,-39.4,-88.1,5.9,,,*6C
$GPGST,013904.00,36,,,,3.0,3.0,5.9*51
$GPZDA,013904.00,22,09,2022,00,00*62
$GPTXT,01,01,00,txbuf alloc*7F
$GPDTM,W84,,0.0,N,0.0,E,0.0,W84*6F
$GPRMC,013905.00,A,1550.49717,S,04801.81152,W,18.308,90.09,220922,,,A*6B
$GPVTG,90.09,T,,M,18.308,N,33.906,K,A*00
$GPGGA,013905.00,1550.49717,S,04801.81152,W,1,09,1.40,1169.4,M,-11.9,M,,*41
$GPGSA,A,3,22,27,32,08,31,10,21,26,18,,,,2.40,1.40,1.95*0D
$GPGSV,3,1,12,03,10,268,,04,00,323,,08,48,248,21,10,21,138,22*71
$GPGSV,3,2,12,16,12,336,,18,06,062,24,21,22,212,20,22,84,116,38*75
$GPGSV,3,3,12,26,07,001,13,27,63,317,42,31,29,037,36,32,52,145,45*76
$GPGLL,1550.49717,S,04801.81152,W,013905.00,A,A*67
$GPGRS,013905.00,1,0.0,1.6,-0.1,-2.8,-3.5,-22.0,-69.8,-90.9,-3.3,,,*7E
$GPGST,013905.00,44,,,,3.3,3.2,6.2*5C
$GPZDA,013905.00,22,09,2022,00,00*63
$GPGBS,013905.00,3.3,3.2,6.2,,,,*4A
$GPDTM,W84,,0.0,N,0.0,E,0.0,W84*6F
$GPRMC,013906.00,A,1550.49709,S,04801.80606,W,18.680,90.09,220922,,,A*65
$GPVTG,90.09,T,,M,18.680,N,34.595,K,A*04
$GPGGA,013906.00,1550.49709,S,04801.80606,W,1,09,1.22,1169.4,M,-11.9,M,,*4E
$GPGSA,A,3,22,27,32,08,31,10,21,26,18,,,,1.98,1.22,1.56*00
$GPGSV,3,1,12,03,10,268,,04,00,323,,08,48,248,21,10,21,138,22*71
$GPGSV,3,2,12,16,12,336,,18,06,062,27,21,22,212,20,22,84,116,35*7B
$GPGSV,3,3,12,26,07,001,26,27,63,317,24,31,29,037,36,32,52,145,43*76
$GPGLL,1550.49709,S,04801.80606,W,013906.00,A,A*6C
$GPGRS,013906.00,1,0.5,1.1,0.6,0.2,4.2,-20.4,-72.1,-10.0,2.2,,,*74
$GPGST,013906.00,39,,,,3.4,3.6,6.4*50
$GPZDA,013906.00,22,09,2022,00,00*60
$GPGBS,013906.00,3.4,3.6,6.4,21,,71.6,73.7*4C
$GPDTM,W84,,0.0,N,0.0,E,0.0,W84*6F
$GPRMC,013907.00,A,1550.49699,S,04801.80054,W,19.016,90.48,220922,,,A*60
$GPVTG,90.48,T,,M,19.016,N,35.217,K,A*05
$GPGGA,013907.00,1550.49699,S,04801.80054,W,1,09,1.22,1168.5,M,-11.9,M,,*46
$GPGSA,A,3,22,27,32,08,31,10,21,26,18,,,,1.98,1.22,1.56*00
$GPGSV,3,1,12,03,10,267,,04,00,323,,08,48,248,36,10,21,138,29*73
$GPGSV,3,2,12,16,12,336,,18,06,062,26,21,22,212,21,22,84,116,35*7B
$GPGSV,3,3,12,26,07,001,36,27,63,317,22,31,29,037,33,32,52,145,38*78
$GPGLL,1550.49699,S,04801.80054,W,013907.00,A,A*64
$GPGRS,013907.00,1,0.3,-0.7,2.0,-3.4,0.3,-23.2,-68.3,10.5,8.7,,,*5B
$GPGST,013907.00,28,,,,3.4,3.8,6.4*5F
$GPZDA,013907.00,22,09,2022,00,00*61
$GPGBS,013907.00,3.4,3.8,6.4,21,,67.4,47.7*41
$PUBX,00,013907.00,1550.49699,S,04801.80054,W,1156.623,G3,5.1,6.4,35.217,90.48,0.213,,1.22,1
$PUBX,03,12,3,-,267,10,,000,4,-,323,00,,000,8,U,248,48,36,000,10,U,138,21,29,000,16,e,336,12
$GPDTM,W84,,0.0,N,0.0,E,0.0,W84*6F
$GPRMC,013908.00,A,1550.49703,S,04801.79535,W,18.102,90.44,220922,,,A*60
$GPVTG,90.44,T,,M,18.102,N,33.524,K,A*0D
$GPGGA,013908.00,1550.49703,S,04801.79535,W,1,09,0.96,1167.7,M,-11.9,M,,*4C
$GPGSA,A,3,22,27,32,08,31,10,21,26,18,,,,1.55,0.96,1.22*0C
$GPGSV,3,1,12,03,10,267,,04,01,323,,08,48,248,33,10,21,138,20*7E
$GPGSV,3,2,12,16,12,336,,18,06,062,23,21,22,212,19,22,84,116,38*78
$GPGSV,3,3,12,26,07,001,29,27,63,317,35,31,29,037,33,32,52,145,27*7E
$GPGLL,1550.49703,S,04801.79535,W,013908.00,A,A*6D
$GPGRS,013908.00,1,0.0,-0.6,-7.5,-5.1,-5.6,-22.9,-61.2,3.9,6.8,,,*68
$GPGST,013908.00,36,,,,3.6,3.9,6.5*5D
$GPZDA,013908.00,22,09,2022,00,00*6E
$GPGBS,013908.00,3.6,3.9,6.5,,,,*4E
$PUBX,00,013908.00,1550.49703,S,04801.79535,W,1155.854,G3,5.3,6.5,33.524,90.44,0.468,,0.96,1
$GPDTM,W84,,0.0,N,0.0,E,0.0,W84*6F
$GPRMC,013909.00,A,1550.49605,S,04801.79018,W,17.155,82.31,220922,,,A*60
$GPVTG,82.31,T,,M,17.155,N,31.770,K,A*00
$GPGGA,013909.00,1550.49605,S,04801.79018,W,1,09,1.28,1169.7,M,-11.9,M,,*4A
$GPGSA,A,3,22,27,32,08,31,10,21,16,26,,,,2.05,1.28,1.60*06
$GPGSV,3,1,12,03,10,267,,04,01,323,,08,48,248,33,10,21,138,20*7E
$GPGSV,3,2,12,16,12,336,19,18,06,062,,21,22,212,15,22,84,116,35*70
$GPGSV,3,3,12,26,07,001,18,27,63,317,42,31,29,037,30,32,52,145,27*7F
$GPGLL,1550.49605,S,04801.79018,W,013909.00,A,A*61
$GPGRS,013909.00,1,0.1,-0.5,-21.2,-3.4,0.1,-28.9,-51.7,6.7,5.5,,,*7D
$GPGST,013909.00,42,,,,3.9,4.0,6.9*52
$GPZDA,013909.00,22,09,2022,00,00*6F
$GPTXT,01,01,00,txbuf alloc*7F
$GPDTM,W84,,0.0,N,0.0,E,0.0,W84*6F
$GPRMC,013910.00,A,1550.49469,S,04801.78537,W,17.066,78.54,220922,,,A*6E
$GPVTG,78.54,T,,M,17.066,N,31.606,K,A*07
$GPGGA,013910.00,1550.49469,S,04801.78537,W,1,08,1.28,1173.4,M,-11.9,M,,*4A
$GPGSA,A,3,22,27,32,08,31,10,26,18,,,,,2.05,1.28,1.60*0B
$GPGSV,3,1,12,03,10,267,,04,01,323,,08,48,248,35,10,21,138,19*72
$GPGSV,3,2,12,16,12,336,23,18,06,062,22,21,22,212,09,22,84,116,35*74
$GPGSV,3,3,12,26,07,001,16,27,63,317,33,31,29,037,37,32,52,145,25*72
$GPGLL,1550.49469,S,04801.78537,W,013910.00,A,A*68
$GPGRS,013910.00,1,0.2,-1.7,-27.3,-1.8,-4.8,-34.7,-16.9,-74.1,,,,*62
$GPGST,013910.00,39,,,,4.1,4.0,7.0*51
$GPZDA,013910.00,22,09,2022,00,00*67
$GPGBS,013910.00,4.1,4.0,7.0,,,,*4D
$PUBX,00,013910.00,1550.49469,S,04801.78537,W,1161.559,G3,5.8,7.0,31.606,78.54,-0.836,,1.28,
$PUBX,03,12,3,-,267,10,,000,4,-,323,01,,000,8,U,248,48,35,000,10,U,138,21,19,000,16,e,336,12
$PUBX,04,013910.00,220922,351550.00,2228,18,-710765,-4631.200,21*2D
$GPDTM,W84,,0.0,N,0.0,E,0.0,W84*6F
$GPRMC,013911.00,A,1550.49375,S,04801.78003,W,18.297,81.94,220922,,,A*6E
$GPVTG,81.94,T,,M,18.297,N,33.887,K,A*0B
$GPGGA,013911.00,1550.49375,S,04801.78003,W,1,09,1.28,1175.5,M,-11.9,M,,*45
$GPGSA,A,3,22,27,32,08,31,10,16,26,18,,,,2.05,1.28,1.60*0C
$GPGSV,3,1,12,03,10,267,,04,01,323,,08,48,248,39,10,21,138,16*71
$GPGSV,3,2,12,16,12,336,20,18,06,062,20,21,22,212,08,22,84,116,36*77
$GPGSV,3,3,12,26,07,001,13,27,63,317,33,31,29,037,35,32,52,145,23*73
$GPGLL,1550.49375,S,04801.78003,W,013911.00,A,A*61
$GPGRS,013911.00,1,0.6,-0.8,-26.6,-1.2,-3.2,-45.3,-21.3,-13.1,-81.3,,,*5E
$GPGST,013911.00,51,,,,4.2,3.7,7.0*5D
$GPZDA,013911.00,22,09,2022,00,00*66
$GPGBS,013911.00,4.2,3.7,7.0,,,,*4F
$PUBX,00,013911.00,1550.49375,S,04801.78003,W,1163.660,G3,5.7,7.0,33.887,81.94,-1.031,,1.28,
$PUBX,03,12,3,-,267,10,,000,4,-,323,01,,000,8,U,248,48,39,000,10,U,138,21,16,000,16,e,336,12
$PUBX,04,013911.00,220922,351551.00,2228,18,-715394,-4635.003,21*27
$GPDTM,W84,,0.0,N,0.0,E,0.0,W84*6F
$GPRMC,013912.00,A,1550.49283,S,04801.77472,W,18.248,81.57,220922,,,A*65
$GPVTG,81.57,T,,M,18.248,N,33.795,K,A*0A
$GPGGA,013912.00,1550.49283,S,04801.77472,W,1,08,1.44,1177.6,M,-11.9,M,,*49
$GPGSA,A,3,22,27,32,08,31,10,16,18,,,,,2.75,1.44,2.34*07
$GPGSV,3,1,12,03,10,267,,04,01,323,,08,48,249,39,10,21,138,14*72
$GPGSV,3,2,12,16,12,336,19,18,06,062,21,21,22,212,08,22,84,116,36*7C
$GPGSV,3,3,12,26,07,001,,27,63,317,37,31,29,037,34,32,52,145,23*74
$GPGLL,1550.49283,S,04801.77472,W,013912.00,A,A*67
$GPGRS,013912.00,1,0.5,-2.3,-24.1,-1.6,-2.9,-55.3,-27.4,-102,,,,*4B
$GPGST,013912.00,42,,,,4.4,3.7,7.1*5B
$GPZDA,013912.00,22,09,2022,00,00*65
$GPGBS,013912.00,4.4,3.7,7.1,,,,*4B
$PUBX,00,013912.00,1550.49283,S,04801.77472,W,1165.733,G3,5.7,7.1,33.795,81.57,-1.192,,1.44,
$PUBX,03,12,3,-,267,10,,000,4,-,323,01,,000,8,U,249,48,39,001,10,U,138,21,14,000,16,e,336,12
$PUBX,04,013912.00,220922,351552.00,2228,18,-720026,-4634.978,21*2F
$GPDTM,W84,,0.0,N,0.0,E,0.0,W84*6F
$GPRMC,013913.00,A,1550.49142,S,04801.76983,W,18.004,76.23,220922,,,A*69
$GPVTG,76.23,T,,M,18.004,N,33.344,K,A*03
$GPGGA,013913.00,1550.49142,S,04801.76983,W,1,08,1.44,1180.3,M,-11.9,M,,*49
$GPGSA,A,3,22,27,32,08,31,10,16,18,,,,,2.75,1.44,2.34*07
$GPGSV,3,1,12,03,10,267,,04,01,323,,08,48,249,35,10,21,138,12*78
$GPGSV,3,2,12,16,12,336,17,18,06,062,21,21,22,212,08,22,84,116,36*72
$GPGSV,3,3,12,26,07,001,,27,63,317,38,31,29,037,35,32,52,145,20*79
$GPGLL,1550.49142,S,04801.76983,W,013913.00,A,A*6A
$GPGRS,013913.00,1,0.4,-4.3,-25.9,-0.8,-3.2,-61.4,-30.0,-113,,,,*43
$GPGST,013913.00,48,,,,4.8,3.8,7.4*56
$GPZDA,013913.00,22,09,2022,00,00*64
$GPGBS,013913.00,4.8,3.8,7.4,18,,114.5,49.0*79
$PUBX,00,013913.00,1550.49142,S,04801.76983,W,1168.458,G3,6.1,7.4,33.344,76.23,-1.476,,1.44,
$PUBX,04,013913.00,220922,351553.00,2228,18,-724656,-4632.691,21*24
$GPTXT,01,01,00,txbuf alloc*7F
$GPDTM,W84,,0.0,N,0.0,E,0.0,W84*6F
$GPRMC,013914.00,A,1550.48924,S,04801.76562,W,16.171,67.53,220922,,,A*6E
$GPVTG,67.53,T,,M,16.171,N,29.949,K,A*05
$GPGGA,013914.00,1550.48924,S,04801.76562,W,1,08,1.19,1183.7,M,-11.9,M,,*4B
$GPGSA,A,3,22,27,32,08,31,10,21,16,,,,,2.17,1.19,1.81*0C
$GPGSV,3,1,12,03,10,267,,04,01,323,,08,48,249,27,10,21,138,12*7B
$GPGSV,3,2,12,16,12,336,15,18,06,062,,21,22,212,07,22,84,116,36*7C
$GPGSV,3,3,12,26,07,001,,27,63,317,33,31,29,037,34,32,52,145,17*77
$GPGLL,1550.48924,S,04801.76562,W,013914.00,A,A*67
$GPGRS,013914.00,1,1.1,-7.7,-23.1,-2.5,-0.5,-68.9,40.0,-27.6,,,,*42
$GPGST,013914.00,62,,,,5.3,4.2,7.8*52
$GPZDA,013914.00,22,09,2022,00,00*63
$GPGBS,013914.00,5.3,4.2,7.8,,,,*40
$PUBX,00,013914.00,1550.48924,S,04801.76562,W,1171.812,G3,6.7,7.8,29.949,67.53,-1.887,,1.19,
$PUBX,03,12,3,-,267,10,,000,4,-,323,01,,000,8,U,249,48,27,000,10,U,138,21,12,000,16,e,336,12
$PUBX,04,013914.00,220922,351554.00,2228,18,-729285,-4635.464,21*2C
$GPDTM,W84,,0.0,N,0.0,E,0.0,W84*6F
$GPRMC,013915.00,A,1550.48766,S,04801.76104,W,16.851,71.38,220922,,,A*62
$GPVTG,71.38,T,,M,16.851,N,31.209,K,A*02
$GPGGA,013915.00,1550.48766,S,04801.76104,W,1,08,0.98,1186.3,M,-11.9,M,,*4F
$GPGSA,A,3,22,27,32,08,31,10,21,16,,,,,1.66,0.98,1.34*0F
$GPGSV,3,1,12,03,10,267,,04,01,323,,08,48,249,26,10,21,138,12*7A
$GPGSV,3,2,12,16,12,336,16,18,06,062,,21,22,212,07,22,84,116,36*7F
$GPGSV,3,3,12,26,07,001,20,27,63,317,34,31,29,037,35,32,52,145,16*72
$GPGLL,1550.48766,S,04801.76104,W,013915.00,A,A*6A
$GPGRS,013915.00,1,1.1,-6.0,-22.9,-3.9,-0.2,-79.4,52.6,-22.8,,,,*45
$GPGST,013915.00,62,,,,5.7,4.7,8.2*57
$GPZDA,013915.00,22,09,2022,00,00*62
$GPGBS,013915.00,5.7,4.7,8.2,,,,*45
$GPDTM,W84,,0.0,N,0.0,E,0.0,W84*6F
$GPRMC,013916.00,A,1550.48759,S,04801.75487,W,19.712,83.08,220922,,,A*69
$GPVTG,83.08,T,,M,19.712,N,36.506,K,A*04
$GPGGA,013916.00,1550.48759,S,04801.75487,W,1,10,1.54,1187.3,M,-11.9,M,,*44
$GPGSA,A,3,22,27,32,08,31,10,21,16,26,18,,,2.73,1.54,2.26*04
$GPGSV,3,1,12,03,10,267,,04,01,323,,08,48,249,26,10,21,138,13*7B
$GPGSV,3,2,12,16,12,336,28,18,06,062,15,21,22,212,07,22,84,116,34*74
$GPGSV,3,3,12,26,07,001,17,27,63,317,38,31,29,037,30,32,52,145,18*71
$GPGLL,1550.48759,S,04801.75487,W,013916.00,A,A*68
$GPGRS,013916.00,1,1.1,-5.0,-14.8,-3.2,-0.4,-88.8,66.4,-9.5,999,92.2,,*51
$GPGST,013916.00,32,,,,6.0,5.0,8.7*56
$GPZDA,013916.00,22,09,2022,00,00*61
$GPGBS,013916.00,6.0,5.0,8.7,10,,84.7,87.3*47
$GPDTM,W84,,0.0,N,0.0,E,0.0,W84*6F
$GPRMC,013917.00,A,1550.48943,S,04801.74752,W,20.889,86.95,220922,,,A*61
$GPVTG,86.95,T,,M,20.889,N,38.687,K,A*06
$GPGGA,013917.00,1550.48943,S,04801.74752,W,1,08,1.54,1184.8,M,-11.9,M,,*4B
$GPGSA,A,3,22,27,32,08,31,10,21,16,,,,,2.73,1.54,2.26*09
$GPGSV,3,1,12,03,10,267,20,04,01,323,,08,48,249,25,10,21,138,14*7D
$GPGSV,3,2,12,16,12,336,33,18,06,062,,21,22,212,07,22,84,116,36*78
$GPGSV,3,3,12,26,07,001,,27,63,317,40,31,29,037,21,32,52,145,41*74
$GPGLL,1550.48943,S,04801.74752,W,013917.00,A,A*66
$GPGRS,013917.00,1,0.6,-4.3,13.0,1.7,-1.0,-88.5,72.9,-3.5,,,,*78
$GPGST,013917.00,32,,,,5.8,5.1,8.7*5D
$GPZDA,013917.00,22,09,2022,00,00*60
$GPDTM,W84,,0.0,N,0.0,E,0.0,W84*6F
$GPRMC,013918.00,A,1550.49110,S,04801.74169,W,19.398,96.73,220922,,,A*67
$GPVTG,96.73,T,,M,19.398,N,35.924,K,A*05
$GPGGA,013918.00,1550.49110,S,04801.74169,W,1,07,1.44,1183.4,M,-11.9,M,,*40
$GPGSA,A,3,22,27,32,08,31,10,21,,,,,,2.75,1.44,2.34*0A
$GPGSV,3,1,12,03,10,267,16,04,01,323,,08,48,249,24,10,21,138,39*76
$GPGSV,3,2,12,16,12,336,,18,06,062,,21,22,212,07,22,84,116,35*7B
$GPGSV,3,3,12,26,07,001,,27,63,317,35,31,29,037,18,32,52,145,44*79
$GPGLL,1550.49110,S,04801.74169,W,013918.00,A,A*68
$GPGRS,013918.00,1,0.0,-2.8,12.3,1.1,-10.8,15.6,82.6,,,,,*6F
$GPGST,013918.00,44,,,,5.9,5.7,8.7*54
$GPZDA,013918.00,22,09,2022,00,00*6F
$GPGBS,013918.00,5.9,5.7,8.7,,,,*42
$PUBX,00,013918.00,1550.49110,S,04801.74169,W,1171.526,G3,8.2,8.7,35.924,96.73,-1.018,,1.44,
$PUBX,03,12,3,-,267,10,16,000,4,-,323,01,,000,8,U,249,48,24,000,10,U,138,21,39,000,16,e,336,
$PUBX,04,013918.00,220922,351558.00,2228,18,-747864,-4641.278,21*29
$GPTXT,01,01,00,txbuf alloc*7F
$GPDTM,W84,,0.0,N,0.0,E,0.0,W84*6F
$GPRMC,013919.00,A,1550.49586,S,04801.73662,W,16.356,111.99,220922,,,A*51
$GPVTG,111.99,T,,M,16.356,N,30.292,K,A*31
$GPGGA,013919.00,1550.49586,S,04801.73662,W,1,08,1.44,1177.4,M,-11.9,M,,*45
$GPGSA,A,3,22,27,32,08,31,10,21,16,,,,,2.75,1.44,2.34*0D
$GPGSV,3,1,12,03,10,267,14,04,01,323,,08,48,249,22,10,21,138,41*7D
$GPGSV,3,2,12,16,12,336,25,18,06,062,,21,22,212,07,22,84,116,34*7D
$GPGSV,3,3,12,26,07,001,,27,63,317,38,31,29,037,16,32,52,145,44*7A
$GPGLL,1550.49586,S,04801.73662,W,013919.00,A,A*69
$GPGRS,013919.00,1,0.2,-1.8,6.8,-4.4,-22.4,17.0,80.4,-4.7,,,,*75
$GPGST,013919.00,45,,,,5.8,6.2,8.1*55
$GPZDA,013919.00,22,09,2022,00,00*6E
$GPGBS,013919.00,5.8,6.2,8.1,,,,*42
$PUBX,00,013919.00,1550.49586,S,04801.73662,W,1165.492,G3,8.5,8.1,30.292,111.99,-0.568,,1.44
$GPDTM,W84,,0.0,N,0.0,E,0.0,W84*6F
$GPRMC,013920.00,A,1550.49792,S,04801.72936,W,19.213,95.71,220922,,,A*67
$GPVTG,95.71,T,,M,19.213,N,35.582,K,A*06
$GPGGA,013920.00,1550.49792,S,04801.72936,W,1,09,1.19,1168.3,M,-11.9,M,,*47
$GPGSA,A,3,22,27,32,08,31,10,21,16,26,,,,1.87,1.19,1.44*0B
$GPGSV,3,1,12,03,10,267,13,04,01,323,,08,48,249,23,10,21,138,41*7B
$GPGSV,3,2,12,16,12,337,24,18,06,062,,21,22,212,10,22,84,116,33*7C
$GPGSV,3,3,12,26,07,001,33,27,63,317,32,31,29,037,15,32,52,145,46*71
$GPGLL,1550.49792,S,04801.72936,W,013920.00,A,A*6B
$GPGRS,013920.00,1,0.7,-0.2,-1.5,-6.3,-39.8,13.4,78.9,-9.1,13.5,,,*4D
$GPGST,013920.00,48,,,,5.4,6.4,7.4*52
$GPZDA,013920.00,22,09,2022,00,00*64
$GPGBS,013920.00,5.4,6.4,7.4,,,,*48
$PUBX,00,013920.00,1550.49792,S,04801.72936,W,1156.442,G3,8.4,7.4,35.582,95.71,0.396,,1.19,1
$PUBX,03,12,3,-,267,10,13,000,4,-,323,01,,000,8,U,249,48,23,000,10,U,138,21,41,000,16,U,337,
$PUBX,04,013920.00,220922,351560.00,2228,18,-757212,-4656.784,21*23
$GPDTM,W84,,0.0,N,0.0,E,0.0,W84*6F
$GPRMC,013921.00,A,1550.49816,S,04801.72320,W,20.672,92.14,220922,,,A*65
$GPVTG,92.14,T,,M,20.672,N,38.284,K,A*07
$GPGGA,013921.00,1550.49816,S,04801.72320,W,1,09,1.20,1168.1,M,-11.9,M,,*40
$GPGSA,A,3,22,27,32,08,31,10,21,16,26,,,,1.80,1.20,1.35*00
$GPGSV,3,1,12,03,10,267,13,04,01,323,,08,48,249,22,10,21,138,29*74
$GPGSV,3,2,12,16,12,337,21,18,06,062,,21,22,212,28,22,84,116,37*76
$GPGSV,3,3,12,26,07,001,19,27,63,317,35,31,29,037,13,32,52,145,45*7B
$GPGLL,1550.49816,S,04801.72320,W,013921.00,A,A*64
$GPGRS,013921.00,1,-0.2,-0.7,1.9,-6.7,-48.2,4.2,-2.7,-9.2,8.9,,,*53
$GPGST,013921.00,43,,,,5.4,6.5,7.4*59
$GPZDA,013921.00,22,09,2022,00,00*65
$GPGBS,013921.00,5.4,6.5,7.4,,,,*48
$PUBX,00,013921.00,1550.49816,S,04801.72320,W,1156.169,G3,8.4,7.4,38.284,92.14,0.376,,1.20,1
$PUBX,03,12,3,-,267,10,13,000,4,-,323,01,,000,8,U,249,48,22,000,10,U,138,21,29,000,16,U,337,
$PUBX,04,013921.00,220922,351561.00,2228,18,-761869,-4657.645,21*2D
$GPDTM,W84,,0.0,N,0.0,E,0.0,W84*6F
$GPRMC,013922.00,A,1550.49931,S,04801.71702,W,20.391,93.48,220922,,,A*65
$GPVTG,93.48,T,,M,20.391,N,37.764,K,A*03
$GPGGA,013922.00,1550.49931,S,04801.71702,W,1,08,1.20,1167.2,M,-11.9,M,,*4D
$GPGSA,A,3,22,27,32,08,10,21,16,26,,,,,1.80,1.20,1.35*02
$GPGSV,3,1,12,03,10,267,10,04,01,323,,08,48,249,30,10,21,138,28*75
$GPGSV,3,2,12,16,12,337,18,18,06,061,,21,22,212,24,22,84,116,36*72
$GPGSV,3,3,12,26,07,001,18,27,63,317,34,31,29,037,,32,52,145,44*78
$GPGLL,1550.49931,S,04801.71702,W,013922.00,A,A*64
$GPGRS,013922.00,1,-1.0,-0.5,4.1,-6.5,0.2,4.3,-5.1,3.7,,,,*42
$GPGST,013922.00,43,,,,5.2,6.6,7.6*5D
$GPZDA,013922.00,22,09,2022,00,00*66
$GPGBS,013922.00,5.2,6.6,7.6,,,,*4C
$PUBX,00,013922.00,1550.49931,S,04801.71702,W,1155.280,G3,8.4,7.6,37.764,93.48,0.436,,1.20,1
$PUBX,03,12,3,-,267,10,10,000,4,-,323,01,,000,8,U,249,48,30,000,10,U,138,21,28,000,16,U,337,
$PUBX,04,013922.00,220922,351562.00,2228,18,-766528,-4655.985,21*23
$GPDTM,W84,,0.0,N,0.0,E,0.0,W84*6F
$GPRMC,013923.00,A,1550.49946,S,04801.70969,W,21.276,92.15,220922,,,A*66
$GPVTG,92.15,T,,M,21.276,N,39.404,K,A*08
$GPGGA,013923.00,1550.49946,S,04801.70969,W,1,09,1.20,1167.0,M,-11.9,M,,*4D
$GPGSA,A,3,22,27,32,08,31,10,21,16,18,,,,1.80,1.20,1.35*0D
$GPGSV,3,1,12,03,10,267,11,04,01,323,,08,48,249,36,10,21,138,37*7C
$GPGSV,3,2,12,16,12,337,15,18,06,061,14,21,22,212,25,22,84,116,34*79
$GPGSV,3,3,12,26,07,001,15,27,63,317,37,31,29,037,16,32,52,145,44*71
$GPGLL,1550.49946,S,04801.70969,W,013923.00,A,A*67
$GPGRS,013923.00,1,-1.1,-0.4,3.2,-7.7,-24.7,9.2,-29.0,3.2,-82.6,,,*53
$GPGST,013923.00,41,,,,5.0,6.3,7.8*57
$GPZDA,013923.00,22,09,2022,00,00*67
$GPGBS,013923.00,5.0,6.3,7.8,,,,*44
$PUBX,04,013923.00,220922,351563.00,2228,18,-771186,-4660.361,21*23
$GPTXT,01,01,00,txbuf alloc*7F
$GPDTM,W84,,0.0,N,0.0,E,0.0,W84*6F
$GPRMC,013924.00,A,1550.49933,S,04801.70235,W,21.839,91.81,220922,,,A*6E
$GPVTG,91.81,T,,M,21.839,N,40.445,K,A*0C
$GPGGA,013924.00,1550.49933,S,04801.70235,W,1,09,1.08,1167.1,M,-11.9,M,,*41
$GPGSA,A,3,22,27,32,08,31,10,21,16,26,,,,1.63,1.08,1.22*01
$GPGSV,3,1,12,03,10,267,,04,01,323,,08,48,249,36,10,21,138,34*7F
$GPGSV,3,2,12,16,12,337,14,18,06,061,16,21,22,212,24,22,84,116,34*7B
$GPGSV,3,3,12,26,07,001,13,27,63,317,42,31,29,037,16,32,52,145,43*72
$GPGLL,1550.49933,S,04801.70235,W,013924.00,A,A*60
$GPGRS,013924.00,1,-1.1,-0.2,1.5,-6.9,-34.9,11.9,-27.7,4.4,-11.1,,,*60
$GPGST,013924.00,51,,,,4.8,5.9,8.0*56
$GPZDA,013924.00,22,09,2022,00,00*60
$GPGBS,013924.00,4.8,5.9,8.0,,,,*44
$PUBX,00,013924.00,1550.49933,S,04801.70235,W,1155.259,G3,7.6,8.0,40.445,91.81,0.360,,1.08,1
$PUBX,03,12,3,-,267,10,,000,4,-,323,01,,000,8,U,249,48,36,000,10,U,138,21,34,000,16,U,337,12
$PUBX,04,013924.00,220922,351564.00,2228,18,-775848,-4667.146,21*2C
$GPDTM,W84,,0.0,N,0.0,E,0.0,W84*6F
$GPRMC,013925.00,A,1550.49908,S,04801.69504,W,21.670,91.94,220922,,,A*6D
$GPVTG,91.94,T,,M,21.670,N,40.133,K,A*0F
$GPGGA,013925.00,1550.49908,S,04801.69504,W,1,08,1.20,1167.5,M,-11.9,M,,*4A
$GPGSA,A,3,22,27,32,08,31,10,21,16,,,,,1.80,1.20,1.35*04
$GPGSV,3,1,12,03,10,267,,04,01,323,,08,48,249,37,10,21,138,22*79
$GPGSV,3,2,12,16,12,337,11,18,06,061,15,21,22,212,22,22,84,116,34*7B
$GPGSV,3,3,12,26,07,001,,27,63,317,37,31,29,037,17,32,52,145,44*74
$GPGLL,1550.49908,S,04801.69504,W,013925.00,A,A*64
$GPGRS,013925.00,1,-1.2,0.3,1.2,-5.9,-45.7,9.1,-25.4,1.5,,,,*44
$GPGST,013925.00,50,,,,4.6,5.4,8.3*56
$GPZDA,013925.00,22,09,2022,00,00*61
$GPGBS,013925.00,4.6,5.4,8.3,,,,*45
$PUBX,00,013925.00,1550.49908,S,04801.69504,W,1155.601,G3,7.1,8.3,40.133,91.94,0.327,,1.20,1
$GPDTM,W84,,0.0,N,0.0,E,0.0,W84*6F
$GPRMC,013926.00,A,1550.49894,S,04801.68799,W,21.975,91.14,220922,,,A*6F
$GPVTG,91.14,T,,M,21.975,N,40.698,K,A*0B
$GPGGA,013926.00,1550.49894,S,04801.68799,W,1,08,1.19,1168.2,M,-11.9,M,,*48
$GPGSA,A,3,22,27,32,08,31,10,21,18,,,,,2.17,1.19,1.81*02
$GPGSV,3,1,12,03,10,267,,04,01,323,,08,48,249,39,10,21,138,22*77
$GPGSV,3,2,12,16,12,337,09,18,06,061,15,21,22,212,30,22,83,121,35*73
$GPGSV,3,3,12,26,07,001,,27,63,317,37,31,29,037,16,32,52,145,43*72
$GPGLL,1550.49894,S,04801.68799,W,013926.00,A,A*64
$GPGRS,013926.00,1,-1.4,-0.5,0.6,-2.7,-57.4,3.1,-0.9,-94.2,,,,*40
$GPGST,013926.00,39,,,,4.3,4.6,8.6*59
$GPZDA,013926.00,22,09,2022,00,00*62
$GPDTM,W84,,0.0,N,0.0,E,0.0,W84*6F
$GPRMC,013927.00,A,1550.49879,S,04801.68115,W,22.381,89.95,220922,,,A*6D
$GPVTG,89.95,T,,M,22.381,N,41.449,K,A*06
$GPGGA,013927.00,1550.49879,S,04801.68115,W,1,07,1.19,1168.3,M,-11.9,M,,*46
$GPGSA,A,3,22,27,32,08,31,10,21,,,,,,2.17,1.19,1.81*0B
$GPGSV,3,1,12,03,10,267,,04,01,323,,08,48,249,37,10,21,138,19*71
$GPGSV,3,2,12,16,12,337,08,18,06,061,,21,22,212,23,22,83,121,35*74
$GPGSV,3,3,12,26,07,001,,27,63,317,34,31,29,037,16,32,52,145,44*76
$GPGLL,1550.49879,S,04801.68115,W,013927.00,A,A*64
$GPGRS,013927.00,1,-1.8,-0.2,0.3,-4.8,-47.5,0.7,-4.0,,,,,*72
$GPGST,013927.00,48,,,,4.3,4.4,8.9*53
$GPZDA,013927.00,22,09,2022,00,00*63
$GPGBS,013927.00,4.3,4.4,8.9,,,,*49
$GPDTM,W84,,0.0,N,0.0,E,0.0,W84*6F
$GPRMC,013928.00,A,1550.49889,S,04801.67448,W,22.350,91.04,220922,,,A*62
$GPVTG,91.04,T,,M,22.350,N,41.392,K,A*0A
$GPGGA,013928.00,1550.49889,S,04801.67448,W,1,07,1.67,1168.0,M,-11.9,M,,*4E
$GPGSA,A,3,22,27,32,08,31,10,21,,,,,,3.60,1.67,3.19*00
$GPGSV,3,1,12,03,10,267,,04,01,323,,08,48,249,37,10,21,138,22*79
$GPGSV,3,2,12,16,12,337,08,18,06,061,,21,22,212,25,22,83,121,38*7F
$GPGSV,3,3,12,26,07,001,,27,63,317,39,31,29,037,26,32,52,145,44*78
$GPGLL,1550.49889,S,04801.67448,W,013928.00,A,A*66
$GPGRS,013928.00,1,-1.7,-0.6,1.0,-2.5,-2.7,-30.3,-16.8,,,,,*6D
$GPGST,013928.00,18,,,,4.2,4.2,9.0*56
$GPZDA,013928.00,22,09,2022,00,00*6C
$GPGBS,013928.00,4.2,4.2,9.0,21,,16.3,41.0*4B
$PUBX,00,013928.00,1550.49889,S,04801.67448,W,1156.067,G3,5.9,9.0,41.392,91.04,0.192,,1.67,3
$PUBX,03,12,3,-,267,10,,000,4,-,323,01,,000,8,U,249,48,37,000,10,e,138,21,22,000,16,e,337,12
$PUBX,04,013928.00,220922,351568.00,2228,18,-794516,-4669.975,21*23
$GPTXT,01,01,00,txbuf alloc*7F
$GPDTM,W84,,0.0,N,0.0,E,0.0,W84*6F
$GPRMC,013929.00,A,1550.49892,S,04801.66787,W,22.486,90.49,220922,,,A*6C
$GPVTG,90.49,T,,M,22.486,N,41.644,K,A*00
$GPGGA,013929.00,1550.49892,S,04801.66787,W,1,07,1.61,1166.5,M,-11.9,M,,*49
$GPGSA,A,3,22,27,32,08,31,10,26,,,,,,2.70,1.61,2.17*0E
$GPGSV,3,1,12,03,10,267,,04,01,323,,08,48,249,36,10,21,138,20*7A
$GPGSV,3,2,12,16,12,337,08,18,06,061,,21,22,212,,22,83,121,36*76
$GPGSV,3,3,12,26,07,001,33,27,63,317,40,31,29,037,23,32,52,145,45*72
$GPGLL,1550.49892,S,04801.66787,W,013929.00,A,A*6C
$GPGRS,013929.00,1,-2.1,-0.7,1.4,-0.7,-13.0,-28.8,13.3,,,,,*7A
$GPGST,013929.00,27,,,,4.1,4.2,9.1*59
$GPZDA,013929.00,22,09,2022,00,00*6D
$GPGBS,013929.00,4.1,4.2,9.1,,,,*4A
$PUBX,00,013929.00,1550.49892,S,04801.66787,W,1154.582,G3,5.8,9.1,41.644,90.49,0.344,,1.61,2
$GPDTM,W84,,0.0,N,0.0,E,0.0,W84*6F
$GPRMC,013930.00,A,1550.49870,S,04801.66080,W,22.368,91.19,220922,,,A*6B
$GPVTG,91.19,T,,M,22.368,N,41.425,K,A*06
$GPGGA,013930.00,1550.49870,S,04801.66080,W,1,09,1.54,1165.6,M,-11.9,M,,*45
$GPGSA,A,3,22,27,32,08,31,10,21,16,26,,,,2.56,1.54,2.05*0B
$GPGSV,3,1,12,03,10,267,,04,01,323,,08,48,249,39,10,21,138,21*74
