$GPGGA,190516.44,1559.363754,S,04802.615517,W,1,00,    ,1203.95,M,0.0,M,0.0,0000*52
$GPGSV,3,1,10,2,47,165,38.4,5,46,095,33.5,12,58,078,19.9,15,08,036,28.9*72
$GPGSV,3,2,10,18,48,292,36.0,23,12,345,26.4,24,18,005,29.6,25,69,177,30.0*7D
$GPGSV,3,3,10,29,37,201,21.6,31,13,232,27.8*7F
$GPRMC,190516.44,A,1559.363754,S,04802.615517,W,000.0,,190922,,,A*73
$GPGGA,190517.44,1559.363752,S,04802.615273,W,1,00,    ,1203.88,M,0.0,M,0.0,0000*5C
$GPGSV,3,1,10,2,47,165,38.4,5,46,095,33.6,12,58,078,20.7,15,08,036,28.3*7F
$GPGSV,3,2,10,18,48,292,35.9,23,12,345,27.3,24,18,005,29.4,25,69,177,30.0*73
$GPGSV,3,3,10,29,37,201,23.6,31,13,232,27.9*7C
$GPRMC,190517.44,A,1559.363752,S,04802.615273,W,000.0,,190922,,,A*71
$GPGGA,190518.44,1559.363606,S,04802.614978,W,1,00,    ,1203.35,M,0.0,M,0.0,0000*54
$GPGSV,3,1,10,2,47,165,37.6,5,46,095,33.3,12,58,078,24.4,15,08,036,27.9*75
$GPGSV,3,2,10,18,48,292,34.7,23,12,345,26.8,24,18,005,27.3,25,69,177,29.5*72
$GPGSV,3,3,10,29,37,201,22.1,31,13,232,27.2*71
$GPRMC,190518.44,A,1559.363606,S,04802.614978,W,000.1,,190922,,,A*7E
$GPGGA,190519.44,1559.363698,S,04802.615001,W,1,00,    ,1203.21,M,0.0,M,0.0,0000*51
$GPGSV,3,1,11,2,47,165,38.5,5,46,095,35.0,12,58,078,25.0,15,08,036,27.3*72
$GPGSV,3,2,11,18,48,292,34.8,20,19,131,15.4,23,12,345,28.4,24,18,005,28.2*7E
$GPGSV,3,3,11,25,69,177,30.4,29,37,201,24.9,31,13,232,25.9*57
$GPRMC,190519.44,A,1559.363698,S,04802.615001,W,000.0,,190922,,,A*7F
$GPGGA,190520.44,1559.363756,S,04802.615044,W,1,00,    ,1202.72,M,0.0,M,0.0,0000*5E
$GPGSV,3,1,11,2,47,165,38.6,5,46,095,34.3,12,58,078,24.9,15,08,036,28.4*73
$GPGSV,3,2,11,18,48,292,34.5,20,19,131,19.4,23,12,345,28.9,24,18,005,28.9*79
$GPGSV,3,3,11,25,69,177,29.4,29,37,201,25.1,31,13,232,24.7*59
$GPRMC,190520.44,A,1559.363756,S,04802.615044,W,000.0,,190922,,,A*77
$GPGGA,190521.44,1559.363961,S,04802.615054,W,1,00,    ,1202.11,M,0.0,M,0.0,0000*51
$GPGSV,3,1,11,2,47,165,38.0,5,46,095,34.9,12,58,078,26.8,15,08,036,26.7*71
$GPGSV,3,2,11,18,48,292,34.3,20,19,131,21.5,23,12,345,29.1,24,18,005,27.2*78
$GPGSV,3,3,11,25,69,177,29.4,29,37,201,27.2,31,13,232,26.8*55
$GPRMC,190521.44,A,1559.363961,S,04802.615054,W,000.1,,190922,,,A*7C
$GPGGA,190522.44,1559.364054,S,04802.615204,W,1,00,    ,1201.85,M,0.0,M,0.0,0000*53
$GPGSV,3,1,11,2,47,165,37.1,5,46,095,34.7,12,58,078,28.3,15,08,036,27.5*77
$GPGSV,3,2,11,18,48,292,31.7,20,19,131,21.8,23,12,345,28.4,24,18,005,22.7*70
$GPGSV,3,3,11,25,69,177,29.0,29,37,201,28.3,31,13,232,27.9*5F
$GPRMC,190522.44,A,1559.364054,S,04802.615204,W,000.0,,190922,,,A*71
$GPGGA,190523.44,1559.364171,S,04802.615431,W,1,00,    ,1201.91,M,0.0,M,0.0,0000*51
$GPGSV,3,1,10,2,47,165,37.0,5,46,095,34.9,12,58,078,25.3,15,08,036,26.6*76
$GPGSV,3,2,10,18,48,292,31.7,23,12,345,28.6,24,18,005,24.4,25,69,177,30.2*7C
$GPGSV,3,3,10,29,37,201,26.8,31,13,232,27.9*77
$GPRMC,190523.44,A,1559.364171,S,04802.615431,W,000.1,,190922,,,A*77
$GPGGA,190524.44,1559.364216,S,04802.615668,W,1,00,    ,1202.02,M,0.0,M,0.0,0000*53
$GPGSV,3,1,11,2,47,165,36.4,5,46,095,35.1,12,58,078,22.8,15,08,036,27.5*75
$GPGSV,3,2,11,18,48,292,32.6,20,19,131,15.6,23,12,345,29.3,24,18,005,26.2*7C
$GPGSV,3,3,11,25,69,177,30.0,29,37,201,28.0,31,13,232,28.1*53
$GPRMC,190524.44,A,1559.364216,S,04802.615668,W,000.0,,190922,,,A*7D
$GPGGA,190525.44,1559.364165,S,04802.615641,W,1,00,    ,1201.96,M,0.0,M,0.0,0000*50
$GPGSV,3,1,11,2,47,165,36.0,5,46,095,35.1,12,58,078,28.4,15,08,036,28.3*7E
$GPGSV,3,2,11,18,48,292,33.3,20,19,131,22.9,23,12,345,29.6,24,18,005,25.8*7F
$GPGSV,3,3,11,25,69,177,31.4,29,37,201,28.4,31,13,232,27.6*5A
$GPRMC,190525.44,A,1559.364165,S,04802.615641,W,000.1,,190922,,,A*71
$GPGGA,190526.44,1559.364280,S,04802.615677,W,1,00,    ,1202.38,M,0.0,M,0.0,0000*59
$GPGSV,3,1,11,2,47,165,36.0,5,46,095,36.0,12,58,078,28.3,15,08,036,28.6*7E
$GPGSV,3,2,11,18,48,292,34.4,20,19,131,20.6,23,12,345,30.9,24,18,005,24.9*75
$GPGSV,3,3,11,25,69,177,31.7,29,37,201,28.0,31,13,232,28.5*51
$GPRMC,190526.44,A,1559.364280,S,04802.615677,W,000.0,,190922,,,A*7E
$GPGGA,190527.44,1559.364349,S,04802.615485,W,1,00,    ,1202.99,M,0.0,M,0.0,0000*58
$GPGSV,3,1,10,2,47,165,36.0,5,46,095,35.5,12,57,078,26.8,15,08,036,27.3*79
$GPGSV,3,2,10,18,48,292,35.0,23,12,345,30.6,24,18,005,24.5,25,69,177,31.7*73
$GPGSV,3,3,10,29,37,201,27.2,31,13,232,27.0*75
$GPRMC,190527.44,A,1559.364349,S,04802.615485,W,000.0,,190922,,,A*74
$GPGGA,190528.44,1559.364291,S,04802.615600,W,1,00,    ,1203.45,M,0.0,M,0.0,0000*5C
$GPGSV,3,1,11,2,47,165,35.4,5,46,095,34.8,12,57,078,28.2,15,08,036,26.3*76
$GPGSV,3,2,11,18,48,292,35.2,20,19,131,16.6,23,12,345,31.1,24,18,005,26.7*72
$GPGSV,3,3,11,25,69,177,30.3,29,37,201,28.7,31,13,232,24.3*59
$GPRMC,190528.44,A,1559.364291,S,04802.615600,W,000.0,,190922,,,A*70
$GPGGA,190529.44,1559.364400,S,04802.615617,W,1,00,    ,1203.19,M,0.0,M,0.0,0000*5C
$GPGSV,3,1,10,2,47,165,36.4,5,46,095,34.5,12,57,078,26.9,15,08,036,26.9*76
$GPGSV,3,2,10,18,48,292,35.2,23,12,345,30.4,24,18,005,26.3,25,69,177,29.8*71
$GPGSV,3,3,10,29,37,201,28.0,31,13,232,24.5*7E
$GPRMC,190529.44,A,1559.364400,S,04802.615617,W,000.1,,190922,,,A*78
$GPGGA,190530.44,1559.364550,S,04802.615655,W,1,00,    ,1203.11,M,0.0,M,0.0,0000*5E
$GPGSV,3,1,10,2,47,165,35.4,5,46,095,34.0,12,57,078,26.9,15,08,036,27.9*71
$GPGSV,3,2,10,18,48,292,34.3,23,12,345,28.7,24,18,005,26.1,25,69,177,30.2*7B
$GPGSV,3,3,10,29,37,201,26.6,31,13,232,24.7*74
$GPRMC,190530.44,A,1559.364550,S,04802.615655,W,000.0,,190922,,,A*73
$GPGGA,190531.44,1559.364571,S,04802.615627,W,1,00,    ,1202.71,M,0.0,M,0.0,0000*5E
$GPGSV,3,1,11,2,47,165,36.2,5,46,095,34.8,12,57,078,30.3,15,08,036,26.9*71
$GPGSV,3,2,11,18,48,292,34.6,20,19,131,17.8,23,12,345,29.1,24,18,005,26.7*71
$GPGSV,3,3,11,25,69,177,31.3,29,37,201,28.4,31,13,232,26.6*5C
$GPRMC,190531.44,A,1559.364571,S,04802.615627,W,000.1,,190922,,,A*75
$GPGGA,190532.44,1559.364702,S,04802.615705,W,1,00,    ,1202.71,M,0.0,M,0.0,0000*5A
$GPGSV,3,1,11,2,47,165,35.8,5,46,095,34.7,12,57,078,29.7,15,08,036,26.4*76
$GPGSV,3,2,11,18,48,292,34.6,20,19,131,20.1,23,12,345,27.0,24,18,005,24.7*71
$GPGSV,3,3,11,25,70,177,30.9,29,37,201,29.3,31,13,232,27.6*58
$GPRMC,190532.44,A,1559.364702,S,04802.615705,W,000.1,,190922,,,A*71
$GPGGA,190533.44,1559.364696,S,04802.615890,W,1,00,    ,1203.41,M,0.0,M,0.0,0000*56
$GPGSV,3,1,11,2,47,165,36.1,5,46,095,34.1,12,57,078,28.4,15,08,036,25.3*7C
$GPGSV,3,2,11,18,48,292,33.7,20,19,131,21.4,23,12,345,27.4,24,18,005,24.3*73
$GPGSV,3,3,11,25,70,177,30.8,29,37,201,27.7,31,13,232,27.0*55
$GPRMC,190533.44,A,1559.364696,S,04802.615890,W,000.3,,190922,,,A*7D
$GPGGA,190534.44,1559.364511,S,04802.615985,W,1,00,    ,1203.78,M,0.0,M,0.0,0000*52
$GPGSV,3,1,11,2,47,165,36.0,5,46,095,35.5,12,57,077,29.8,15,08,036,27.5*7E
$GPGSV,3,2,11,18,48,292,33.2,20,19,131,21.8,23,12,345,29.6,24,18,005,21.8*78
$GPGSV,3,3,11,25,70,177,30.7,29,37,201,29.3,31,13,232,17.9*5A
$GPRMC,190534.44,A,1559.364511,S,04802.615985,W,000.8,004.8,190922,,,A*5A
$GPGGA,190535.44,1559.364275,S,04802.615979,W,1,00,    ,1204.08,M,0.0,M,0.0,0000*55
$GPGSV,3,1,11,2,47,165,35.6,5,46,095,35.2,12,57,077,27.8,15,08,036,30.8*79
$GPGSV,3,2,11,18,48,292,32.9,20,19,131,24.8,23,12,345,30.6,24,18,005,22.5*71
$GPGSV,3,3,11,25,70,177,30.5,29,37,201,27.3,31,13,232,22.9*50
$GPRMC,190535.44,A,1559.364275,S,04802.615979,W,001.5,000.8,190922,,,A*55
$GPGGA,190536.44,1559.363864,S,04802.616084,W,1,00,    ,1204.41,M,0.0,M,0.0,0000*5E
$GPGSV,3,1,11,2,47,165,35.7,5,46,095,33.1,12,57,077,23.8,15,08,036,33.0*72
$GPGSV,3,2,11,18,48,291,31.1,20,19,131,26.6,23,12,345,30.9,24,18,005,21.0*7C
$GPGSV,3,3,11,25,70,177,31.5,29,37,201,22.3,31,13,232,30.8*56
$GPRMC,190536.44,A,1559.363864,S,04802.616084,W,002.2,359.3,190922,,,A*53
$GPGGA,190537.44,1559.363153,S,04802.616120,W,1,00,    ,1204.94,M,0.0,M,0.0,0000*55
$GPGSV,3,1,10,2,47,165,36.2,5,46,095,30.7,12,57,077,26.2,15,08,036,35.1*78
$GPGSV,3,2,10,18,48,291,26.1,20,19,131,28.0,23,12,345,31.3,25,70,177,31.9*7B
$GPGSV,3,3,10,29,37,201,24.2,31,13,232,32.3*71
$GPRMC,190537.44,A,1559.363153,S,04802.616120,W,003.3,358.0,190922,,,A*52
$GPGGA,190538.44,1559.362158,S,04802.616253,W,1,00,    ,1204.96,M,0.0,M,0.0,0000*55
$GPGSV,3,1,11,2,47,165,35.3,5,46,095,32.5,12,57,077,25.0,15,08,036,34.5*7F
$GPGSV,3,2,11,18,48,291,25.9,20,19,131,29.4,23,12,345,30.5,24,18,005,16.3*77
$GPGSV,3,3,11,25,70,177,32.9,29,37,201,25.6,31,13,232,30.4*57
$GPRMC,190538.44,A,1559.362158,S,04802.616253,W,003.8,357.7,190922,,,A*53
$GPGGA,190539.44,1559.361040,S,04802.616255,W,1,00,    ,1205.06,M,0.0,M,0.0,0000*51
$GPGSV,3,1,10,2,47,165,35.5,5,46,095,33.4,15,08,036,31.5,18,48,291,26.7*77
$GPGSV,3,2,10,20,19,131,25.6,23,12,345,31.5,24,18,005,20.4,25,70,177,34.0*7C
$GPGSV,3,3,10,29,37,201,27.8,31,13,232,28.8*78
$GPRMC,190539.44,A,1559.361040,S,04802.616255,W,003.7,359.8,190922,,,A*51
$GPGGA,190540.44,1559.359973,S,04802.616231,W,1,00,    ,1205.13,M,0.0,M,0.0,0000*5B
$GPGSV,3,1,11,2,47,165,35.6,5,46,095,34.5,12,57,077,17.3,15,08,036,28.3*75
$GPGSV,3,2,11,18,48,291,26.3,20,19,131,25.1,23,12,345,31.3,24,18,005,19.4*78
$GPGSV,3,3,11,25,70,177,33.7,29,37,201,28.2,31,13,232,31.7*53
$GPRMC,190540.44,A,1559.359973,S,04802.616231,W,003.7,000.1,190922,,,A*59
$GPGGA,190541.44,1559.358871,S,04802.616323,W,1,00,    ,1205.37,M,0.0,M,0.0,0000*5C
$GPGSV,3,1,11,2,47,165,36.0,5,46,095,33.1,12,57,077,19.7,15,08,036,31.3*71
$GPGSV,3,2,11,18,48,291,29.0,20,19,131,25.0,23,12,345,32.4,24,18,005,18.6*72
$GPGSV,3,3,11,25,70,177,32.5,29,37,201,26.7,31,13,232,30.8*55
$GPRMC,190541.44,A,1559.358871,S,04802.616323,W,003.6,000.9,190922,,,A*51
$GPGGA,190542.44,1559.357701,S,04802.616411,W,1,00,    ,1205.53,M,0.0,M,0.0,0000*5C
$GPGSV,3,1,11,2,47,165,35.5,5,46,095,33.0,12,57,077,21.9,15,08,036,33.7*75
$GPGSV,3,2,11,18,48,291,29.7,20,19,131,25.3,23,12,345,32.3,24,18,005,21.2*7F
$GPGSV,3,3,11,25,70,177,32.0,29,37,201,26.5,31,13,232,32.0*58
$GPRMC,190542.44,A,1559.357701,S,04802.616411,W,003.6,000.6,190922,,,A*5C
$GPGGA,190543.44,1559.356623,S,04802.616357,W,1,00,    ,1205.89,M,0.0,M,0.0,0000*5F
$GPGSV,3,1,10,2,47,165,35.1,5,46,095,33.2,15,08,036,33.4,18,48,291,29.8*76
$GPGSV,3,2,10,20,19,131,23.0,23,12,345,31.9,24,18,005,20.8,25,70,177,30.5*7D
$GPGSV,3,3,10,29,37,201,24.8,31,13,232,32.7*7F
$GPRMC,190543.44,A,1559.356623,S,04802.616357,W,003.5,359.7,190922,,,A*55
$GPGGA,190544.44,1559.355590,S,04802.616408,W,1,00,    ,1206.17,M,0.0,M,0.0,0000*59
$GPGSV,3,1,10,2,47,165,35.0,5,46,095,33.5,15,08,036,33.7,18,48,291,30.7*74
$GPGSV,3,2,10,20,19,131,24.8,23,12,345,31.9,24,18,005,20.6,25,70,177,30.9*70
$GPGSV,3,3,10,29,37,201,22.2,31,13,232,33.7*72
$GPRMC,190544.44,A,1559.355590,S,04802.616408,W,003.6,000.0,190922,,,A*5C
$GPGGA,190545.44,1559.354539,S,04802.616463,W,1,00,    ,1206.31,M,0.0,M,0.0,0000*53
$GPGSV,3,1,11,2,47,165,34.8,5,46,095,32.8,12,57,077,14.4,15,08,036,34.1*7A
$GPGSV,3,2,11,18,48,291,30.5,20,19,131,22.0,23,12,345,32.1,24,18,005,24.1*75
$GPGSV,3,3,11,25,70,177,29.8,29,37,201,24.2,31,13,232,33.1*5F
$GPRMC,190545.44,A,1559.354539,S,04802.616463,W,004.0,359.1,190922,,,A*5D
$GPGGA,190546.44,1559.353324,S,04802.616484,W,1,00,    ,1206.76,M,0.0,M,0.0,0000*57
$GPGSV,3,1,10,2,47,165,34.8,5,46,095,33.2,15,08,036,35.0,18,48,291,31.0*7D
$GPGSV,3,2,10,20,19,131,18.7,23,12,345,32.6,24,18,005,21.3,25,70,177,29.6*7F
$GPGSV,3,3,10,29,37,201,24.9,31,13,232,31.1*7B
$GPRMC,190546.44,A,1559.353324,S,04802.616484,W,004.4,000.3,190922,,,A*53
$GPGGA,190547.44,1559.352057,S,04802.616517,W,1,00,    ,1206.97,M,0.0,M,0.0,0000*54
$GPGSV,3,1,10,2,47,165,35.3,5,46,095,33.3,15,08,036,35.7,18,48,291,31.1*70
$GPGSV,3,2,10,20,19,131,19.4,23,12,345,31.9,24,18,005,21.1,25,70,177,30.2*7F
$GPGSV,3,3,10,29,37,201,24.3,31,13,232,32.4*77
$GPRMC,190547.44,A,1559.352057,S,04802.616517,W,004.9,359.1,190922,,,A*5F
$GPGGA,190548.44,1559.350720,S,04802.616556,W,1,00,    ,1207.20,M,0.0,M,0.0,0000*56
$GPGSV,3,1,11,2,47,165,35.5,5,46,095,33.3,12,57,077,16.2,15,08,036,34.1*78
$GPGSV,3,2,11,18,48,291,30.4,20,19,131,19.7,23,12,345,31.6,24,18,005,22.1*79
$GPGSV,3,3,11,25,70,177,30.6,29,37,201,23.0,31,13,232,33.6*5B
$GPRMC,190548.44,A,1559.350720,S,04802.616556,W,005.1,359.9,190922,,,A*51
$GPGGA,190549.44,1559.349210,S,04802.616632,W,1,00,    ,1207.36,M,0.0,M,0.0,0000*5F
$GPGSV,3,1,10,2,46,165,34.7,5,46,095,33.0,15,08,036,33.0,18,48,291,29.8*76
$GPGSV,3,2,10,20,19,131,19.2,23,12,345,30.2,24,18,005,19.5,25,70,177,30.6*78
$GPGSV,3,3,10,29,37,201,24.4,31,13,232,33.3*76
$GPRMC,190549.44,A,1559.349210,S,04802.616632,W,005.1,359.9,190922,,,A*5F
$GPGGA,190550.44,1559.347820,S,04802.616577,W,1,00,    ,1207.39,M,0.0,M,0.0,0000*5D
$GPGSV,3,1,10,2,46,165,34.4,5,46,095,33.3,15,08,036,31.4,18,48,291,30.0*70
$GPGSV,3,2,10,20,19,131,18.8,23,12,345,31.7,24,18,005,20.7,25,70,177,31.3*7B
$GPGSV,3,3,10,29,37,201,25.1,31,13,232,32.8*78
$GPRMC,190550.44,A,1559.347820,S,04802.616577,W,005.1,359.7,190922,,,A*5C
$GPGGA,190551.44,1559.346340,S,04802.616597,W,1,00,    ,1207.55,M,0.0,M,0.0,0000*54
$GPGSV,3,1,11,2,46,165,35.6,5,46,095,34.1,12,57,077,15.5,15,08,037,29.1*76
$GPGSV,3,2,11,18,48,291,30.2,20,19,131,21.3,23,12,345,32.3,24,18,005,20.6*73
$GPGSV,3,3,11,25,70,177,31.9,29,37,201,25.0,31,13,232,30.7*51
$GPRMC,190551.44,A,1559.346340,S,04802.616597,W,005.1,000.3,190922,,,A*54
$GPGGA,190552.44,1559.344869,S,04802.616578,W,1,00,    ,1207.66,M,0.0,M,0.0,0000*54
$GPGSV,3,1,10,2,46,164,35.4,5,46,095,33.5,15,08,037,32.0,18,48,291,30.3*73
$GPGSV,3,2,10,20,19,131,22.2,23,12,345,32.6,24,18,005,19.6,25,70,177,31.1*73
$GPGSV,3,3,10,29,37,201,23.9,31,13,232,33.8*77
$GPRMC,190552.44,A,1559.344869,S,04802.616578,W,005.1,000.3,190922,,,A*54
$GPGGA,190553.44,1559.343326,S,04802.616663,W,1,00,    ,1208.06,M,0.0,M,0.0,0000*52
$GPGSV,3,1,11,2,46,164,35.4,5,46,095,34.2,12,57,077,16.3,15,08,037,28.9*7A
$GPGSV,3,2,11,18,48,291,31.4,20,19,131,22.8,23,12,345,32.3,24,18,005,19.5*75
$GPGSV,3,3,11,25,70,177,31.5,29,37,201,23.4,31,13,232,32.6*5C
$GPRMC,190553.44,A,1559.343326,S,04802.616663,W,005.0,002.2,190922,,,A*59
$GPGGA,190554.44,1559.341869,S,04802.616637,W,1,00,    ,1208.42,M,0.0,M,0.0,0000*56
$GPGSV,3,1,11,2,46,164,35.3,5,46,095,33.8,12,57,077,19.7,15,08,037,33.3*7B
$GPGSV,3,2,11,18,48,291,30.3,20,19,131,24.7,23,12,345,32.0,24,18,005,21.9*7E
$GPGSV,3,3,11,25,70,177,30.8,29,37,201,21.7,31,13,233,32.6*50
$GPRMC,190554.44,A,1559.341869,S,04802.616637,W,005.0,000.8,190922,,,A*55
$GPGGA,190555.44,1559.340599,S,04802.616483,W,1,00,    ,1208.28,M,0.0,M,0.0,0000*55
$GPGSV,3,1,11,2,46,164,35.6,5,46,095,34.1,12,57,077,22.0,15,08,037,33.8*74
$GPGSV,3,2,11,18,48,291,31.8,20,19,131,25.5,23,12,345,31.9,24,18,005,20.5*70
$GPGSV,3,3,11,25,70,177,30.5,29,37,201,22.0,31,13,233,31.9*55
$GPRMC,190555.44,A,1559.340599,S,04802.616483,W,005.0,002.7,190922,,,A*57
$GPGGA,190556.44,1559.339235,S,04802.616359,W,1,00,    ,1208.22,M,0.0,M,0.0,0000*53
$GPGSV,3,1,11,2,46,164,36.0,5,46,095,34.5,12,57,077,24.0,15,08,037,33.3*78
$GPGSV,3,2,11,18,48,291,33.0,20,19,131,26.2,23,12,345,32.1,24,18,005,21.2*73
$GPGSV,3,3,11,25,70,177,28.4,29,37,201,22.3,31,13,233,32.2*56
$GPRMC,190556.44,A,1559.339235,S,04802.616359,W,005.1,001.4,190922,,,A*5A
$GPGGA,190557.44,1559.337805,S,04802.616299,W,1,00,    ,1208.26,M,0.0,M,0.0,0000*5C
$GPGSV,3,1,11,2,46,164,36.2,5,46,095,34.4,12,57,077,25.4,15,08,037,30.6*78
$GPGSV,3,2,11,18,48,291,32.9,20,19,131,25.9,23,12,345,31.4,24,18,005,21.7*70
$GPGSV,3,3,11,25,70,177,27.1,29,37,201,22.8,31,13,233,31.8*5E
$GPRMC,190557.44,A,1559.337805,S,04802.616299,W,005.2,002.1,190922,,,A*54
$GPGGA,190558.44,1559.336419,S,04802.616214,W,1,00,    ,1208.29,M,0.0,M,0.0,0000*59
$GPGSV,3,1,11,2,46,164,36.3,5,46,095,34.6,12,57,077,25.9,15,08,037,27.5*73
$GPGSV,3,2,11,18,48,291,32.5,20,19,131,22.2,23,12,345,31.2,24,18,005,21.0*71
$GPGSV,3,3,11,25,70,177,27.6,29,37,201,22.1,31,13,233,33.1*5B
$GPRMC,190558.44,A,1559.336419,S,04802.616214,W,005.6,002.2,190922,,,A*59
$GPGGA,190559.44,1559.334907,S,04802.616142,W,1,00,    ,1208.38,M,0.0,M,0.0,0000*58
$GPGSV,3,1,11,2,46,164,36.3,5,46,095,35.2,12,57,077,26.8,15,08,037,25.7*74
$GPGSV,3,2,11,18,48,291,33.2,20,19,131,20.6,23,12,345,33.9,24,18,005,23.9*73
$GPGSV,3,3,11,25,70,177,28.3,29,37,201,21.9,31,13,233,33.0*5B
$GPRMC,190559.44,A,1559.334907,S,04802.616142,W,005.7,002.1,190922,,,A*5A
$GPGGA,190600.44,1559.333299,S,04802.616116,W,1,00,    ,1208.51,M,0.0,M,0.0,0000*52
$GPGSV,3,1,10,2,46,164,35.3,5,46,095,35.1,12,57,077,26.4,15,08,037,26.0*7D
$GPGSV,3,2,10,18,48,291,32.1,20,19,131,23.1,23,12,345,33.6,24,18,005,23.9*7B
$GPGSV,3,3,10,25,70,177,27.9,31,13,233,31.1*74
$GPRMC,190600.44,A,1559.333299,S,04802.616116,W,005.9,001.3,190922,,,A*50
$GPGGA,190601.44,1559.331666,S,04802.615992,W,1,00,    ,1208.49,M,0.0,M,0.0,0000*5B
$GPGSV,3,1,11,2,46,164,35.8,5,46,095,36.2,12,57,077,26.2,15,08,037,27.8*78
$GPGSV,3,2,11,18,48,291,33.0,20,19,131,25.6,23,12,345,33.3,24,18,005,25.8*79
$GPGSV,3,3,11,25,70,177,28.9,29,37,201,16.1,31,13,233,32.9*55
$GPRMC,190601.44,A,1559.331666,S,04802.615992,W,005.9,002.6,190922,,,A*56
$GPGGA,190602.44,1559.329947,S,04802.615894,W,1,00,    ,1208.41,M,0.0,M,0.0,0000*52
$GPGSV,3,1,11,2,46,164,36.5,5,46,095,35.2,12,57,077,26.8,15,08,037,29.2*7B
$GPGSV,3,2,11,18,48,291,32.2,20,19,131,24.6,23,12,345,32.6,24,18,005,24.3*75
$GPGSV,3,3,11,25,70,177,28.8,29,37,201,20.1,31,13,233,34.1*5F
$GPRMC,190602.44,A,1559.329947,S,04802.615894,W,006.0,002.1,190922,,,A*5A
$GPGGA,190603.44,1559.328291,S,04802.615716,W,1,00,    ,1208.36,M,0.0,M,0.0,0000*57
$GPGSV,3,1,11,2,46,164,36.4,5,46,095,34.3,12,57,077,28.5,15,08,037,30.2*71
$GPGSV,3,2,11,18,48,291,32.0,20,19,131,24.5,23,12,345,33.6,24,18,005,19.9*71
$GPGSV,3,3,11,25,70,177,28.7,29,37,201,21.9,31,13,233,30.7*5B
$GPRMC,190603.44,A,1559.328291,S,04802.615716,W,005.6,000.1,190922,,,A*58
$GPGGA,190604.44,1559.326829,S,04802.615750,W,1,00,    ,1208.31,M,0.0,M,0.0,0000*52
$GPGSV,3,1,11,2,46,164,36.2,5,46,095,33.2,12,57,077,26.5,15,08,037,30.0*7D
$GPGSV,3,2,11,18,48,291,32.1,20,19,131,23.9,23,12,345,32.6,24,18,005,20.4*7D
$GPGSV,3,3,11,25,70,177,28.6,29,37,201,21.9,31,13,233,32.8*57
$GPRMC,190604.44,A,1559.326829,S,04802.615750,W,005.8,001.5,190922,,,A*51
$GPGGA,190605.44,1559.325249,S,04802.615612,W,1,00,    ,1208.40,M,0.0,M,0.0,0000*5D
$GPGSV,3,1,11,2,46,164,35.6,5,46,095,33.0,12,57,077,25.9,15,08,037,26.6*76
$GPGSV,3,2,11,18,48,291,32.0,20,19,131,20.9,23,12,345,32.4,24,18,005,20.9*70
$GPGSV,3,3,11,25,70,177,28.6,29,37,201,22.8,31,13,233,32.7*5A
$GPRMC,190605.44,A,1559.325249,S,04802.615612,W,006.1,000.3,190922,,,A*55
$GPGGA,190606.44,1559.323578,S,04802.615575,W,1,00,    ,1208.48,M,0.0,M,0.0,0000*57
$GPGSV,3,1,11,2,46,164,35.8,5,46,095,33.3,12,57,077,26.9,15,08,037,28.9*79
$GPGSV,3,2,11,18,48,291,31.9,20,19,131,22.8,23,12,345,32.4,24,18,005,17.8*7C
$GPGSV,3,3,11,25,70,177,29.4,29,37,201,22.3,31,13,233,32.7*52
$GPRMC,190606.44,A,1559.323578,S,04802.615575,W,006.4,000.6,190922,,,A*57
$GPGGA,190607.44,1559.321824,S,04802.615525,W,1,00,    ,1208.32,M,0.0,M,0.0,0000*58
$GPGSV,3,1,11,2,46,164,36.0,5,46,095,34.4,12,57,077,27.7,15,08,037,27.1*7A
$GPGSV,3,2,11,18,48,291,32.3,20,19,131,20.5,23,12,345,33.0,24,18,005,21.8*7A
$GPGSV,3,3,11,25,70,177,30.2,29,37,201,21.7,31,13,233,32.9*55
$GPRMC,190607.44,A,1559.321824,S,04802.615525,W,006.2,002.5,190922,,,A*52
$GPGGA,190608.44,1559.320078,S,04802.615478,W,1,00,    ,1208.38,M,0.0,M,0.0,0000*54
$GPGSV,3,1,11,2,46,164,35.5,5,46,095,33.6,12,57,077,26.1,15,08,037,28.3*73
$GPGSV,3,2,11,18,48,291,31.9,20,19,131,25.6,23,12,345,32.0,24,18,005,17.6*7F
$GPGSV,3,3,11,25,70,177,29.7,29,37,201,22.3,31,13,233,33.9*5E
$GPRMC,190608.44,A,1559.320078,S,04802.615478,W,006.2,001.8,190922,,,A*5A
$GPGGA,190609.44,1559.318295,S,04802.615328,W,1,00,    ,1208.39,M,0.0,M,0.0,0000*5C
$GPGSV,3,1,10,2,46,164,35.2,5,46,096,33.5,12,57,077,28.2,15,08,037,27.7*73
$GPGSV,3,2,10,18,48,291,31.2,20,19,131,25.0,23,12,345,32.0,25,70,177,28.2*70
$GPGSV,3,3,10,29,37,201,26.3,31,13,233,35.2*75
$GPRMC,190609.44,A,1559.318295,S,04802.615328,W,006.1,001.1,190922,,,A*59
$GPGGA,190610.44,1559.316680,S,04802.615334,W,1,00,    ,1208.59,M,0.0,M,0.0,0000*51
$GPGSV,3,1,11,2,46,164,36.1,5,46,096,32.3,12,57,077,30.7,15,08,037,27.2*7C
$GPGSV,3,2,11,18,48,291,31.1,20,19,131,25.2,23,12,345,33.9,24,18,005,17.1*7C
$GPGSV,3,3,11,25,70,177,27.2,29,37,201,27.5,31,13,233,36.6*5C
$GPRMC,190610.44,A,1559.316680,S,04802.615334,W,006.3,359.5,190922,,,A*5A
$GPGGA,190611.44,1559.314948,S,04802.615312,W,1,00,    ,1208.71,M,0.0,M,0.0,0000*57
$GPGSV,3,1,11,2,46,164,35.8,5,46,096,29.6,12,57,077,30.6,15,08,037,29.4*70
$GPGSV,3,2,11,18,48,291,30.5,20,19,131,20.8,23,12,345,32.5,24,17,005,20.2*73
$GPGSV,3,3,11,25,70,177,27.4,29,37,201,24.1,31,13,233,36.7*5C
$GPRMC,190611.44,A,1559.314948,S,04802.615312,W,006.2,359.1,190922,,,A*53
$GPGGA,190612.44,1559.313191,S,04802.615343,W,1,00,    ,1209.00,M,0.0,M,0.0,0000*5C
$GPGSV,3,1,11,2,46,164,35.1,5,46,096,30.3,12,57,077,28.5,15,08,037,26.8*7D
$GPGSV,3,2,11,18,48,291,30.2,20,19,131,21.0,23,12,345,31.4,24,17,005,17.6*7F
$GPGSV,3,3,11,25,70,177,27.0,29,37,201,22.6,31,13,233,37.7*58
$GPRMC,190612.44,A,1559.313191,S,04802.615343,W,006.2,358.7,190922,,,A*58
$GPGGA,190613.44,1559.311543,S,04802.615415,W,1,00,    ,1209.11,M,0.0,M,0.0,0000*50
$GPGSV,3,1,11,2,46,164,35.3,5,46,096,30.0,12,57,077,26.7,15,08,037,30.7*78
$GPGSV,3,2,11,18,48,291,29.9,20,19,131,17.7,23,12,345,31.7,24,17,005,17.9*72
$GPGSV,3,3,11,25,70,177,28.7,29,37,201,21.8,31,13,233,37.1*5B
$GPRMC,190613.44,A,1559.311543,S,04802.615415,W,006.3,358.4,190922,,,A*56
$GPGGA,190614.44,1559.309755,S,04802.615457,W,1,00,    ,1209.20,M,0.0,M,0.0,0000*5F
$GPGSV,3,1,11,2,46,164,35.6,5,46,096,30.1,12,57,077,28.0,15,08,037,31.2*71
$GPGSV,3,2,11,18,48,291,29.4,20,19,131,25.4,23,12,345,32.1,24,17,005,18.0*7E
$GPGSV,3,3,11,25,70,177,29.8,29,37,201,23.4,31,13,233,36.5*5E
$GPRMC,190614.44,A,1559.309755,S,04802.615457,W,006.4,357.1,190922,,,A*56
$GPGGA,190615.44,1559.307974,S,04802.615590,W,1,00,    ,1209.28,M,0.0,M,0.0,0000*5F
$GPGSV,3,1,11,2,46,164,35.9,5,46,096,33.0,12,57,077,26.7,15,08,037,26.5*74
$GPGSV,3,2,11,18,48,291,29.9,20,19,131,24.9,23,12,345,31.4,24,17,005,19.4*7C
$GPGSV,3,3,11,25,70,177,32.2,29,37,201,25.7,31,13,233,32.4*5E
$GPRMC,190615.44,A,1559.307974,S,04802.615590,W,006.3,354.3,190922,,,A*58
$GPGGA,190616.44,1559.306167,S,04802.615891,W,1,00,    ,1209.63,M,0.0,M,0.0,0000*54
$GPGSV,3,1,11,2,46,164,36.0,5,46,096,31.7,12,57,077,29.1,15,08,037,20.9*78
$GPGSV,3,2,11,18,48,291,31.3,20,19,131,19.0,23,12,345,31.1,24,17,005,24.2*75
$GPGSV,3,3,11,25,70,177,35.0,29,37,201,26.5,31,13,233,33.8*57
$GPRMC,190616.44,A,1559.306167,S,04802.615891,W,006.6,349.5,190922,,,A*53
$GPGGA,190617.44,1559.304474,S,04802.616342,W,1,00,    ,1209.93,M,0.0,M,0.0,0000*59
$GPGSV,3,1,11,2,46,164,33.1,5,46,096,30.2,12,57,077,28.1,15,08,037,22.9*7B
$GPGSV,3,2,11,18,48,291,25.1,20,19,131,25.8,23,12,345,25.7,24,17,005,25.2*77
$GPGSV,3,3,11,25,70,177,37.2,29,37,201,32.8,31,13,233,34.4*54
$GPRMC,190617.44,A,1559.304474,S,04802.616342,W,006.7,343.7,190922,,,A*58
$GPGGA,190618.44,1559.302723,S,04802.616947,W,1,00,    ,1209.97,M,0.0,M,0.0,0000*5A
$GPGSV,3,1,11,2,46,164,34.0,5,46,096,34.6,12,57,077,29.0,15,08,037,23.6*73
$GPGSV,3,2,11,18,48,291,29.5,20,19,131,26.1,23,12,345,20.7,24,17,005,24.7*74
$GPGSV,3,3,11,25,70,177,37.5,29,37,201,37.9,31,13,233,37.0*50
$GPRMC,190618.44,A,1559.302723,S,04802.616947,W,005.6,337.0,190922,,,A*59
$GPGGA,190619.44,1559.301384,S,04802.617539,W,1,00,    ,1209.92,M,0.0,M,0.0,0000*50
$GPGSV,3,1,11,2,46,164,38.3,5,46,096,33.9,12,57,077,28.5,15,08,037,31.9*7C
$GPGSV,3,2,11,18,48,291,34.6,20,19,131,27.6,23,12,345,24.1,24,17,005,27.9*72
$GPGSV,3,3,11,25,70,177,34.2,29,37,201,38.7,31,13,233,37.6*53
$GPRMC,190619.44,A,1559.301384,S,04802.617539,W,006.7,325.4,190922,,,A*53
$GPGGA,190620.44,1559.299969,S,04802.618674,W,1,00,    ,1209.68,M,0.0,M,0.0,0000*53
$GPGSV,3,1,11,2,46,164,35.2,5,46,096,38.2,12,57,077,34.7,15,08,037,25.6*75
$GPGSV,3,2,11,18,48,291,36.4,20,19,131,28.3,23,12,345,20.7,24,17,005,23.5*72
$GPGSV,3,3,11,25,70,177,36.4,29,37,201,40.3,31,13,233,33.5*5B
$GPRMC,190620.44,A,1559.299969,S,04802.618674,W,006.7,315.5,190922,,,A*57
$GPGGA,190621.44,1559.298626,S,04802.619986,W,1,00,    ,1210.07,M,0.0,M,0.0,0000*55
$GPGSV,3,1,11,2,46,164,36.4,5,46,096,33.8,12,57,077,37.6,15,08,037,24.0*74
$GPGSV,3,2,11,18,48,291,33.9,20,19,131,29.7,23,12,345,23.6,24,17,005,25.8*76
$GPGSV,3,3,11,25,70,177,32.5,29,37,201,40.7,31,13,233,35.0*59
$GPRMC,190621.44,A,1559.298626,S,04802.619986,W,006.6,302.6,190922,,,A*54
$GPGGA,190622.44,1559.297691,S,04802.621598,W,1,00,    ,1210.11,M,0.0,M,0.0,0000*5A
$GPGSV,3,1,11,2,46,164,36.7,5,46,096,33.8,12,57,077,38.9,15,08,037,30.9*7B
$GPGSV,3,2,11,18,48,291,31.8,20,19,131,25.4,23,12,345,27.7,24,17,005,27.3*76
$GPGSV,3,3,11,25,70,177,31.8,29,37,201,38.2,31,13,233,37.1*5E
$GPRMC,190622.44,A,1559.297691,S,04802.621598,W,007.1,289.2,190922,,,A*5C
$GPGGA,190623.44,1559.297152,S,04802.623540,W,1,00,    ,1210.05,M,0.0,M,0.0,0000*51
$GPGSV,3,1,11,2,46,164,39.8,5,46,096,35.1,12,57,077,36.4,15,08,037,26.6*7F
$GPGSV,3,2,11,18,48,291,33.6,20,19,131,31.4,23,13,345,29.0,24,17,005,28.1*7A
$GPGSV,3,3,11,25,70,177,30.7,29,37,201,39.8,31,13,233,35.9*51
$GPRMC,190623.44,A,1559.297152,S,04802.623540,W,007.5,275.7,190922,,,A*50
$GPGGA,190624.44,1559.297050,S,04802.625868,W,1,00,    ,1209.93,M,0.0,M,0.0,0000*53
$GPGSV,3,1,11,2,46,164,43.3,5,46,096,28.6,12,57,077,33.1,15,08,037,21.3*70
$GPGSV,3,2,11,18,48,291,34.3,20,19,131,33.0,23,13,345,21.0,24,17,005,28.5*72
$GPGSV,3,3,11,25,70,177,32.1,29,37,201,41.5,31,13,233,36.4*59
$GPRMC,190624.44,A,1559.297050,S,04802.625868,W,007.9,268.0,190922,,,A*52
$GPGGA,190625.44,1559.297220,S,04802.627915,W,1,00,    ,1209.71,M,0.0,M,0.0,0000*52
$GPGSV,3,1,10,2,46,164,45.0,5,46,096,35.4,12,57,077,30.1,15,08,037,24.4*7B
$GPGSV,3,2,10,18,48,291,36.1,20,19,131,32.7,23,13,345,19.0,25,70,177,36.2*72
$GPGSV,3,3,10,29,37,201,40.9,31,13,233,39.2*73
$GPRMC,190625.44,A,1559.297220,S,04802.627915,W,008.3,263.3,190922,,,A*52
$GPGGA,190626.44,1559.297443,S,04802.630381,W,1,00,    ,1209.68,M,0.0,M,0.0,0000*5B
$GPGSV,3,1,11,2,46,164,43.5,5,46,096,35.5,12,57,077,32.2,15,08,037,20.3*7A
$GPGSV,3,2,11,18,48,291,29.3,20,19,131,33.6,23,13,345,23.2,24,17,005,19.1*7E
$GPGSV,3,3,11,25,70,177,34.2,29,37,201,39.1,31,13,233,36.8*5B
$GPRMC,190626.44,A,1559.297443,S,04802.630381,W,008.2,260.7,190922,,,A*55
$GPGGA,190627.44,1559.297859,S,04802.632811,W,1,00,    ,1209.61,M,0.0,M,0.0,0000*54
$GPGSV,3,1,11,2,46,164,42.6,5,46,096,34.8,12,57,077,33.8,15,08,037,19.1*77
$GPGSV,3,2,11,18,48,291,29.4,20,19,131,34.4,23,13,345,27.7,24,17,005,22.9*7D
$GPGSV,3,3,11,25,70,177,33.3,29,37,201,38.8,31,13,233,35.7*59
$GPRMC,190627.44,A,1559.297859,S,04802.632811,W,008.2,260.5,190922,,,A*51
$GPGGA,190628.44,1559.298355,S,04802.635229,W,1,00,    ,1209.53,M,0.0,M,0.0,0000*54
$GPGSV,3,1,11,2,46,164,42.9,5,46,096,34.1,12,57,077,34.5,15,08,037,20.7*77
$GPGSV,3,2,11,18,48,291,29.6,20,19,131,34.1,23,13,345,25.4,24,17,005,24.6*72
$GPGSV,3,3,11,25,70,177,33.4,29,37,201,38.4,31,13,233,35.4*51
$GPRMC,190628.44,A,1559.298355,S,04802.635229,W,007.9,261.3,190922,,,A*53
$GPGGA,190629.44,1559.298695,S,04802.637391,W,1,00,    ,1209.40,M,0.0,M,0.0,0000*5E
$GPGSV,3,1,10,2,46,164,42.7,5,46,096,34.1,12,57,077,34.7,18,48,291,30.4*7F
$GPGSV,3,2,10,20,19,131,33.6,23,13,345,22.2,24,17,005,24.1,25,70,177,32.9*7E
$GPGSV,3,3,10,29,37,201,38.2,31,13,233,36.5*7F
$GPRMC,190629.44,A,1559.298695,S,04802.637391,W,007.5,261.2,190922,,,A*56
$GPGGA,190630.44,1559.299077,S,04802.639578,W,1,00,    ,1209.33,M,0.0,M,0.0,0000*56
$GPGSV,3,1,11,2,46,164,44.2,5,46,096,34.3,12,57,077,32.4,15,08,037,18.9*7A
$GPGSV,3,2,11,18,48,291,35.0,20,19,131,32.7,23,13,345,21.8,24,17,005,18.7*7F
$GPGSV,3,3,11,25,70,177,34.7,29,37,201,40.3,31,13,233,38.3*57
$GPRMC,190630.44,A,1559.299077,S,04802.639578,W,007.1,269.3,190922,,,A*57
$GPGGA,190631.44,1559.299293,S,04802.641717,W,1,00,    ,1209.17,M,0.0,M,0.0,0000*5D
$GPGSV,3,1,11,2,46,164,43.6,5,46,096,31.2,12,57,077,31.6,15,08,037,26.1*79
$GPGSV,3,2,11,18,48,291,35.0,20,19,131,28.6,23,13,345,19.4,24,17,005,20.3*7D
$GPGSV,3,3,11,25,70,177,35.2,29,37,201,41.1,31,13,233,37.8*54
$GPRMC,190631.44,A,1559.299293,S,04802.641717,W,006.8,267.3,190922,,,A*5C
$GPGGA,190632.44,1559.299490,S,04802.643599,W,1,00,    ,1209.03,M,0.0,M,0.0,0000*58
$GPGSV,3,1,11,2,46,164,43.5,5,46,096,35.0,12,57,077,32.3,15,08,037,22.5*7A
$GPGSV,3,2,11,18,48,291,33.8,20,19,131,27.7,23,13,345,23.2,24,17,005,18.4*7E
$GPGSV,3,3,11,25,70,177,33.9,29,37,201,39.9,31,13,233,36.6*51
$GPRMC,190632.44,A,1559.299490,S,04802.643599,W,006.6,261.3,190922,,,A*54
$GPGGA,190633.44,1559.299921,S,04802.645497,W,1,00,    ,1209.09,M,0.0,M,0.0,0000*5D
$GPGSV,3,1,10,2,46,164,42.7,5,46,096,33.1,12,57,077,33.8,18,48,291,24.6*77
$GPGSV,3,2,10,20,19,131,29.8,23,13,345,19.8,24,17,005,21.4,25,70,177,36.1*75
$GPGSV,3,3,10,29,37,201,38.0,31,13,233,34.2*78
$GPRMC,190633.44,A,1559.299921,S,04802.645497,W,006.7,256.6,190922,,,A*5B
$GPGGA,190634.44,1559.300380,S,04802.647325,W,1,00,    ,1208.86,M,0.0,M,0.0,0000*50
$GPGSV,3,1,11,2,46,164,42.0,5,46,096,32.7,12,57,077,33.8,15,08,037,16.8*7E
$GPGSV,3,2,11,18,48,291,20.3,20,19,131,32.3,23,13,345,20.5,24,17,005,20.3*7F
$GPGSV,3,3,11,25,70,177,38.0,29,37,201,35.1,31,13,233,30.2*55
$GPRMC,190634.44,A,1559.300380,S,04802.647325,W,006.9,255.0,190922,,,A*5B
$GPGGA,190635.44,1559.300945,S,04802.649286,W,1,00,    ,1208.81,M,0.0,M,0.0,0000*53
$GPGSV,3,1,10,2,46,164,41.7,5,46,096,31.4,12,57,077,33.5,18,48,291,25.0*79
$GPGSV,3,2,10,20,19,131,35.1,23,13,345,20.3,24,17,005,18.5,25,70,177,37.6*7D
$GPGSV,3,3,10,29,37,201,32.6,31,13,233,29.7*7D
$GPRMC,190635.44,A,1559.300945,S,04802.649286,W,007.0,253.9,190922,,,A*58
$GPGGA,190636.44,1559.301509,S,04802.651194,W,1,00,    ,1208.78,M,0.0,M,0.0,0000*5A
$GPGSV,3,1,10,2,46,164,41.7,5,46,096,31.0,12,57,077,33.1,15,08,037,16.8*76
$GPGSV,3,2,10,18,48,291,24.8,20,19,131,33.5,23,13,345,19.7,25,70,177,38.1*71
$GPGSV,3,3,10,29,37,200,33.9,31,13,233,29.7*72
$GPRMC,190636.44,A,1559.301509,S,04802.651194,W,007.0,255.0,190922,,,A*58
$GPGGA,190637.44,1559.302159,S,04802.653144,W,1,00,    ,1209.00,M,0.0,M,0.0,0000*58
$GPGSV,3,1,11,2,46,164,41.6,5,46,096,31.7,12,57,077,33.0,15,08,037,21.9*75
$GPGSV,3,2,11,18,48,291,23.4,20,19,131,33.9,23,13,345,21.4,24,17,005,15.7*72
$GPGSV,3,3,11,25,70,177,38.1,29,37,200,34.1,31,13,233,32.3*57
$GPRMC,190637.44,A,1559.302159,S,04802.653144,W,007.1,256.1,190922,,,A*57
$GPGGA,190638.44,1559.302666,S,04802.655143,W,1,00,    ,1209.01,M,0.0,M,0.0,0000*5C
$GPGSV,3,1,11,2,46,164,41.3,5,46,096,31.8,12,57,077,33.9,15,08,037,21.5*7A
$GPGSV,3,2,11,18,48,291,24.3,20,19,131,32.9,23,13,345,24.4,24,17,005,20.2*75
$GPGSV,3,3,11,25,70,177,37.8,29,37,200,34.5,31,13,233,32.1*57
$GPRMC,190638.44,A,1559.302666,S,04802.655143,W,007.2,255.6,190922,,,A*55
$GPGGA,190639.44,1559.303282,S,04802.657107,W,1,00,    ,1208.83,M,0.0,M,0.0,0000*5B
$GPGSV,3,1,11,2,46,164,41.7,5,46,096,32.5,12,57,077,33.1,15,08,037,22.0*7E
$GPGSV,3,2,11,18,48,291,23.5,20,19,131,32.6,23,13,345,24.7,24,17,005,22.9*71
$GPGSV,3,3,11,25,70,177,37.8,29,37,200,34.3,31,13,233,30.8*5A
$GPRMC,190639.44,A,1559.303282,S,04802.657107,W,007.5,257.9,190922,,,A*53
$GPGGA,190640.44,1559.303912,S,04802.659188,W,1,00,    ,1209.05,M,0.0,M,0.0,0000*51
$GPGSV,3,1,11,2,46,164,41.9,5,46,096,33.0,12,57,077,34.2,15,08,037,21.1*72
$GPGSV,3,2,11,18,48,291,25.7,20,19,131,35.2,23,13,345,23.6,24,17,005,20.5*7E
$GPGSV,3,3,11,25,70,177,37.6,29,37,200,35.0,31,13,233,30.2*5C
$GPRMC,190640.44,A,1559.303912,S,04802.659188,W,007.6,255.2,190922,,,A*5C
$GPGGA,190641.44,1559.304513,S,04802.661253,W,1,00,    ,1209.11,M,0.0,M,0.0,0000*51
$GPGSV,3,1,10,2,46,164,42.3,5,46,096,33.3,12,57,076,33.2,18,48,291,25.1*7C
$GPGSV,3,2,10,20,19,131,34.5,23,13,345,19.1,24,17,005,19.8,25,70,177,36.8*73
$GPGSV,3,3,10,29,37,200,36.3,31,13,233,32.7*77
$GPRMC,190641.44,A,1559.304513,S,04802.661253,W,007.8,258.1,190922,,,A*59
$GPGGA,190642.44,1559.305069,S,04802.663476,W,1,00,    ,1209.16,M,0.0,M,0.0,0000*5F
$GPGSV,3,1,11,2,46,164,42.3,5,46,096,33.9,12,57,076,32.4,15,08,037,18.2*7A
$GPGSV,3,2,11,18,48,291,26.6,20,19,131,35.6,23,13,345,25.4,24,17,005,18.5*77
$GPGSV,3,3,11,25,70,177,37.4,29,37,200,37.4,31,13,233,24.6*59
$GPRMC,190642.44,A,1559.305069,S,04802.663476,W,007.5,259.1,190922,,,A*5C
$GPGGA,190643.44,1559.305524,S,04802.665636,W,1,00,    ,1209.10,M,0.0,M,0.0,0000*54
$GPGSV,3,1,10,2,46,164,42.2,5,46,096,35.3,12,57,076,32.3,18,48,291,28.2*75
$GPGSV,3,2,10,20,19,131,36.6,23,13,345,26.8,24,17,005,19.9,25,70,177,37.0*7F
$GPGSV,3,3,10,29,37,200,37.9,31,13,233,24.3*7F
$GPRMC,190643.44,A,1559.305524,S,04802.665636,W,007.0,260.1,190922,,,A*5E
$GPGGA,190644.44,1559.305838,S,04802.667743,W,1,00,    ,1209.04,M,0.0,M,0.0,0000*57
$GPGSV,3,1,11,2,46,164,43.1,5,46,096,35.0,12,57,076,32.5,15,08,037,16.3*78
$GPGSV,3,2,11,18,48,291,26.3,20,19,131,35.9,23,13,345,22.3,24,17,005,21.5*77
$GPGSV,3,3,11,25,70,177,37.0,29,37,200,37.6,31,13,233,26.3*58
$GPRMC,190644.44,A,1559.305838,S,04802.667743,W,006.8,260.0,190922,,,A*50
$GPGGA,190645.44,1559.306349,S,04802.669550,W,1,00,    ,1209.07,M,0.0,M,0.0,0000*55
$GPGSV,3,1,11,2,46,164,43.1,5,46,096,35.0,12,57,076,32.9,15,08,037,17.8*7E
$GPGSV,3,2,11,18,48,291,22.6,20,19,131,36.5,23,13,345,24.4,24,17,005,19.6*70
$GPGSV,3,3,11,25,70,177,36.5,29,37,200,37.1,31,13,233,27.7*5E
$GPRMC,190645.44,A,1559.306349,S,04802.669550,W,006.8,257.3,190922,,,A*56
$GPGGA,190646.44,1559.306777,S,04802.671304,W,1,00,    ,1208.98,M,0.0,M,0.0,0000*56
$GPGSV,3,1,11,2,46,164,42.6,5,46,096,35.4,12,57,076,32.0,15,08,037,17.7*7A
$GPGSV,3,2,11,18,48,291,26.4,20,19,131,35.7,23,13,345,22.4,24,17,005,19.4*73
$GPGSV,3,3,11,25,70,177,37.3,29,37,200,35.6,31,13,233,32.5*5A
$GPRMC,190646.44,A,1559.306777,S,04802.671304,W,006.8,259.4,190922,,,A*5B
$GPGGA,190647.44,1559.307169,S,04802.673085,W,1,00,    ,1208.89,M,0.0,M,0.0,0000*57
$GPGSV,3,1,11,2,46,164,42.2,5,46,096,35.6,12,57,076,32.7,15,08,037,19.4*76
$GPGSV,3,2,11,18,48,291,25.8,20,19,131,36.4,23,13,345,21.4,24,17,005,18.3*79
$GPGSV,3,3,11,25,70,177,37.2,29,37,200,31.9,31,13,233,35.1*53
$GPRMC,190647.44,A,1559.307169,S,04802.673085,W,006.7,261.6,190922,,,A*5C
$GPGGA,190648.44,1559.307334,S,04802.674924,W,1,00,    ,1208.91,M,0.0,M,0.0,0000*5E
$GPGSV,3,1,10,2,46,164,41.0,5,46,096,36.3,12,57,076,31.2,18,48,291,25.6*7C
$GPGSV,3,2,10,20,19,131,35.3,23,13,345,24.4,24,17,005,22.4,25,70,177,36.5*76
$GPGSV,3,3,10,29,37,200,32.0,31,13,233,35.5*75
$GPRMC,190648.44,A,1559.307334,S,04802.674924,W,006.9,259.5,190922,,,A*5A
$GPGGA,190649.44,1559.307686,S,04802.676824,W,1,00,    ,1208.82,M,0.0,M,0.0,0000*52
$GPGSV,3,1,11,2,46,164,36.3,5,46,096,36.5,12,57,076,31.2,15,08,037,19.2*74
$GPGSV,3,2,11,18,48,291,24.8,20,19,131,33.5,23,13,345,25.1,24,17,005,21.7*73
$GPGSV,3,3,11,25,70,176,36.0,29,37,200,34.3,31,13,233,34.9*57
$GPRMC,190649.44,A,1559.307686,S,04802.676824,W,006.8,260.4,190922,,,A*5E
$GPGGA,190650.44,1559.307995,S,04802.678714,W,1,00,    ,1208.63,M,0.0,M,0.0,0000*5A
$GPGSV,3,1,11,2,46,164,35.2,5,46,096,35.9,12,57,076,32.1,15,08,037,20.3*72
$GPGSV,3,2,11,18,48,291,25.0,20,19,131,30.3,23,13,345,25.6,24,17,005,22.1*7D
$GPGSV,3,3,11,25,70,176,35.1,29,37,200,31.3,31,13,233,29.3*56
$GPRMC,190650.44,A,1559.307995,S,04802.678714,W,006.6,253.2,190922,,,A*51
$GPGGA,190651.44,1559.308606,S,04802.680469,W,1,00,    ,1208.59,M,0.0,M,0.0,0000*56
$GPGSV,3,1,11,2,46,164,37.1,5,46,096,30.3,12,57,076,31.6,15,08,037,22.9*70
$GPGSV,3,2,11,18,48,291,32.9,20,19,131,30.2,23,13,345,26.5,24,17,005,26.0*76
$GPGSV,3,3,11,25,70,176,33.4,29,37,200,31.2,31,13,233,33.9*55
$GPRMC,190651.44,A,1559.308606,S,04802.680469,W,006.5,240.8,190922,,,A*5F
$GPGGA,190652.44,1559.309585,S,04802.682211,W,1,00,    ,1208.66,M,0.0,M,0.0,0000*5B
$GPGSV,3,1,11,2,46,164,35.7,5,46,096,32.6,12,57,076,33.5,15,08,037,20.4*7D
$GPGSV,3,2,11,18,49,291,30.4,20,19,131,28.5,23,13,345,24.8,24,17,005,21.7*79
$GPGSV,3,3,11,25,70,176,35.0,29,37,200,37.5,31,13,233,32.5*5B
$GPRMC,190652.44,A,1559.309585,S,04802.682211,W,006.9,232.2,190922,,,A*5D
$GPGGA,190653.44,1559.310831,S,04802.683768,W,1,00,    ,1207.91,M,0.0,M,0.0,0000*5D
$GPGSV,3,1,11,2,46,164,29.5,5,46,096,33.8,12,57,076,36.0,15,08,037,20.7*7E
$GPGSV,3,2,11,18,49,291,26.4,20,19,131,38.4,23,13,345,27.6,24,17,005,22.3*74
$GPGSV,3,3,11,25,70,176,37.8,29,37,200,37.4,31,13,233,27.6*57
$GPRMC,190653.44,A,1559.310831,S,04802.683768,W,006.7,234.6,190922,,,A*50
$GPGGA,190654.44,1559.312042,S,04802.685250,W,1,00,    ,1207.86,M,0.0,M,0.0,0000*5A
$GPGSV,3,1,11,2,46,164,27.9,5,46,096,34.9,12,57,076,37.2,15,08,037,23.3*7E
$GPGSV,3,2,11,18,49,291,28.0,20,19,131,33.4,23,13,345,26.5,24,17,005,25.1*72
$GPGSV,3,3,11,25,70,176,38.8,29,37,200,36.1,31,13,233,25.0*58
$GPRMC,190654.44,A,1559.312042,S,04802.685250,W,006.7,230.3,190922,,,A*50
$GPGGA,190655.44,1559.313333,S,04802.686654,W,1,00,    ,1207.64,M,0.0,M,0.0,0000*50
$GPGSV,3,1,11,2,46,164,28.2,5,46,096,35.6,12,57,076,36.9,15,08,037,19.5*71
$GPGSV,3,2,11,18,49,291,28.1,20,19,132,34.5,23,13,345,24.4,24,17,005,22.7*74
$GPGSV,3,3,11,25,70,176,38.5,29,37,200,34.1,31,13,233,24.8*5E
$GPRMC,190655.44,A,1559.313333,S,04802.686654,W,006.7,230.3,190922,,,A*56
$GPGGA,190656.44,1559.314640,S,04802.688052,W,1,00,    ,1207.45,M,0.0,M,0.0,0000*58
$GPGSV,3,1,11,2,46,164,29.0,5,46,096,34.5,12,57,076,36.6,15,08,037,20.3*73
$GPGSV,3,2,11,18,49,291,27.0,20,19,132,36.0,23,13,345,23.6,24,17,005,18.0*76
$GPGSV,3,3,11,25,70,176,37.2,29,37,200,34.1,31,13,233,18.2*53
$GPRMC,190656.44,A,1559.314640,S,04802.688052,W,006.9,228.0,190922,,,A*59
$GPGGA,190657.44,1559.315987,S,04802.689514,W,1,00,    ,1207.35,M,0.0,M,0.0,0000*5D
$GPGSV,3,1,11,2,46,164,27.6,5,46,096,33.1,12,57,076,36.6,15,08,037,21.3*79
$GPGSV,3,2,11,18,49,291,28.6,20,19,132,37.7,23,13,345,19.9,24,17,005,22.6*70
$GPGSV,3,3,11,25,70,176,36.8,29,37,200,35.5,31,13,233,20.2*56
$GPRMC,190657.44,A,1559.315987,S,04802.689514,W,006.8,230.0,190922,,,A*53
$GPGGA,190658.44,1559.317239,S,04802.690999,W,1,00,    ,1207.23,M,0.0,M,0.0,0000*58
$GPGSV,3,1,11,2,46,164,28.6,5,46,096,32.2,12,57,076,36.4,15,08,037,22.8*7E
$GPGSV,3,2,11,18,49,291,28.7,20,19,132,34.3,23,13,345,19.3,24,17,005,21.1*78
$GPGSV,3,3,11,25,70,176,36.7,29,37,200,34.7,31,13,233,21.5*5C
$GPRMC,190658.44,A,1559.317239,S,04802.690999,W,006.9,227.3,190922,,,A*55
$GPGGA,190659.44,1559.318606,S,04802.692439,W,1,00,    ,1207.06,M,0.0,M,0.0,0000*5C
$GPGSV,3,1,10,2,46,164,27.2,5,46,096,31.8,12,57,076,36.9,15,08,037,19.5*75
$GPGSV,3,2,10,18,49,291,27.5,20,19,132,19.1,23,13,345,22.8,25,70,176,36.9*71
$GPGSV,3,3,10,29,37,200,35.1,31,13,233,23.1*70
$GPRMC,190659.44,A,1559.318606,S,04802.692439,W,006.8,226.6,190922,,,A*53
$GPGGA,190700.44,1559.319921,S,04802.693836,W,1,00,    ,1206.86,M,0.0,M,0.0,0000*51
$GPGSV,3,1,9,2,46,164,26.1,5,46,096,32.6,12,57,076,35.6,18,49,291,26.2*43
$GPGSV,3,2,9,23,13,345,24.1,24,17,005,17.2,25,70,176,36.2,29,37,200,34.9*42
$GPGSV,3,3,9,31,13,233,17.7*6D
$GPRMC,190700.44,A,1559.319921,S,04802.693836,W,006.7,226.5,190922,,,A*5B
$GPGGA,190701.44,1559.321268,S,04802.695306,W,1,00,    ,1206.81,M,0.0,M,0.0,0000*54
$GPGSV,3,1,10,2,46,164,29.9,5,46,096,33.7,12,57,076,36.5,15,08,037,17.1*7B
$GPGSV,3,2,10,18,49,291,22.9,23,13,345,26.9,24,17,005,22.6,25,70,176,36.5*71
$GPGSV,3,3,10,29,37,200,36.5,31,13,233,21.6*72
$GPRMC,190701.44,A,1559.321268,S,04802.695306,W,006.9,230.0,190922,,,A*55
$GPGGA,190702.44,1559.322610,S,04802.696752,W,1,00,    ,1206.80,M,0.0,M,0.0,0000*58
$GPGSV,3,1,10,2,46,164,29.5,5,46,096,35.0,12,57,076,36.5,18,49,291,26.1*72
$GPGSV,3,2,10,20,19,132,14.3,23,13,345,27.6,24,17,005,21.7,25,70,176,37.9*7B
$GPGSV,3,3,10,29,37,200,34.8,31,13,233,25.3*7C
$GPRMC,190702.44,A,1559.322610,S,04802.696752,W,006.9,226.1,190922,,,A*5E
$GPGGA,190703.44,1559.324020,S,04802.698209,W,1,00,    ,1206.78,M,0.0,M,0.0,0000*58
$GPGSV,3,1,9,2,46,164,28.3,5,46,096,35.4,12,57,076,36.5,18,49,291,25.8*43
$GPGSV,3,2,9,23,13,345,25.2,24,17,005,23.1,25,70,176,37.7,29,37,200,34.3*4A
$GPGSV,3,3,9,31,13,233,27.1*68
$GPRMC,190703.44,A,1559.324020,S,04802.698209,W,006.8,226.8,190922,,,A*51
$GPGGA,190704.44,1559.325433,S,04802.699592,W,1,00,    ,1206.80,M,0.0,M,0.0,0000*5B
$GPGSV,3,1,10,2,46,164,26.7,5,46,096,36.0,12,57,076,36.5,15,08,037,16.5*7D
$GPGSV,3,2,10,18,49,291,27.1,23,13,345,24.3,24,17,005,25.2,25,70,176,37.3*70
$GPGSV,3,3,10,29,37,200,34.0,31,13,233,25.9*7E
$GPRMC,190704.44,A,1559.325433,S,04802.699592,W,006.8,226.0,190922,,,A*5D
$GPGGA,190705.44,1559.326991,S,04802.700891,W,1,00,    ,1206.71,M,0.0,M,0.0,0000*5D
$GPGSV,3,1,10,2,46,164,26.5,5,46,096,34.1,12,57,076,35.7,15,08,037,19.2*75
$GPGSV,3,2,10,18,49,291,25.6,23,13,345,21.5,24,17,005,25.1,25,70,176,36.9*7E
$GPGSV,3,3,10,29,37,200,35.0,31,13,233,23.3*73
$GPRMC,190705.44,A,1559.326991,S,04802.700891,W,006.7,230.9,190922,,,A*54
$GPGGA,190706.44,1559.328316,S,04802.702326,W,1,00,    ,1206.59,M,0.0,M,0.0,0000*5A
$GPGSV,3,1,11,2,46,164,28.3,5,46,096,33.6,12,57,076,35.5,15,08,037,17.8*7A
$GPGSV,3,2,11,18,49,290,24.2,20,19,132,14.8,23,13,345,22.2,24,17,005,21.9*78
$GPGSV,3,3,11,25,70,176,36.4,29,37,200,35.0,31,13,233,22.1*5E
$GPRMC,190706.44,A,1559.328316,S,04802.702326,W,006.6,226.8,190922,,,A*5E
$GPGGA,190707.44,1559.329737,S,04802.703610,W,1,00,    ,1206.52,M,0.0,M,0.0,0000*57
$GPGSV,3,1,10,2,46,164,28.9,5,46,096,33.5,12,57,076,35.8,15,08,037,22.2*73
$GPGSV,3,2,10,18,49,290,25.6,23,13,345,21.7,24,17,005,23.2,25,70,176,36.0*71
$GPGSV,3,3,10,29,37,200,35.1,31,13,233,21.7*74
$GPRMC,190707.44,A,1559.329737,S,04802.703610,W,006.8,227.6,190922,,,A*59
$GPGGA,190708.44,1559.331148,S,04802.704990,W,1,00,    ,1206.39,M,0.0,M,0.0,0000*52
$GPGSV,3,1,9,2,46,164,28.6,5,46,096,33.2,12,57,076,36.5,15,08,037,25.2*4A
$GPGSV,3,2,9,18,49,290,25.0,23,13,345,22.7,24,17,005,20.8,25,70,176,35.4*42
$GPGSV,3,3,9,29,37,200,34.9*6D
$GPRMC,190708.44,A,1559.331148,S,04802.704990,W,006.8,229.4,190922,,,A*5D
$GPGGA,190709.44,1559.332533,S,04802.706408,W,1,00,    ,1206.22,M,0.0,M,0.0,0000*5C
$GPGSV,3,1,10,2,46,164,27.9,5,46,096,32.7,12,57,076,36.1,15,08,037,22.3*74
$GPGSV,3,2,10,18,49,290,25.4,23,13,345,24.5,24,17,005,24.7,25,70,176,35.7*72
$GPGSV,3,3,10,29,37,200,35.3,31,13,233,19.3*79
$GPRMC,190709.44,A,1559.332533,S,04802.706408,W,006.9,229.5,190922,,,A*59
$GPGGA,190710.44,1559.333990,S,04802.707789,W,1,00,    ,1206.30,M,0.0,M,0.0,0000*58
$GPGSV,3,1,10,2,46,164,29.2,5,46,096,32.8,12,57,076,35.7,15,08,037,21.1*7A
$GPGSV,3,2,10,18,49,290,26.1,23,13,345,29.5,24,17,005,23.4,25,70,176,35.4*7E
$GPGSV,3,3,10,29,37,200,35.4,31,13,233,20.2*75
$GPRMC,190710.44,A,1559.333990,S,04802.707789,W,006.9,226.7,190922,,,A*53
$GPGGA,190711.44,1559.335362,S,04802.709279,W,1,00,    ,1206.35,M,0.0,M,0.0,0000*59
$GPGSV,3,1,10,2,46,164,28.8,5,46,096,33.2,12,57,076,35.6,15,08,037,21.4*7E
$GPGSV,3,2,10,18,49,290,24.7,23,13,345,24.4,24,17,005,28.1,25,70,176,36.0*7F
$GPGSV,3,3,10,29,37,200,34.6,31,13,233,19.0*7E
$GPRMC,190711.44,A,1559.335362,S,04802.709279,W,006.8,228.1,190922,,,A*5E
$GPGGA,190712.44,1559.336774,S,04802.710727,W,1,00,    ,1206.26,M,0.0,M,0.0,0000*5E
$GPGSV,3,1,11,2,46,164,28.9,5,46,096,33.6,12,57,076,35.6,15,08,037,24.4*7F
$GPGSV,3,2,11,18,49,290,23.0,20,19,132,13.3,23,13,345,21.7,24,17,005,29.4*72
$GPGSV,3,3,11,25,70,176,36.0,29,37,200,34.7,31,13,233,19.4*51
$GPRMC,190712.44,A,1559.336774,S,04802.710727,W,006.9,227.1,190922,,,A*55
$GPGGA,190713.44,1559.338317,S,04802.712083,W,1,00,    ,1206.04,M,0.0,M,0.0,0000*5B
$GPGSV,3,1,10,2,46,164,28.4,5,46,096,33.4,12,57,076,35.7,15,08,037,22.2*70
$GPGSV,3,2,10,18,49,290,20.7,23,13,345,25.7,24,17,005,30.2,25,70,176,35.9*79
$GPGSV,3,3,10,29,37,200,34.4,31,13,233,20.3*75
$GPRMC,190713.44,A,1559.338317,S,04802.712083,W,006.9,228.5,190922,,,A*5B
$GPGGA,190714.44,1559.339801,S,04802.713450,W,1,00,    ,1206.20,M,0.0,M,0.0,0000*5C
$GPGSV,3,1,11,2,46,164,29.1,5,46,096,33.8,12,57,076,35.6,15,08,037,19.7*75
$GPGSV,3,2,11,18,49,290,20.9,20,19,132,24.2,23,13,345,25.5,24,17,005,26.5*75
$GPGSV,3,3,11,25,70,176,35.5,29,37,200,35.2,31,13,233,19.5*52
$GPRMC,190714.44,A,1559.339801,S,04802.713450,W,006.8,225.7,190922,,,A*54
$GPGGA,190715.44,1559.341269,S,04802.714642,W,1,00,    ,1206.36,M,0.0,M,0.0,0000*57
$GPGSV,3,1,11,2,46,164,30.9,5,46,096,33.0,12,57,076,36.2,15,08,037,20.3*74
$GPGSV,3,2,11,18,49,290,24.3,20,19,132,37.1,23,13,345,26.5,24,17,005,28.7*75
$GPGSV,3,3,11,25,70,176,36.2,29,37,200,35.8,31,13,233,17.7*50
$GPRMC,190715.44,A,1559.341269,S,04802.714642,W,007.0,227.8,190922,,,A*5C
$GPGGA,190716.44,1559.342723,S,04802.716001,W,1,00,    ,1206.56,M,0.0,M,0.0,0000*59
$GPGSV,3,1,11,2,46,164,32.4,5,46,096,33.7,12,57,076,36.7,15,08,037,21.7*7C
$GPGSV,3,2,11,18,49,290,22.0,20,19,132,37.6,23,13,345,24.2,24,17,005,26.8*73
$GPGSV,3,3,11,25,70,176,36.4,29,37,200,36.0,31,13,233,18.7*52
$GPRMC,190716.44,A,1559.342723,S,04802.716001,W,006.8,225.8,190922,,,A*5F
$GPGGA,190717.44,1559.344026,S,04802.717340,W,1,00,    ,1206.60,M,0.0,M,0.0,0000*5E
$GPGSV,3,1,10,2,46,164,30.3,5,46,096,32.6,12,57,076,36.4,18,49,290,24.3*7D
$GPGSV,3,2,10,20,19,132,33.1,23,13,345,21.7,24,17,005,26.8,25,70,176,35.7*7F
$GPGSV,3,3,10,29,37,200,36.4,31,13,233,19.7*79
$GPRMC,190717.44,A,1559.344026,S,04802.717340,W,006.9,225.9,190922,,,A*5D
$GPGGA,190718.44,1559.345527,S,04802.718657,W,1,00,    ,1206.66,M,0.0,M,0.0,0000*5E
$GPGSV,3,1,10,2,46,164,31.6,5,46,096,33.3,12,57,076,35.3,15,08,037,18.0*72
$GPGSV,3,2,10,18,49,290,23.2,20,19,132,26.5,24,17,005,27.6,25,70,176,35.1*7F
$GPGSV,3,3,10,29,37,200,36.6,31,13,233,21.4*73
$GPRMC,190718.44,A,1559.345527,S,04802.718657,W,007.0,228.3,190922,,,A*54
$GPGGA,190719.44,1559.346939,S,04802.720077,W,1,00,    ,1206.76,M,0.0,M,0.0,0000*51
$GPGSV,3,1,10,2,46,164,31.1,5,46,096,34.7,12,57,076,35.7,18,49,290,24.8*72
$GPGSV,3,2,10,20,19,132,33.6,23,13,345,18.5,24,17,005,21.6,25,70,176,34.7*78
$GPGSV,3,3,10,29,37,200,37.4,31,13,233,21.6*72
$GPRMC,190719.44,A,1559.346939,S,04802.720077,W,007.0,227.1,190922,,,A*57
$GPGGA,190720.44,1559.348397,S,04802.721421,W,1,00,    ,1206.83,M,0.0,M,0.0,0000*57
$GPGSV,3,1,11,2,46,164,33.2,5,46,096,35.8,12,57,076,35.7,15,08,037,18.3*7F
$GPGSV,3,2,11,18,49,290,26.6,20,19,132,32.0,23,13,345,20.6,24,17,005,21.3*7E
$GPGSV,3,3,11,25,70,176,35.5,29,37,200,37.8,31,13,233,20.7*52
$GPRMC,190720.44,A,1559.348397,S,04802.721421,W,006.9,225.2,190922,,,A*52
$GPGGA,190721.44,1559.349879,S,04802.722753,W,1,00,    ,1206.87,M,0.0,M,0.0,0000*5D
$GPGSV,3,1,9,2,46,164,31.0,5,46,096,33.9,12,57,076,35.9,15,08,037,19.0*4D
$GPGSV,3,2,9,18,49,290,26.0,20,19,132,31.8,23,13,345,23.5,25,70,176,36.5*4F
$GPGSV,3,3,9,29,37,200,36.2*64
$GPRMC,190721.44,A,1559.349879,S,04802.722753,W,006.8,227.2,190922,,,A*5F
$GPGGA,190722.44,1559.351284,S,04802.724292,W,1,00,    ,1206.77,M,0.0,M,0.0,0000*5E
$GPGSV,3,1,11,2,46,164,28.8,5,46,096,34.8,12,57,076,36.9,15,08,037,20.8*73
$GPGSV,3,2,11,18,49,290,25.1,20,19,132,36.6,23,13,345,23.4,24,17,005,17.2*7D
$GPGSV,3,3,11,25,70,176,37.9,29,37,200,34.5,31,13,233,20.0*55
$GPRMC,190722.44,A,1559.351284,S,04802.724292,W,006.7,228.2,190922,,,A*53
$GPGGA,190723.44,1559.352558,S,04802.725694,W,1,00,    ,1206.75,M,0.0,M,0.0,0000*5B
$GPGSV,3,1,9,2,46,164,29.8,5,46,096,34.4,12,57,076,37.2,15,08,037,19.1*4E
$GPGSV,3,2,9,18,49,290,20.7,20,19,132,36.6,25,70,176,35.9,29,37,200,36.7*42
$GPGSV,3,3,9,31,13,233,18.5*60
$GPRMC,190723.44,A,1559.352558,S,04802.725694,W,006.9,225.3,190922,,,A*56
$GPGGA,190724.44,1559.353904,S,04802.727084,W,1,00,    ,1206.74,M,0.0,M,0.0,0000*5C
$GPGSV,3,1,10,2,46,164,28.6,5,46,096,33.1,12,57,076,36.2,15,08,037,20.7*76
$GPGSV,3,2,10,18,49,290,19.5,20,19,132,36.7,24,17,005,15.8,25,70,176,34.7*7A
$GPGSV,3,3,10,29,37,200,36.2,31,13,233,18.3*7A
$GPRMC,190724.44,A,1559.353904,S,04802.727084,W,006.8,226.1,190922,,,A*50
$GPGGA,190725.44,1559.355159,S,04802.728579,W,1,00,    ,1206.71,M,0.0,M,0.0,0000*56
$GPGSV,3,1,9,2,46,164,28.6,5,46,096,33.1,12,57,076,35.4,15,08,037,23.5*4A
$GPGSV,3,2,9,18,49,290,22.3,20,19,132,37.4,23,13,345,15.6,25,70,176,33.5*41
$GPGSV,3,3,9,29,37,200,35.1*64
$GPRMC,190725.44,A,1559.355159,S,04802.728579,W,006.9,226.2,190922,,,A*5D
$GPGGA,190726.44,1559.356480,S,04802.730046,W,1,00,    ,1206.65,M,0.0,M,0.0,0000*52
$GPGSV,3,1,10,2,46,164,30.3,5,46,096,32.7,12,57,076,34.6,15,08,037,23.6*79
$GPGSV,3,2,10,18,49,290,22.4,20,19,132,32.4,23,13,345,17.6,25,70,176,33.9*75
$GPGSV,3,3,10,29,37,200,35.3,31,13,233,17.1*75
$GPRMC,190726.44,A,1559.356480,S,04802.730046,W,006.9,229.6,190922,,,A*57
$GPGGA,190727.44,1559.357720,S,04802.731601,W,1,00,    ,1206.53,M,0.0,M,0.0,0000*5A
$GPGSV,3,1,10,2,46,164,30.4,5,46,096,32.1,12,57,076,35.6,15,08,037,24.4*7C
$GPGSV,3,2,10,18,49,290,25.0,20,19,132,20.1,24,17,005,16.2,25,70,176,34.9*76
$GPGSV,3,3,10,29,37,200,35.8,31,13,233,18.9*79
$GPRMC,190727.44,A,1559.357720,S,04802.731601,W,006.8,227.5,190922,,,A*56
$GPGGA,190728.44,1559.359143,S,04802.732940,W,1,00,    ,1206.45,M,0.0,M,0.0,0000*56
$GPGSV,2,1,8,2,46,164,31.9,5,46,096,34.2,12,57,076,35.4,15,08,037,21.0*4E
$GPGSV,2,2,8,18,49,290,18.8,23,13,345,22.4,25,70,176,34.3,29,37,200,35.8*4D
$GPRMC,190728.44,A,1559.359143,S,04802.732940,W,006.8,229.8,190922,,,A*5E
$GPGGA,190729.44,1559.360430,S,04802.734492,W,1,00,    ,1206.55,M,0.0,M,0.0,0000*59
$GPGSV,3,1,11,2,46,164,31.9,5,46,096,34.2,12,57,076,34.7,15,08,037,18.7*78
$GPGSV,3,2,11,18,49,290,21.2,20,19,132,16.0,23,13,345,27.7,24,17,005,16.2*78
$GPGSV,3,3,11,25,70,176,34.8,29,37,200,36.2,31,13,233,16.5*52
$GPRMC,190729.44,A,1559.360430,S,04802.734492,W,006.8,227.4,190922,,,A*52
$GPGGA,190730.44,1559.361752,S,04802.735870,W,1,00,    ,1206.48,M,0.0,M,0.0,0000*5A
$GPGSV,3,1,10,2,46,164,33.2,5,46,096,34.1,12,57,076,35.0,15,08,037,21.7*7F
$GPGSV,3,2,10,18,49,290,20.0,23,13,345,24.0,24,17,005,22.8,25,70,176,34.7*7E
$GPGSV,3,3,10,29,37,200,35.8,31,13,233,20.2*79
$GPRMC,190730.44,A,1559.361752,S,04802.735870,W,006.8,230.0,190922,,,A*5F
$GPGGA,190731.44,1559.363084,S,04802.737340,W,1,00,    ,1206.44,M,0.0,M,0.0,0000*53
$GPGSV,3,1,10,2,46,164,30.2,5,46,096,33.5,12,57,076,35.4,15,08,037,23.0*7E
$GPGSV,3,2,10,18,49,290,21.1,23,13,345,19.9,24,17,005,25.0,25,70,176,35.2*72
$GPGSV,3,3,10,29,37,200,35.8,31,13,233,19.2*73
$GPRMC,190731.44,A,1559.363084,S,04802.737340,W,006.8,232.0,190922,,,A*58
$GPGGA,190732.44,1559.364541,S,04802.738709,W,1,00,    ,1206.29,M,0.0,M,0.0,0000*56
$GPGSV,3,1,10,2,46,164,27.7,5,46,096,33.0,12,57,076,34.4,15,08,037,22.0*78
$GPGSV,3,2,10,18,49,290,17.9,20,19,132,15.7,23,13,345,27.6,24,17,005,27.1*73
$GPGSV,3,3,10,25,70,176,35.2,29,37,200,35.4*73
$GPRMC,190732.44,A,1559.364541,S,04802.738709,W,006.7,226.9,190922,,,A*55
$GPGGA,190733.44,1559.366014,S,04802.740029,W,1,00,    ,1206.34,M,0.0,M,0.0,0000*56
$GPGSV,3,1,10,2,46,164,29.0,5,46,096,33.5,12,57,076,34.8,15,08,037,18.6*77
$GPGSV,3,2,10,18,49,290,24.8,23,13,345,28.9,24,17,005,28.4,25,70,176,35.8*7F
$GPGSV,3,3,10,29,37,200,35.4,31,13,233,15.6*77
$GPRMC,190733.44,A,1559.366014,S,04802.740029,W,006.8,228.1,190922,,,A*50
$GPGGA,190734.44,1559.367345,S,04802.741485,W,1,00,    ,1206.37,M,0.0,M,0.0,0000*57
$GPGSV,3,1,9,2,46,164,28.5,5,46,097,34.6,12,57,076,35.6,15,08,037,19.0*46
$GPGSV,3,2,9,18,49,290,25.6,23,13,345,27.8,24,17,005,25.4,25,70,176,36.6*46
$GPGSV,3,3,9,29,37,200,35.0*65
$GPRMC,190734.44,A,1559.367345,S,04802.741485,W,006.7,229.6,190922,,,A*5B
$GPGGA,190735.44,1559.368619,S,04802.742954,W,1,00,    ,1206.11,M,0.0,M,0.0,0000*53
$GPGSV,3,1,11,2,46,164,31.7,5,46,097,35.2,12,57,076,36.5,15,08,037,18.4*75
$GPGSV,3,2,11,18,49,290,27.3,20,19,132,15.8,23,13,345,23.3,24,17,005,28.4*7F
$GPGSV,3,3,11,25,70,176,36.1,29,37,200,35.5,31,13,233,18.7*51
$GPRMC,190735.44,A,1559.368619,S,04802.742954,W,006.7,227.0,190922,,,A*53
$GPGGA,190736.44,1559.369927,S,04802.744335,W,1,00,    ,1206.19,M,0.0,M,0.0,0000*50
$GPGSV,3,1,10,2,46,164,29.4,5,46,097,33.5,12,57,076,36.9,15,08,037,21.0*7D
$GPGSV,3,2,10,18,49,290,26.3,23,13,345,22.0,24,17,005,32.8,25,70,176,36.4*7D
$GPGSV,3,3,10,29,37,200,34.0,31,13,233,20.7*75
$GPRMC,190736.44,A,1559.369927,S,04802.744335,W,006.9,229.3,190922,,,A*5B
$GPGGA,190737.44,1559.371222,S,04802.745770,W,1,00,    ,1206.32,M,0.0,M,0.0,0000*5B
$GPGSV,3,1,11,2,46,164,27.9,5,46,097,35.4,12,57,076,37.4,15,08,037,22.2*75
$GPGSV,3,2,11,18,49,290,26.4,20,19,132,17.7,23,13,345,28.2,24,17,005,31.0*72
$GPGSV,3,3,11,25,70,176,36.6,29,37,200,33.5,31,13,233,21.6*5B
$GPRMC,190737.44,A,1559.371222,S,04802.745770,W,006.7,229.8,190922,,,A*5C
$GPGGA,190738.44,1559.372664,S,04802.747185,W,1,00,    ,1206.02,M,0.0,M,0.0,0000*5C
$GPGSV,3,1,11,2,46,164,29.1,5,46,097,35.5,12,57,076,36.7,15,08,037,20.9*79
$GPGSV,3,2,11,18,49,290,23.6,20,19,132,18.5,23,13,345,28.2,24,17,005,24.2*7E
$GPGSV,3,3,11,25,70,176,36.9,29,37,200,34.7,31,13,233,22.8*5C
$GPRMC,190738.44,A,1559.372664,S,04802.747185,W,006.5,233.6,190922,,,A*5F
$GPGGA,190739.44,1559.373810,S,04802.748690,W,1,00,    ,1206.05,M,0.0,M,0.0,0000*5A
$GPGSV,3,1,11,2,46,164,29.9,5,46,097,35.3,12,57,076,36.2,15,08,037,23.3*7B
$GPGSV,3,2,11,18,49,290,26.4,20,19,132,17.4,23,13,345,25.4,24,17,005,26.4*78
$GPGSV,3,3,11,25,70,176,36.7,29,37,200,35.6,31,13,233,22.5*5F
$GPRMC,190739.44,A,1559.373810,S,04802.748690,W,006.6,226.3,190922,,,A*5C
$GPGGA,190740.44,1559.375195,S,04802.750048,W,1,00,    ,1206.05,M,0.0,M,0.0,0000*5C
$GPGSV,3,1,9,2,46,164,28.8,5,46,097,34.5,12,57,076,36.0,15,08,037,25.4*46
$GPGSV,3,2,9,18,49,290,23.6,23,13,345,29.2,24,17,005,28.9,25,70,176,35.9*48
$GPGSV,3,3,9,29,37,200,36.4*62
$GPRMC,190740.44,A,1559.375195,S,04802.750048,W,006.7,226.7,190922,,,A*5F
$GPGGA,190741.44,1559.376497,S,04802.751394,W,1,00,    ,1205.97,M,0.0,M,0.0,0000*52
$GPGSV,3,1,10,2,46,164,28.0,5,46,097,32.9,12,57,076,36.6,15,08,037,24.3*7C
$GPGSV,3,2,10,18,49,290,22.3,23,13,345,26.5,24,17,005,28.1,25,71,176,35.7*7B
$GPGSV,3,3,10,29,37,200,36.4,31,13,233,19.6*78
$GPRMC,190741.44,A,1559.376497,S,04802.751394,W,006.9,225.9,190922,,,A*5A
$GPGGA,190742.44,1559.377794,S,04802.752765,W,1,00,    ,1205.99,M,0.0,M,0.0,0000*57
$GPGSV,3,1,10,2,46,164,28.8,5,46,097,34.1,12,57,076,37.0,15,08,037,25.2*7D
$GPGSV,3,2,10,18,49,290,23.9,23,13,345,28.0,24,17,005,28.0,25,71,176,35.1*7C
$GPGSV,3,3,10,29,37,200,36.5,31,13,233,19.7*78
$GPRMC,190742.44,A,1559.377794,S,04802.752765,W,006.9,226.6,190922,,,A*5D
$GPGGA,190743.44,1559.379257,S,04802.754057,W,1,00,    ,1206.00,M,0.0,M,0.0,0000*51
$GPGSV,3,1,10,2,46,164,27.3,5,46,097,34.2,12,57,076,36.4,15,08,037,22.3*79
$GPGSV,3,2,10,18,49,290,22.3,23,13,345,25.9,24,17,005,30.1,25,71,176,35.1*7B
$GPGSV,3,3,10,29,37,200,35.4,31,13,233,19.0*7D
$GPRMC,190743.44,A,1559.379257,S,04802.754057,W,006.8,226.8,190922,,,A*57
$GPGGA,190744.44,1559.380509,S,04802.755523,W,1,00,    ,1206.11,M,0.0,M,0.0,0000*5B
$GPGSV,3,1,11,2,46,164,30.8,5,46,097,34.2,12,57,076,37.0,15,08,037,19.9*72
$GPGSV,3,2,11,18,49,290,22.2,20,19,132,13.5,23,13,345,27.3,24,17,005,25.5*78
$GPGSV,3,3,11,25,71,176,34.7,29,37,200,35.8,31,13,233,18.5*5B
$GPRMC,190744.44,A,1559.380509,S,04802.755523,W,006.8,228.5,190922,,,A*5E
$GPGGA,190745.44,1559.381800,S,04802.756995,W,1,00,    ,1206.17,M,0.0,M,0.0,0000*5B
$GPGSV,3,1,10,2,46,164,33.7,5,46,097,33.8,12,57,076,35.9,15,08,037,20.5*7F
$GPGSV,3,2,10,18,49,290,23.3,23,13,345,28.6,24,17,005,26.3,25,71,176,36.6*79
$GPGSV,3,3,10,29,37,200,35.7,31,13,233,19.2*7C
$GPRMC,190745.44,A,1559.381800,S,04802.756995,W,006.8,227.7,190922,,,A*55
$GPGGA,190746.44,1559.383141,S,04802.758407,W,1,00,    ,1206.15,M,0.0,M,0.0,0000*5C
$GPGSV,3,1,10,2,46,164,29.8,5,46,097,36.0,12,57,076,37.9,15,08,037,22.0*73
$GPGSV,3,2,10,18,49,290,20.7,23,13,345,27.3,24,17,005,24.1,25,71,176,36.8*7A
$GPGSV,3,3,10,29,37,200,33.1,31,13,233,21.4*71
$GPRMC,190746.44,A,1559.383141,S,04802.758407,W,006.8,225.1,190922,,,A*54
$GPGGA,190747.44,1559.384591,S,04802.759716,W,1,00,    ,1205.93,M,0.0,M,0.0,0000*5C
$GPGSV,3,1,9,2,46,164,28.7,5,46,097,37.0,12,57,076,37.9,15,08,037,24.1*43
$GPGSV,3,2,9,18,49,290,21.5,23,13,345,27.9,24,17,005,27.4,25,71,176,36.2*47
$GPGSV,3,3,9,29,37,200,33.6*65
$GPRMC,190747.44,A,1559.384591,S,04802.759716,W,006.6,229.8,190922,,,A*52
$GPGGA,190748.44,1559.385796,S,04802.761126,W,1,00,    ,1205.87,M,0.0,M,0.0,0000*5C
$GPGSV,3,1,10,2,46,164,28.6,5,46,097,37.5,12,57,076,38.0,15,08,037,23.3*7C
$GPGSV,3,2,10,18,49,290,22.8,23,13,345,30.0,24,17,005,25.9,25,71,176,37.4*76
$GPGSV,3,3,10,29,37,200,33.4,31,13,233,17.9*7C
$GPRMC,190748.44,A,1559.385796,S,04802.761126,W,006.7,226.0,190922,,,A*51
$GPGGA,190749.44,1559.387226,S,04802.762471,W,1,00,    ,1205.92,M,0.0,M,0.0,0000*51
$GPGSV,3,1,10,2,46,164,27.8,5,46,097,37.8,12,57,076,38.2,15,08,037,27.1*74
$GPGSV,3,2,10,18,49,290,23.9,23,13,345,31.2,24,17,005,25.8,25,71,176,38.4*7B
$GPGSV,3,3,10,29,37,200,33.6,31,13,233,22.1*70
$GPRMC,190749.44,A,1559.387226,S,04802.762471,W,006.8,228.6,190922,,,A*5F
$GPGGA,190750.44,1559.388327,S,04802.764008,W,1,00,    ,1205.55,M,0.0,M,0.0,0000*51
$GPGSV,3,1,11,2,46,164,27.5,5,46,097,38.3,12,57,075,38.3,15,08,037,28.9*79
$GPGSV,3,2,11,18,49,290,29.8,20,19,132,18.3,23,13,345,24.2,24,17,005,23.3*76
$GPGSV,3,3,11,25,71,176,37.4,29,37,200,33.3,31,13,233,21.7*5E
$GPRMC,190750.44,A,1559.388327,S,04802.764008,W,006.8,223.7,190922,,,A*5E
$GPGGA,190751.44,1559.389631,S,04802.765527,W,1,00,    ,1205.28,M,0.0,M,0.0,0000*50
$GPGSV,3,1,11,2,46,164,25.4,5,46,097,38.4,12,57,075,38.1,15,08,037,22.8*74
$GPGSV,3,2,11,18,49,290,29.6,20,19,132,32.2,23,13,345,22.3,24,17,005,26.2*72
$GPGSV,3,3,11,25,71,176,36.5,29,37,200,33.0,31,13,233,22.1*58
$GPRMC,190751.44,A,1559.389631,S,04802.765527,W,006.7,225.2,190922,,,A*59
$GPGGA,190752.44,1559.391104,S,04802.766922,W,1,00,    ,1205.26,M,0.0,M,0.0,0000*5F
$GPGSV,3,1,11,2,46,164,29.0,5,46,097,36.9,12,57,075,38.1,15,08,037,24.4*75
$GPGSV,3,2,11,18,49,290,25.0,20,19,132,35.5,23,13,345,25.7,24,17,005,27.3*7B
$GPGSV,3,3,11,25,71,176,37.0,29,37,200,33.5,31,13,233,20.2*58
$GPRMC,190752.44,A,1559.391104,S,04802.766922,W,006.9,228.2,190922,,,A*5B
$GPGGA,190753.44,1559.392337,S,04802.768333,W,1,00,    ,1205.34,M,0.0,M,0.0,0000*58
$GPGSV,3,1,11,2,46,164,33.5,5,46,097,35.9,12,57,075,35.0,15,08,037,23.7*70
$GPGSV,3,2,11,18,49,290,23.1,20,19,132,35.8,23,13,345,23.5,24,17,005,23.9*7B
$GPGSV,3,3,11,25,71,176,36.1,29,37,200,36.8,31,13,233,18.7*5E
$GPRMC,190753.44,A,1559.392337,S,04802.768333,W,007.0,227.9,190922,,,A*53
$GPGGA,190754.44,1559.393520,S,04802.769967,W,1,00,    ,1204.99,M,0.0,M,0.0,0000*52
$GPGSV,3,1,11,2,46,164,35.6,5,46,097,37.0,12,57,075,32.8,15,08,037,17.6*77
$GPGSV,3,2,11,18,49,290,30.0,20,19,132,37.1,23,13,345,23.4,24,17,005,22.6*7C
$GPGSV,3,3,11,25,71,176,33.3,29,37,200,37.8,31,13,233,24.3*53
$GPRMC,190754.44,A,1559.393520,S,04802.769967,W,007.0,232.8,190922,,,A*5A
$GPGGA,190755.44,1559.394741,S,04802.771579,W,1,00,    ,1205.01,M,0.0,M,0.0,0000*5B
$GPGSV,3,1,11,2,46,164,35.9,5,46,097,37.5,12,57,075,32.4,15,08,037,19.1*78
$GPGSV,3,2,11,18,49,290,28.5,20,19,132,37.6,23,13,345,24.1,24,17,005,23.1*73
$GPGSV,3,3,11,25,71,176,35.0,29,37,200,37.4,31,13,233,25.7*5F
$GPRMC,190755.44,A,1559.394741,S,04802.771579,W,007.0,231.4,190922,,,A*5C
$GPGGA,190756.44,1559.395836,S,04802.773070,W,1,00,    ,1204.81,M,0.0,M,0.0,0000*51
$GPGSV,3,1,11,2,46,164,36.0,5,46,097,36.1,12,57,075,32.3,15,08,037,20.5*7E
$GPGSV,3,2,11,18,49,290,26.5,20,19,132,36.5,23,13,345,27.9,24,17,005,23.2*77
$GPGSV,3,3,11,25,71,176,36.1,29,37,200,37.0,31,13,233,21.0*5A
$GPRMC,190756.44,A,1559.395836,S,04802.773070,W,007.1,229.2,190922,,,A*51
$GPGGA,190757.44,1559.396970,S,04802.774731,W,1,00,    ,1204.61,M,0.0,M,0.0,0000*5B
$GPGSV,3,1,10,2,46,164,34.3,5,46,097,33.8,12,57,075,34.6,18,49,290,26.0*75
$GPGSV,3,2,10,20,19,132,36.9,23,13,345,24.2,24,17,005,22.2,25,71,176,36.6*7F
$GPGSV,3,3,10,29,37,200,35.9,31,13,233,21.5*7E
$GPRMC,190757.44,A,1559.396970,S,04802.774731,W,007.0,229.9,190922,,,A*5F
$GPGGA,190758.44,1559.398055,S,04802.776262,W,1,00,    ,1204.35,M,0.0,M,0.0,0000*54
$GPGSV,3,1,11,2,46,164,32.4,5,46,097,34.5,12,57,075,36.2,15,08,037,16.6*7B
$GPGSV,3,2,11,18,49,290,25.3,20,19,132,36.4,23,13,345,25.4,24,17,005,18.2*74
$GPGSV,3,3,11,25,71,176,37.3,29,37,200,33.3,31,13,233,23.2*5E
$GPRMC,190758.44,A,1559.398055,S,04802.776262,W,006.8,227.2,190922,,,A*5D
$GPGGA,190759.44,1559.399355,S,04802.777772,W,1,00,    ,1204.19,M,0.0,M,0.0,0000*5C
$GPGSV,3,1,10,2,46,164,29.2,5,46,097,36.8,12,57,075,38.2,18,49,290,22.2*73
$GPGSV,3,2,10,20,19,132,32.0,23,13,345,25.2,24,17,005,17.7,25,71,176,37.8*7F
$GPGSV,3,3,10,29,37,200,32.6,31,13,233,21.9*7A
$GPRMC,190759.44,A,1559.399355,S,04802.777772,W,006.8,224.1,190922,,,A*5B
$GPGGA,190800.44,1559.400707,S,04802.779218,W,1,00,    ,1204.10,M,0.0,M,0.0,0000*55
$GPGSV,3,1,11,2,46,164,27.6,5,46,097,37.2,12,57,075,38.3,15,08,037,21.7*73
$GPGSV,3,2,11,18,49,290,29.0,20,19,132,33.5,23,13,345,22.4,24,17,005,21.0*70
