$GPGGA,190516.00,1559.36722,S,04802.61523,W,1,06,1.51,1208.9,M,-11.7,M,,*45
$GPGSA,A,3,18,24,05,20,11,12,,,,,,,2.55,1.51,2.06*0A
$GPGSV,2,1,06,05,46,094,41,11,05,141,34,12,58,078,39,18,48,292,36*77
$GPGSV,2,2,06,20,20,130,31,24,18,004,36*71
$GPGLL,1559.36722,S,04802.61523,W,190516.00,A,A*6B
$GPGRS,190516.00,1,-4.8,-5.5,-2.7,-8.1,-5.8,-4.5,,,,,,*48
$GPGST,190516.00,26,,,,6.3,3.2,10*72
$GPZDA,190516.00,19,09,2022,00,00*6F
$GPGBS,190516.00,6.3,3.2,10.2,,,,*7C
$PUBX,00,190516.00,1559.36722,S,04802.61523,W,1197.112,G3,7.0,10,0.052,0.00,-0.005,,1.51,2.0
$PUBX,03,06,5,U,094,46,41,064,11,e,141,05,34,059,12,U,078,58,39,064,18,U,292,48,36,020,20,U,
$PUBX,04,190516.00,190922,155116.00,2228,15D,-231180,-6886.137,21*60
$GPDTM,W84,,0.0,N,0.0,E,0.0,W84*6F
$GPRMC,190517.00,A,1559.36717,S,04802.61522,W,0.021,,190922,,,A*76
$GPVTG,,T,,M,0.021,N,0.039,K,A*2A
$GPGGA,190517.00,1559.36717,S,04802.61522,W,1,06,1.51,1209.0,M,-11.7,M,,*4B
$GPGSA,A,3,18,24,05,20,11,12,,,,,,,2.55,1.51,2.06*0A
$GPGSV,2,1,06,05,46,094,41,11,05,141,34,12,58,078,39,18,48,292,36*77
$GPGSV,2,2,06,20,20,130,32,24,18,004,36*72
$GPGLL,1559.36717,S,04802.61522,W,190517.00,A,A*6D
$GPGRS,190517.00,1,-4.9,-5.5,-2.6,-8.2,-6.0,-5.0,,,,,,*45
$GPGST,190517.00,25,,,,6.2,3.2,10*71
$GPZDA,190517.00,19,09,2022,00,00*6E
$GPGBS,190517.00,6.2,3.2,10.1,,,,*7F
$PUBX,00,190517.00,1559.36717,S,04802.61522,W,1197.304,G3,7.0,10,0.039,0.00,-0.007,,1.51,2.0
$PUBX,03,06,5,U,094,46,41,064,11,e,141,05,34,060,12,U,078,58,39,064,18,U,292,48,36,021,20,U,
$PUBX,04,190517.00,190922,155117.00,2228,15D,-238070,-6893.721,21*62
$GPDTM,W84,,0.0,N,0.0,E,0.0,W84*6F
$GPRMC,190518.00,A,1559.36713,S,04802.61522,W,0.035,,190922,,,A*78
$GPVTG,,T,,M,0.035,N,0.066,K,A*25
$GPGGA,190518.00,1559.36713,S,04802.61522,W,1,06,1.51,1209.2,M,-11.7,M,,*42
$GPGSA,A,3,18,24,05,20,11,12,,,,,,,2.55,1.51,2.06*0A
$GPGSV,2,1,06,05,46,094,41,11,05,141,33,12,58,078,38,18,48,292,36*71
$GPGSV,2,2,06,20,20,130,32,24,18,004,36*72
$GPGLL,1559.36713,S,04802.61522,W,190518.00,A,A*66
$GPGRS,190518.00,1,-5.1,-5.3,-3.1,-8.4,-5.9,-5.3,,,,,,*4C
$GPGST,190518.00,25,,,,6.1,3.2,10*7D
$GPZDA,190518.00,19,09,2022,00,00*61
$GPGBS,190518.00,6.1,3.2,10.0,,,,*72
$PUBX,00,190518.00,1559.36713,S,04802.61522,W,1197.458,G3,6.9,10,0.066,0.00,-0.006,,1.51,2.0
$PUBX,03,06,5,U,094,46,41,064,11,e,141,05,33,061,12,U,078,58,38,064,18,U,292,48,36,022,20,U,
$PUBX,04,190518.00,190922,155118.00,2228,15D,-244967,-6900.971,21*66
$GPDTM,W84,,0.0,N,0.0,E,0.0,W84*6F
$GPRMC,190519.00,A,1559.36708,S,04802.61520,W,0.011,,190922,,,A*77
$GPVTG,,T,,M,0.011,N,0.021,K,A*20
$GPGGA,190519.00,1559.36708,S,04802.61520,W,1,06,1.51,1209.4,M,-11.7,M,,*4D
$GPGSA,A,3,18,24,05,20,11,12,,,,,,,2.55,1.51,2.06*0A
$GPGSV,2,1,06,05,46,094,41,11,05,141,34,12,58,078,38,18,48,292,37*77
$GPGSV,2,2,06,20,20,130,32,24,18,004,36*72
$GPGLL,1559.36708,S,04802.61520,W,190519.00,A,A*6F
$GPGRS,190519.00,1,-5.0,-5.5,-2.8,-8.4,-5.8,-5.0,,,,,,*40
$GPGST,190519.00,25,,,,6.1,3.2,10*7C
$GPZDA,190519.00,19,09,2022,00,00*60
$GPGBS,190519.00,6.1,3.2,9.9,,,,*42
$PUBX,00,190519.00,1559.36708,S,04802.61520,W,1197.613,G3,6.9,10,0.021,0.00,-0.006,,1.51,2.0
$PUBX,03,06,5,U,094,46,41,064,11,e,141,05,34,062,12,U,078,58,38,064,18,U,292,48,37,023,20,U,
$PUBX,04,190519.00,190922,155119.00,2228,15D,-251871,-6908.038,21*68
$GPDTM,W84,,0.0,N,0.0,E,0.0,W84*6F
$GPRMC,190520.00,A,1559.36706,S,04802.61518,W,0.034,,190922,,,A*7F
$GPVTG,,T,,M,0.034,N,0.063,K,A*21
$GPGGA,190520.00,1559.36706,S,04802.61518,W,1,06,1.51,1209.4,M,-11.7,M,,*42
$GPGSA,A,3,18,24,05,20,11,12,,,,,,,2.55,1.51,2.06*0A
$GPGSV,2,1,06,05,46,094,41,11,05,141,34,12,58,078,38,18,48,292,37*77
$GPGSV,2,2,06,20,20,130,32,24,18,004,36*72
$GPGLL,1559.36706,S,04802.61518,W,190520.00,A,A*60
$GPGRS,190520.00,1,-5.1,-5.4,-2.6,-8.0,-5.7,-5.1,,,,,,*4E
$GPGST,190520.00,25,,,,6.0,3.2,9.9*58
$GPZDA,190520.00,19,09,2022,00,00*6A
$GPGBS,190520.00,6.0,3.2,9.9,,,,*49
$PUBX,00,190520.00,1559.36706,S,04802.61518,W,1197.690,G3,6.8,9.9,0.063,0.00,-0.002,,1.51,2.
$PUBX,03,06,5,U,094,46,41,064,11,e,141,05,34,063,12,U,078,58,38,064,18,U,292,48,37,024,20,U,
$PUBX,04,190520.00,190922,155120.00,2228,15D,-258783,-6915.139,21*6F
$GPDTM,W84,,0.0,N,0.0,E,0.0,W84*6F
$GPRMC,190521.00,A,1559.36702,S,04802.61517,W,0.022,,190922,,,A*72
$GPVTG,,T,,M,0.022,N,0.041,K,A*26
$GPGGA,190521.00,1559.36702,S,04802.61517,W,1,06,1.51,1209.6,M,-11.7,M,,*4A
$GPGSA,A,3,18,24,05,20,11,12,,,,,,,2.55,1.51,2.06*0A
$GPGSV,2,1,06,05,46,094,41,11,05,141,34,12,58,078,38,18,48,292,37*77
$GPGSV,2,2,06,20,20,130,32,24,18,004,35*71
$GPGLL,1559.36702,S,04802.61517,W,190521.00,A,A*6A
$GPGRS,190521.00,1,-5.0,-5.4,-2.9,-7.7,-6.0,-4.8,,,,,,*45
$GPGST,190521.00,25,,,,5.9,3.2,9.8*52
$GPZDA,190521.00,19,09,2022,00,00*6B
$GPGBS,190521.00,5.9,3.2,9.8,,,,*43
$PUBX,00,190521.00,1559.36702,S,04802.61517,W,1197.808,G3,6.8,9.8,0.041,0.00,-0.001,,1.51,2.
$PUBX,03,06,5,U,094,46,41,064,11,e,141,05,34,064,12,U,078,58,38,064,18,U,292,48,37,025,20,U,
$PUBX,04,190521.00,190922,155121.00,2228,15D,-265702,-6922.941,21*6B
$GPDTM,W84,,0.0,N,0.0,E,0.0,W84*6F
$GPRMC,190522.00,A,1559.36699,S,04802.61516,W,0.009,,190922,,,A*7A
$GPVTG,,T,,M,0.009,N,0.017,K,A*2C
$GPGGA,190522.00,1559.36699,S,04802.61516,W,1,06,1.51,1209.6,M,-11.7,M,,*4B
$GPGSA,A,3,18,24,05,20,11,12,,,,,,,2.55,1.51,2.06*0A
$GPGSV,2,1,06,05,46,094,41,11,05,141,34,12,58,078,39,18,48,292,37*76
$GPGSV,2,2,06,20,20,130,31,24,18,004,36*71
$GPGLL,1559.36699,S,04802.61516,W,190522.00,A,A*6B
$GPGRS,190522.00,1,-4.8,-5.2,-3.0,-7.1,-6.0,-4.9,,,,,,*46
$GPGST,190522.00,25,,,,5.9,3.2,9.7*5E
$GPZDA,190522.00,19,09,2022,00,00*68
$GPGBS,190522.00,5.9,3.2,9.7,,,,*4F
$PUBX,00,190522.00,1559.36699,S,04802.61516,W,1197.881,G3,6.7,9.7,0.017,0.00,0.000,,1.51,2.0
$PUBX,03,06,5,U,094,46,41,064,11,e,141,05,34,000,12,U,078,58,39,064,18,U,292,48,37,026,20,U,
$PUBX,04,190522.00,190922,155122.00,2228,15D,-272628,-6930.241,21*6C
$GPDTM,W84,,0.0,N,0.0,E,0.0,W84*6F
$GPRMC,190523.00,A,1559.36697,S,04802.61515,W,0.005,,190922,,,A*7A
$GPVTG,,T,,M,0.005,N,0.009,K,A*2F
$GPGGA,190523.00,1559.36697,S,04802.61515,W,1,06,1.51,1209.7,M,-11.7,M,,*46
$GPGSA,A,3,18,24,05,20,11,12,,,,,,,2.55,1.51,2.06*0A
$GPGSV,2,1,07,02,,,34,05,46,094,41,11,05,141,34,12,58,078,38*4B
$GPGSV,2,2,07,18,48,292,37,20,20,130,31,24,18,004,36*48
$GPGLL,1559.36697,S,04802.61515,W,190523.00,A,A*67
$GPGRS,190523.00,1,-4.6,-5.4,-3.1,-7.0,-6.1,-4.8,,,,,,*4F
$GPGST,190523.00,25,,,,5.9,3.2,9.7*5F
$GPZDA,190523.00,19,09,2022,00,00*69
$GPGBS,190523.00,5.9,3.2,9.7,,,,*4E
$PUBX,00,190523.00,1559.36697,S,04802.61515,W,1197.992,G3,6.7,9.7,0.009,0.00,-0.001,,1.51,2.
$PUBX,03,07,2,-,,,34,000,5,U,094,46,41,064,11,e,141,05,34,001,12,U,078,58,38,064,18,U,292,48
$PUBX,04,190523.00,190922,155123.00,2228,15D,-279562,-6937.354,21*68
$GPDTM,W84,,0.0,N,0.0,E,0.0,W84*6F
$GPRMC,190524.00,A,1559.36693,S,04802.61513,W,0.007,,190922,,,A*7D
$GPVTG,,T,,M,0.007,N,0.014,K,A*21
$GPGGA,190524.00,1559.36693,S,04802.61513,W,1,06,1.51,1209.9,M,-11.7,M,,*4D
$GPGSA,A,3,18,24,05,20,11,12,,,,,,,2.55,1.51,2.06*0A
$GPGSV,2,1,07,02,,,32,05,46,094,41,11,05,141,34,12,58,078,38*4D
$GPGSV,2,2,07,18,48,292,37,20,20,130,32,24,18,004,36*4B
$GPGLL,1559.36693,S,04802.61513,W,190524.00,A,A*62
$GPGRS,190524.00,1,-4.8,-5.6,-3.3,-7.1,-5.5,-4.6,,,,,,*4E
$GPGST,190524.00,25,,,,5.8,3.2,9.6*58
$GPZDA,190524.00,19,09,2022,00,00*6E
$GPGBS,190524.00,5.8,3.2,9.6,,,,*49
$PUBX,00,190524.00,1559.36693,S,04802.61513,W,1198.118,G3,6.6,9.6,0.014,0.00,-0.001,,1.51,2.
$PUBX,03,07,2,-,,,32,000,5,U,094,46,41,064,11,e,141,05,34,002,12,U,078,58,38,064,18,U,292,48
$PUBX,04,190524.00,190922,155124.00,2228,15D,-286503,-6944.369,21*65
$GPDTM,W84,,0.0,N,0.0,E,0.0,W84*6F
$GPRMC,190525.00,A,1559.36689,S,04802.61512,W,0.006,,190922,,,A*77
$GPVTG,,T,,M,0.006,N,0.011,K,A*25
$GPGGA,190525.00,1559.36689,S,04802.61512,W,1,06,1.51,1210.0,M,-11.7,M,,*47
$GPGSA,A,3,18,24,05,20,11,12,,,,,,,2.55,1.51,2.06*0A
$GPGSV,2,1,07,02,,,32,05,46,094,41,11,05,141,34,12,58,078,39*4C
$GPGSV,2,2,07,18,48,292,37,20,20,130,32,24,18,004,35*48
$GPGLL,1559.36689,S,04802.61512,W,190525.00,A,A*69
$GPGRS,190525.00,1,-4.6,-5.6,-3.6,-7.4,-5.2,-4.6,,,,,,*46
$GPGST,190525.00,25,,,,5.8,3.2,9.6*59
$GPZDA,190525.00,19,09,2022,00,00*6F
$GPGBS,190525.00,5.8,3.2,9.6,,,,*48
$PUBX,00,190525.00,1559.36689,S,04802.61512,W,1198.241,G3,6.6,9.6,0.011,0.00,-0.001,,1.51,2.
$PUBX,03,07,2,-,,,32,000,5,U,094,46,41,064,11,e,141,05,34,003,12,U,078,58,39,064,18,U,292,48
$PUBX,04,190525.00,190922,155125.00,2228,15D,-293451,-6951.740,21*6C
$GPDTM,W84,,0.0,N,0.0,E,0.0,W84*6F
$GPRMC,190526.00,A,1559.36685,S,04802.61512,W,0.056,,190922,,,A*7D
$GPVTG,,T,,M,0.056,N,0.104,K,A*25
$GPGGA,190526.00,1559.36685,S,04802.61512,W,1,06,1.51,1210.1,M,-11.7,M,,*49
$GPGSA,A,3,18,24,05,20,11,12,,,,,,,2.55,1.51,2.06*0A
$GPGSV,2,1,07,02,,,31,05,46,094,41,11,05,141,34,12,58,078,38*4E
$GPGSV,2,2,07,18,48,292,36,20,20,130,32,24,18,004,36*4A
$GPGLL,1559.36685,S,04802.61512,W,190526.00,A,A*66
$GPGRS,190526.00,1,-4.5,-5.3,-3.7,-7.5,-4.8,-5.2,,,,,,*4D
$GPGST,190526.00,25,,,,5.7,3.2,9.5*56
$GPZDA,190526.00,19,09,2022,00,00*6C
$GPGBS,190526.00,5.7,3.2,9.5,,,,*47
$PUBX,00,190526.00,1559.36685,S,04802.61512,W,1198.335,G3,6.6,9.5,0.104,0.00,-0.001,,1.51,2.
$PUBX,03,07,2,-,,,31,000,5,U,094,46,41,064,11,e,141,05,34,004,12,U,078,58,38,064,18,U,292,48
$PUBX,04,190526.00,190922,155126.00,2228,15D,-300406,-6959.252,21*6B
$GPDTM,W84,,0.0,N,0.0,E,0.0,W84*6F
$GPRMC,190527.00,A,1559.36681,S,04802.61511,W,0.067,,190922,,,A*79
$GPVTG,,T,,M,0.067,N,0.123,K,A*22
$GPGGA,190527.00,1559.36681,S,04802.61511,W,1,06,1.51,1210.2,M,-11.7,M,,*4C
$GPGSA,A,3,18,24,05,20,11,12,,,,,,,2.55,1.51,2.06*0A
$GPGSV,2,1,07,02,,,30,05,46,094,41,11,05,141,33,12,58,078,38*48
$GPGSV,2,2,07,18,48,292,36,20,20,130,31,24,18,004,36*49
$GPGLL,1559.36681,S,04802.61511,W,190527.00,A,A*60
$GPGRS,190527.00,1,-4.3,-5.5,-3.7,-7.3,-4.5,-5.0,,,,,,*45
$GPGST,190527.00,26,,,,5.7,3.2,9.4*55
$GPZDA,190527.00,19,09,2022,00,00*6D
$GPGBS,190527.00,5.7,3.2,9.4,,,,*47
$PUBX,00,190527.00,1559.36681,S,04802.61511,W,1198.447,G3,6.5,9.4,0.123,0.00,-0.002,,1.51,2.
$PUBX,03,07,2,-,,,30,000,5,U,094,46,41,064,11,e,141,05,33,005,12,U,078,58,38,064,18,U,292,48
$PUBX,04,190527.00,190922,155127.00,2228,15D,-307369,-6966.642,21*6B
$GPDTM,W84,,0.0,N,0.0,E,0.0,W84*6F
$GPRMC,190528.00,A,1559.36679,S,04802.61511,W,0.029,,190922,,,A*7B
$GPVTG,,T,,M,0.029,N,0.054,K,A*29
$GPGGA,190528.00,1559.36679,S,04802.61511,W,1,06,1.51,1210.3,M,-11.7,M,,*45
$GPGSA,A,3,18,24,05,20,11,12,,,,,,,2.55,1.51,2.06*0A
$GPGSV,2,1,07,02,,,30,05,46,094,41,11,05,141,32,12,58,078,39*48
$GPGSV,2,2,07,18,48,292,36,20,20,130,30,24,18,004,36*48
$GPGLL,1559.36679,S,04802.61511,W,190528.00,A,A*68
$GPGRS,190528.00,1,-4.1,-5.2,-3.7,-6.8,-4.8,-5.3,,,,,,*4B
$GPGST,190528.00,26,,,,5.7,3.2,9.4*5A
$GPZDA,190528.00,19,09,2022,00,00*62
$GPGBS,190528.00,5.7,3.2,9.4,,,,*48
$PUBX,00,190528.00,1559.36679,S,04802.61511,W,1198.508,G3,6.5,9.4,0.054,0.00,-0.002,,1.51,2.
$PUBX,03,07,2,-,,,30,000,5,U,094,46,41,064,11,e,141,05,32,006,12,U,078,58,39,064,18,U,292,48
$PUBX,04,190528.00,190922,155128.00,2228,15D,-314339,-6973.814,21*65
$GPDTM,W84,,0.0,N,0.0,E,0.0,W84*6F
$GPRMC,190529.00,A,1559.36678,S,04802.61510,W,0.009,,190922,,,A*78
$GPVTG,,T,,M,0.009,N,0.016,K,A*2D
$GPGGA,190529.00,1559.36678,S,04802.61510,W,1,06,1.51,1210.3,M,-11.7,M,,*44
$GPGSA,A,3,18,24,05,20,11,12,,,,,,,2.55,1.51,2.06*0A
$GPGSV,2,1,07,02,,,32,05,46,094,42,11,05,141,33,12,58,078,40*46
$GPGSV,2,2,07,18,48,292,37,20,20,130,31,24,18,004,36*48
$GPGLL,1559.36678,S,04802.61510,W,190529.00,A,A*69
$GPGRS,190529.00,1,-4.3,-5.4,-3.5,-6.7,-4.7,-5.5,,,,,,*4A
$GPGST,190529.00,26,,,,5.7,3.2,9.4*5B
$GPZDA,190529.00,19,09,2022,00,00*63
$GPGBS,190529.00,5.7,3.2,9.4,,,,*49
$PUBX,00,190529.00,1559.36678,S,04802.61510,W,1198.565,G3,6.5,9.4,0.016,0.00,-0.002,,1.51,2.
$PUBX,03,07,2,-,,,32,000,5,U,094,46,42,064,11,e,141,05,33,007,12,U,078,58,40,064,18,U,292,48
$PUBX,04,190529.00,190922,155129.00,2228,15D,-321316,-6980.002,21*6D
$GPDTM,W84,,0.0,N,0.0,E,0.0,W84*6F
$GPRMC,190530.00,A,1559.36674,S,04802.61508,W,0.057,,190922,,,A*7E
$GPVTG,,T,,M,0.057,N,0.105,K,A*25
$GPGGA,190530.00,1559.36674,S,04802.61508,W,1,06,1.51,1210.4,M,-11.7,M,,*4E
$GPGSA,A,3,18,24,05,20,11,12,,,,,,,2.55,1.51,2.05*09
$GPGSV,2,1,07,02,,,33,05,46,094,41,11,05,141,33,12,58,078,39*4A
$GPGSV,2,2,07,18,48,292,37,20,20,130,31,24,18,004,35*4B
$GPGLL,1559.36674,S,04802.61508,W,190530.00,A,A*64
$GPGRS,190530.00,1,-4.9,-5.7,-3.6,-7.0,-4.5,-5.5,,,,,,*4C
$GPGST,190530.00,26,,,,5.6,3.2,9.4*52
$GPZDA,190530.00,19,09,2022,00,00*6B
$GPGBS,190530.00,5.6,3.2,9.4,,,,*40
$PUBX,00,190530.00,1559.36674,S,04802.61508,W,1198.629,G3,6.5,9.4,0.105,0.00,-0.002,,1.51,2.
$PUBX,03,07,2,-,,,33,000,5,U,094,46,41,064,11,e,141,05,33,008,12,U,078,58,39,064,18,U,292,48
$PUBX,04,190530.00,190922,155130.00,2228,15D,-328300,-6986.970,21*69
$GPDTM,W84,,0.0,N,0.0,E,0.0,W84*6F
$GPRMC,190531.00,A,1559.36672,S,04802.61508,W,0.056,,190922,,,A*78
$GPVTG,,T,,M,0.056,N,0.104,K,A*25
$GPGGA,190531.00,1559.36672,S,04802.61508,W,1,06,1.51,1210.4,M,-11.7,M,,*49
$GPGSA,A,3,18,24,05,20,11,12,,,,,,,2.55,1.51,2.05*09
$GPGSV,2,1,07,02,,,30,05,46,094,40,11,05,141,31,12,58,078,37*44
$GPGSV,2,2,07,18,48,292,36,20,20,130,27,24,18,004,34*4C
$GPGLL,1559.36672,S,04802.61508,W,190531.00,A,A*63
$GPGRS,190531.00,1,-5.0,-6.0,-3.4,-6.2,-3.3,-5.4,,,,,,*40
$GPGST,190531.00,29,,,,5.6,3.2,9.4*5C
$GPZDA,190531.00,19,09,2022,00,00*6A
$GPGBS,190531.00,5.6,3.2,9.4,,,,*41
$PUBX,00,190531.00,1559.36672,S,04802.61508,W,1198.662,G3,6.5,9.4,0.104,0.00,-0.002,,1.51,2.
$PUBX,03,07,2,-,,,30,000,5,U,094,46,40,064,11,e,141,05,31,000,12,U,078,58,37,064,18,U,292,48
$PUBX,04,190531.00,190922,155131.00,2228,15D,-335290,-6994.116,21*66
$GPDTM,W84,,0.0,N,0.0,E,0.0,W84*6F
$GPRMC,190532.00,A,1559.36671,S,04802.61508,W,0.017,,190922,,,A*7D
$GPVTG,,T,,M,0.017,N,0.031,K,A*27
$GPGGA,190532.00,1559.36671,S,04802.61508,W,1,06,1.51,1210.4,M,-11.7,M,,*49
$GPGSA,A,3,18,24,05,20,11,12,,,,,,,2.55,1.51,2.05*09
$GPGSV,2,1,07,02,,,30,05,46,094,40,11,05,141,32,12,58,078,37*47
$GPGSV,2,2,07,18,48,292,36,20,20,130,28,24,18,004,34*43
$GPGLL,1559.36671,S,04802.61508,W,190532.00,A,A*63
$GPGRS,190532.00,1,-4.7,-5.9,-3.3,-5.8,-3.0,-5.5,,,,,,*43
$GPGST,190532.00,28,,,,5.7,3.2,9.4*5F
$GPZDA,190532.00,19,09,2022,00,00*69
$GPGBS,190532.00,5.7,3.2,9.4,,,,*43
$PUBX,00,190532.00,1559.36671,S,04802.61508,W,1198.704,G3,6.5,9.4,0.031,0.00,-0.003,,1.51,2.
$PUBX,03,07,2,-,,,30,000,5,U,094,46,40,064,11,e,141,05,32,000,12,U,078,58,37,064,18,U,292,48
$PUBX,04,190532.00,190922,155132.00,2228,15D,-342287,-7000.156,21*61
$GPDTM,W84,,0.0,N,0.0,E,0.0,W84*6F
$GPRMC,190533.00,A,1559.36672,S,04802.61508,W,0.005,,190922,,,A*7C
$GPVTG,,T,,M,0.005,N,0.009,K,A*2F
$GPGGA,190533.00,1559.36672,S,04802.61508,W,1,06,1.51,1210.4,M,-11.7,M,,*4B
$GPGSA,A,3,18,24,05,20,11,12,,,,,,,2.55,1.51,2.05*09
$GPGSV,2,1,07,02,,,30,05,46,094,39,11,05,141,32,12,58,078,37*49
$GPGSV,2,2,07,18,48,292,35,20,20,130,29,24,18,004,33*46
$GPGLL,1559.36672,S,04802.61508,W,190533.00,A,A*61
$GPGRS,190533.00,1,-4.7,-5.3,-3.1,-4.0,0.0,-5.6,,,,,,*6E
$GPGST,190533.00,29,,,,5.7,3.2,9.4*5F
$GPZDA,190533.00,19,09,2022,00,00*68
$GPGBS,190533.00,5.7,3.2,9.4,,,,*42
$PUBX,00,190533.00,1559.36672,S,04802.61508,W,1198.686,G3,6.5,9.4,0.009,0.00,-0.002,,1.51,2.
$PUBX,03,07,2,-,,,30,000,5,U,094,46,39,064,11,e,141,05,32,000,12,U,078,58,37,064,18,U,292,48
$PUBX,04,190533.00,190922,155133.00,2228,15D,-349290,-7004.445,21*6F
$GPDTM,W84,,0.0,N,0.0,E,0.0,W84*6F
$GPRMC,190534.00,A,1559.36672,S,04802.61508,W,0.033,,190922,,,A*7E
$GPVTG,,T,,M,0.033,N,0.061,K,A*24
$GPGGA,190534.00,1559.36672,S,04802.61508,W,1,06,1.51,1210.4,M,-11.7,M,,*4C
$GPGSA,A,3,18,24,05,20,11,12,,,,,,,2.55,1.51,2.05*09
$GPGSV,2,1,07,02,,,30,05,46,094,40,11,05,141,32,12,58,078,37*47
$GPGSV,2,2,07,18,48,292,35,20,20,130,30,24,18,004,33*4E
$GPGLL,1559.36672,S,04802.61508,W,190534.00,A,A*66
$GPGRS,190534.00,1,-4.3,-5.0,-3.1,-3.9,-3.8,-5.4,,,,,,*44
$GPGST,190534.00,28,,,,5.7,3.3,9.4*58
$GPZDA,190534.00,19,09,2022,00,00*6F
$GPGBS,190534.00,5.7,3.3,9.4,,,,*44
$PUBX,00,190534.00,1559.36672,S,04802.61508,W,1198.645,G3,6.5,9.4,0.061,0.00,0.001,,1.51,2.0
$PUBX,03,07,2,-,,,30,000,5,U,094,46,40,064,11,e,141,05,32,001,12,U,078,58,37,064,18,U,292,48
$PUBX,04,190534.00,190922,155134.00,2228,15D,-356297,-7008.613,21*6B
$GPDTM,W84,,0.0,N,0.0,E,0.0,W84*6F
$GPRMC,190535.00,A,1559.36674,S,04802.61508,W,0.038,,190922,,,A*72
$GPVTG,,T,,M,0.038,N,0.071,K,A*2E
$GPGGA,190535.00,1559.36674,S,04802.61508,W,1,06,1.51,1210.3,M,-11.7,M,,*4C
$GPGSA,A,3,18,24,05,20,11,12,,,,,,,2.55,1.51,2.05*09
$GPGSV,2,1,07,02,,,32,05,46,094,40,11,05,141,33,12,58,078,38*4B
$GPGSV,2,2,07,18,48,292,36,20,20,130,30,24,18,004,33*4D
$GPGLL,1559.36674,S,04802.61508,W,190535.00,A,A*61
$GPGRS,190535.00,1,-4.3,-5.1,-2.8,-4.2,-2.0,-5.7,,,,,,*4A
$GPGST,190535.00,27,,,,5.7,3.3,9.4*56
$GPZDA,190535.00,19,09,2022,00,00*6E
$GPGBS,190535.00,5.7,3.3,9.4,,,,*45
$PUBX,00,190535.00,1559.36674,S,04802.61508,W,1198.555,G3,6.5,9.4,0.071,0.00,0.004,,1.51,2.0
$PUBX,03,07,2,-,,,32,000,5,U,094,46,40,064,11,e,141,05,33,002,12,U,078,58,38,064,18,U,292,48
$PUBX,04,190535.00,190922,155135.00,2228,15D,-363305,-7007.700,21*6B
$GPDTM,W84,,0.0,N,0.0,E,0.0,W84*6F
$GPRMC,190536.00,A,1559.36667,S,04802.61507,W,0.145,,190922,,,A*77
$GPVTG,,T,,M,0.145,N,0.268,K,A*2F
$GPGGA,190536.00,1559.36667,S,04802.61507,W,1,06,1.51,1210.3,M,-11.7,M,,*42
$GPGSA,A,3,18,24,05,20,11,12,,,,,,,2.55,1.51,2.05*09
$GPGSV,2,1,07,02,,,33,05,46,094,40,11,05,141,33,12,58,078,38*4A
$GPGSV,2,2,07,18,48,292,36,20,20,130,31,24,18,004,33*4C
$GPGLL,1559.36667,S,04802.61507,W,190536.00,A,A*6F
$GPGRS,190536.00,1,-4.5,-4.8,-2.9,-6.8,-0.4,-5.6,,,,,,*49
$GPGST,190536.00,27,,,,5.6,3.3,9.3*53
$GPZDA,190536.00,19,09,2022,00,00*6D
$GPGBS,190536.00,5.6,3.3,9.3,,,,*40
$PUBX,00,190536.00,1559.36667,S,04802.61507,W,1198.598,G3,6.5,9.3,0.268,0.00,0.003,,1.51,2.0
$PUBX,03,07,2,-,,,33,001,5,U,094,46,40,064,11,e,141,05,33,003,12,U,078,58,38,064,18,U,292,48
$PUBX,04,190536.00,190922,155136.00,2228,15D,-370311,-7006.568,21*61
$GPDTM,W84,,0.0,N,0.0,E,0.0,W84*6F
$GPRMC,190537.00,A,1559.36654,S,04802.61506,W,0.293,,190922,,,A*7F
$GPVTG,,T,,M,0.293,N,0.543,K,A*29
$GPGGA,190537.00,1559.36654,S,04802.61506,W,1,06,1.51,1210.5,M,-11.7,M,,*44
$GPGSA,A,3,18,24,05,20,11,12,,,,,,,2.55,1.51,2.05*09
$GPGSV,2,1,07,02,,,29,05,46,094,40,11,05,141,31,12,58,078,37*4C
$GPGSV,2,2,07,18,48,292,36,20,20,130,31,24,18,004,33*4C
$GPGLL,1559.36654,S,04802.61506,W,190537.00,A,A*6F
$GPGRS,190537.00,1,-3.9,-4.3,-2.5,-9.6,-0.5,-4.8,,,,,,*4B
$GPGST,190537.00,27,,,,5.6,3.3,9.3*52
$GPZDA,190537.00,19,09,2022,00,00*6C
$GPGBS,190537.00,5.6,3.3,9.3,,,,*41
$PUBX,00,190537.00,1559.36654,S,04802.61506,W,1198.731,G3,6.5,9.3,0.543,0.00,0.001,,1.51,2.0
$PUBX,03,07,2,-,,,29,000,5,U,094,46,40,064,11,e,141,05,31,000,12,U,078,58,37,064,18,U,292,48
$PUBX,04,190537.00,190922,155137.00,2228,15D,-377314,-7000.871,21*60
$GPDTM,W84,,0.0,N,0.0,E,0.0,W84*6F
$GPRMC,190538.00,A,1559.36630,S,04802.61506,W,0.789,,190922,,,A*7C
$GPVTG,,T,,M,0.789,N,1.461,K,A*27
$GPGGA,190538.00,1559.36630,S,04802.61506,W,1,06,1.51,1210.3,M,-11.7,M,,*4F
$GPGSA,A,3,18,24,05,20,11,12,,,,,,,2.55,1.51,2.05*09
$GPGSV,2,1,07,02,,,30,05,46,094,40,11,05,141,31,12,58,078,38*4B
$GPGSV,2,2,07,18,48,292,36,20,20,130,31,24,18,004,33*4C
$GPGLL,1559.36630,S,04802.61506,W,190538.00,A,A*62
$GPGRS,190538.00,1,-4.3,-4.4,-3.1,-8.9,-1.5,-5.1,,,,,,*4C
$GPGST,190538.00,37,,,,5.7,3.3,9.3*5D
$GPZDA,190538.00,19,09,2022,00,00*63
$GPGBS,190538.00,5.7,3.3,9.3,,,,*4F
$PUBX,00,190538.00,1559.36630,S,04802.61506,W,1198.598,G3,6.5,9.3,1.461,0.00,0.006,,1.51,2.0
$PUBX,03,07,2,-,,,30,000,5,U,094,46,40,064,11,e,141,05,31,000,12,U,078,58,38,064,18,U,292,48
$PUBX,04,190538.00,190922,155138.00,2228,15D,-384302,-6978.714,21*60
$GPDTM,W84,,0.0,N,0.0,E,0.0,W84*6F
$GPRMC,190539.00,A,1559.36584,S,04802.61507,W,1.547,354.79,190922,,,A*63
$GPVTG,354.79,T,,M,1.547,N,2.865,K,A*3F
$GPGGA,190539.00,1559.36584,S,04802.61507,W,1,06,1.51,1210.3,M,-11.7,M,,*43
$GPGSA,A,3,18,24,05,20,11,12,,,,,,,2.55,1.51,2.05*09
$GPGSV,2,1,07,02,,,30,05,46,094,40,11,05,141,33,12,58,078,38*49
$GPGSV,2,2,07,18,48,292,36,20,20,130,30,24,18,004,33*4D
$GPGLL,1559.36584,S,04802.61507,W,190539.00,A,A*6E
$GPGRS,190539.00,1,-4.3,-4.2,-3.3,-9.8,-2.0,-5.1,,,,,,*4F
$GPGST,190539.00,34,,,,5.7,3.3,9.4*58
$GPZDA,190539.00,19,09,2022,00,00*62
$GPGBS,190539.00,5.7,3.3,9.4,,,,*49
$PUBX,00,190539.00,1559.36584,S,04802.61507,W,1198.530,G3,6.6,9.4,2.865,354.79,0.009,,1.51,2
$PUBX,03,07,2,-,,,30,000,5,U,094,46,40,064,11,e,141,05,33,000,12,U,078,58,38,064,18,U,292,48
$PUBX,04,190539.00,190922,155139.00,2228,15D,-391274,-6967.645,21*6F
$GPDTM,W84,,0.0,N,0.0,E,0.0,W84*6F
$GPRMC,190540.00,A,1559.36517,S,04802.61511,W,2.341,354.79,190922,,,A*63
$GPVTG,354.79,T,,M,2.341,N,4.336,K,A*37
$GPGGA,190540.00,1559.36517,S,04802.61511,W,1,06,1.51,1210.3,M,-11.7,M,,*40
$GPGSA,A,3,18,24,05,20,11,12,,,,,,,2.55,1.51,2.05*09
$GPGSV,2,1,07,02,,,29,05,46,094,40,11,05,141,31,12,58,078,40*4C
$GPGSV,2,2,07,18,48,292,36,20,20,130,31,24,18,004,37*48
$GPGLL,1559.36517,S,04802.61511,W,190540.00,A,A*6D
$GPGRS,190540.00,1,-3.4,-3.6,-2.4,-6.9,-0.8,-4.4,,,,,,*44
$GPGST,190540.00,29,,,,5.7,3.3,9.4*5A
$GPZDA,190540.00,19,09,2022,00,00*6C
$GPGBS,190540.00,5.7,3.3,9.4,,,,*47
$PUBX,00,190540.00,1559.36517,S,04802.61511,W,1198.516,G3,6.6,9.4,4.336,354.79,0.010,,1.51,2
$PUBX,03,07,2,-,,,29,000,5,U,094,46,40,064,11,e,141,05,31,000,12,U,078,58,40,064,18,U,292,48
$PUBX,04,190540.00,190922,155140.00,2228,15D,-398244,-6972.839,21*64
$GPDTM,W84,,0.0,N,0.0,E,0.0,W84*6F
$GPRMC,190541.00,A,1559.36420,S,04802.61513,W,3.414,356.05,190922,,,A*6A
$GPVTG,356.05,T,,M,3.414,N,6.322,K,A*3F
$GPGGA,190541.00,1559.36420,S,04802.61513,W,1,06,1.51,1210.3,M,-11.7,M,,*46
$GPGSA,A,3,18,24,05,20,11,12,,,,,,,2.54,1.51,2.05*08
$GPGSV,2,1,07,02,,,27,05,46,094,40,11,05,141,26,12,58,078,40*44
$GPGSV,2,2,07,18,48,292,38,20,20,130,33,24,18,004,39*4A
$GPGLL,1559.36420,S,04802.61513,W,190541.00,A,A*6B
$GPGRS,190541.00,1,-2.9,-3.7,-2.4,-5.9,-1.8,-4.5,,,,,,*4B
$GPGST,190541.00,24,,,,5.7,3.3,9.4*56
$GPZDA,190541.00,19,09,2022,00,00*6D
$GPGBS,190541.00,5.7,3.3,9.4,,,,*46
$PUBX,00,190541.00,1559.36420,S,04802.61513,W,1198.587,G3,6.6,9.4,6.322,356.05,0.009,,1.51,2
$PUBX,03,07,2,-,,,27,000,5,U,094,46,40,064,11,e,141,05,26,000,12,U,078,58,40,064,18,U,292,48
$PUBX,04,190541.00,190922,155141.00,2228,15D,-405220,-6979.741,21*6E
$GPDTM,W84,,0.0,N,0.0,E,0.0,W84*6F
$GPRMC,190542.00,A,1559.36315,S,04802.61515,W,3.630,357.49,190922,,,A*63
$GPVTG,357.49,T,,M,3.630,N,6.723,K,A*37
$GPGGA,190542.00,1559.36315,S,04802.61515,W,1,06,1.51,1210.5,M,-11.7,M,,*44
$GPGSA,A,3,18,24,05,20,11,12,,,,,,,2.54,1.51,2.05*08
$GPGSV,2,1,07,02,,,26,05,46,094,39,11,05,141,26,12,58,078,40*4B
$GPGSV,2,2,07,18,48,292,38,20,20,130,33,24,18,004,38*4B
$GPGLL,1559.36315,S,04802.61515,W,190542.00,A,A*6F
$GPGRS,190542.00,1,-3.0,-4.0,-2.3,-5.5,-0.7,-4.8,,,,,,*48
$GPGST,190542.00,23,,,,5.6,3.3,9.3*54
$GPZDA,190542.00,19,09,2022,00,00*6E
$GPGBS,190542.00,5.6,3.3,9.3,,,,*43
$PUBX,00,190542.00,1559.36315,S,04802.61515,W,1198.732,G3,6.5,9.3,6.723,357.49,0.004,,1.51,2
$PUBX,03,07,2,-,,,26,000,5,U,094,46,39,064,11,e,141,05,26,000,12,U,078,58,40,064,18,U,292,48
$PUBX,04,190542.00,190922,155142.00,2228,15D,-412201,-6983.468,21*66
$GPDTM,W84,,0.0,N,0.0,E,0.0,W84*6F
$GPRMC,190543.00,A,1559.36211,S,04802.61516,W,3.731,358.26,190922,,,A*62
$GPVTG,358.26,T,,M,3.731,N,6.909,K,A*37
$GPGGA,190543.00,1559.36211,S,04802.61516,W,1,06,1.51,1210.5,M,-11.7,M,,*43
$GPGSA,A,3,18,24,05,20,11,12,,,,,,,2.54,1.51,2.05*08
$GPGSV,2,1,07,02,,,26,05,46,094,39,11,05,141,26,12,58,078,40*4B
$GPGSV,2,2,07,18,48,292,38,20,20,130,33,24,18,004,38*4B
$GPGLL,1559.36211,S,04802.61516,W,190543.00,A,A*68
$GPGRS,190543.00,1,-3.1,-4.7,-2.4,-5.3,-0.9,-5.2,,,,,,*4B
$GPGST,190543.00,23,,,,5.6,3.2,9.3*54
$GPZDA,190543.00,19,09,2022,00,00*6F
$GPGBS,190543.00,5.6,3.2,9.3,,,,*43
$PUBX,00,190543.00,1559.36211,S,04802.61516,W,1198.787,G3,6.5,9.3,6.909,358.26,0.004,,1.51,2
$PUBX,03,07,2,-,,,26,000,5,U,094,46,39,064,11,e,141,05,26,000,12,U,078,58,40,064,18,U,292,48
$PUBX,04,190543.00,190922,155143.00,2228,15D,-419185,-6985.728,21*63
$GPDTM,W84,,0.0,N,0.0,E,0.0,W84*6F
$GPRMC,190544.00,A,1559.36106,S,04802.61519,W,3.687,358.72,190922,,,A*62
$GPVTG,358.72,T,,M,3.687,N,6.828,K,A*38
$GPGGA,190544.00,1559.36106,S,04802.61519,W,1,06,1.51,1210.6,M,-11.7,M,,*4D
$GPGSA,A,3,18,24,05,20,11,12,,,,,,,2.54,1.51,2.05*08
$GPGSV,2,1,07,02,,,26,05,46,094,39,11,05,141,26,12,58,078,39*45
$GPGSV,2,2,07,18,48,292,36,20,20,130,33,24,18,004,39*44
$GPGLL,1559.36106,S,04802.61519,W,190544.00,A,A*65
$GPGRS,190544.00,1,-3.1,-5.1,-2.3,-7.4,-1.3,-5.3,,,,,,*43
$GPGST,190544.00,24,,,,5.6,3.2,9.2*55
$GPZDA,190544.00,19,09,2022,00,00*68
$GPGBS,190544.00,5.6,3.2,9.2,,,,*45
$PUBX,00,190544.00,1559.36106,S,04802.61519,W,1198.899,G3,6.4,9.2,6.828,358.72,0.003,,1.51,2
$PUBX,03,07,2,-,,,26,000,5,U,094,46,39,064,11,e,141,05,26,000,12,U,078,58,39,064,18,U,292,48
$PUBX,04,190544.00,190922,155144.00,2228,15D,-426172,-6988.640,21*65
$GPDTM,W84,,0.0,N,0.0,E,0.0,W84*6F
$GPRMC,190545.00,A,1559.36007,S,04802.61519,W,3.546,359.56,190922,,,A*6A
$GPVTG,359.56,T,,M,3.546,N,6.567,K,A*37
$GPGGA,190545.00,1559.36007,S,04802.61519,W,1,06,1.51,1210.6,M,-11.7,M,,*4C
$GPGSA,A,3,18,24,05,20,11,12,,,,,,,2.54,1.51,2.05*08
$GPGSV,2,1,07,02,,,25,05,46,094,38,11,05,141,26,12,58,078,39*47
$GPGSV,2,2,07,18,48,292,37,20,20,130,32,24,18,004,35*48
$GPGLL,1559.36007,S,04802.61519,W,190545.00,A,A*64
$GPGRS,190545.00,1,-3.0,-5.0,-2.4,-6.4,-1.5,-5.0,,,,,,*41
$GPGST,190545.00,25,,,,5.6,3.2,9.2*55
$GPZDA,190545.00,19,09,2022,00,00*69
$GPGBS,190545.00,5.6,3.2,9.2,,,,*44
$PUBX,00,190545.00,1559.36007,S,04802.61519,W,1198.846,G3,6.4,9.2,6.567,359.56,0.008,,1.51,2
$PUBX,03,07,2,-,,,25,000,5,U,094,46,38,000,11,e,141,05,26,000,12,U,078,58,39,064,18,U,292,48
$PUBX,04,190545.00,190922,155145.00,2228,15D,-433160,-6986.785,21*64
$GPDTM,W84,,0.0,N,0.0,E,0.0,W84*6F
$GPRMC,190546.00,A,1559.35911,S,04802.61519,W,3.513,359.78,190922,,,A*68
$GPVTG,359.78,T,,M,3.513,N,6.507,K,A*3D
$GPGGA,190546.00,1559.35911,S,04802.61519,W,1,06,1.51,1210.5,M,-11.7,M,,*41
$GPGSA,A,3,18,24,05,20,11,12,,,,,,,2.54,1.51,2.05*08
$GPGSV,2,1,07,02,,,25,05,46,094,38,11,05,141,32,12,58,078,39*42
$GPGSV,2,2,07,18,48,292,37,20,20,130,32,24,18,004,36*4B
$GPGLL,1559.35911,S,04802.61519,W,190546.00,A,A*6A
$GPGRS,190546.00,1,-3.1,-5.1,-2.7,-6.8,-2.1,-5.5,,,,,,*4F
$GPGST,190546.00,36,,,,5.6,3.2,9.3*55
$GPZDA,190546.00,19,09,2022,00,00*6A
$GPGBS,190546.00,5.6,3.2,9.3,,,,*46
$PUBX,00,190546.00,1559.35911,S,04802.61519,W,1198.794,G3,6.4,9.3,6.507,359.78,0.008,,1.51,2
$PUBX,03,07,2,-,,,25,000,5,U,094,46,38,001,11,e,141,05,32,000,12,U,078,58,39,064,18,U,292,48
$PUBX,04,190546.00,190922,155146.00,2228,15D,-440144,-6982.133,21*69
$GPDTM,W84,,0.0,N,0.0,E,0.0,W84*6F
$GPRMC,190547.00,A,1559.35814,S,04802.61519,W,3.497,0.21,190922,,,A*63
$GPVTG,0.21,T,,M,3.497,N,6.477,K,A*35
$GPGGA,190547.00,1559.35814,S,04802.61519,W,1,06,1.51,1210.6,M,-11.7,M,,*47
$GPGSA,A,3,18,24,05,20,11,12,,,,,,,2.54,1.51,2.05*08
$GPGSV,2,1,07,02,,,26,05,46,095,39,11,05,141,32,12,58,078,39*41
$GPGSV,2,2,07,18,48,292,37,20,20,130,32,24,18,004,38*45
$GPGLL,1559.35814,S,04802.61519,W,190547.00,A,A*6F
$GPGRS,190547.00,1,-2.7,-4.6,-2.3,-7.6,-2.2,-4.8,,,,,,*4B
$GPGST,190547.00,31,,,,5.6,3.2,9.3*53
$GPZDA,190547.00,19,09,2022,00,00*6B
$GPGBS,190547.00,5.6,3.2,9.3,,,,*47
$PUBX,00,190547.00,1559.35814,S,04802.61519,W,1198.810,G3,6.5,9.3,6.477,0.21,0.006,,1.51,2.0
$PUBX,03,07,2,-,,,26,000,5,U,095,46,39,002,11,e,141,05,32,000,12,U,078,58,39,064,18,U,292,48
$PUBX,04,190547.00,190922,155147.00,2228,15D,-447126,-6984.023,21*6C
$GPDTM,W84,,0.0,N,0.0,E,0.0,W84*6F
$GPRMC,190548.00,A,1559.35714,S,04802.61520,W,3.649,359.86,190922,,,A*6A
$GPVTG,359.86,T,,M,3.649,N,6.759,K,A*39
$GPGGA,190548.00,1559.35714,S,04802.61520,W,1,06,1.51,1210.6,M,-11.7,M,,*4D
$GPGSA,A,3,18,24,05,20,11,12,,,,,,,2.54,1.51,2.05*08
$GPGSV,2,1,07,02,,,25,05,46,095,40,11,05,141,26,12,58,078,39*49
$GPGSV,2,2,07,18,48,292,37,20,20,130,32,24,18,004,37*4A
$GPGLL,1559.35714,S,04802.61520,W,190548.00,A,A*65
$GPGRS,190548.00,1,-2.2,-4.5,-1.9,-5.4,0.1,-4.8,,,,,,*67
$GPGST,190548.00,27,,,,5.6,3.2,9.3*5B
$GPZDA,190548.00,19,09,2022,00,00*64
$GPGBS,190548.00,5.6,3.2,9.3,,,,*48
$PUBX,00,190548.00,1559.35714,S,04802.61520,W,1198.817,G3,6.5,9.3,6.759,359.86,0.006,,1.51,2
$PUBX,03,07,2,-,,,25,000,5,U,095,46,40,003,11,e,141,05,26,000,12,U,078,58,39,064,18,U,292,48
$PUBX,04,190548.00,190922,155148.00,2228,15D,-454113,-6989.075,21*66
$GPDTM,W84,,0.0,N,0.0,E,0.0,W84*6F
$GPRMC,190549.00,A,1559.35604,S,04802.61521,W,3.929,359.84,190922,,,A*61
$GPVTG,359.84,T,,M,3.929,N,7.277,K,A*3A
$GPGGA,190549.00,1559.35604,S,04802.61521,W,1,06,1.51,1210.6,M,-11.7,M,,*4D
$GPGSA,A,3,18,24,05,20,11,12,,,,,,,2.54,1.51,2.05*08
$GPGSV,2,1,07,02,,,25,05,46,095,40,11,05,141,27,12,58,078,39*48
$GPGSV,2,2,07,18,48,292,37,20,20,130,32,24,18,004,37*4A
$GPGLL,1559.35604,S,04802.61521,W,190549.00,A,A*65
$GPGRS,190549.00,1,-1.8,-4.1,-1.8,-6.0,0.0,-4.5,,,,,,*61
$GPGST,190549.00,25,,,,5.6,3.2,9.3*58
$GPZDA,190549.00,19,09,2022,00,00*65
$GPGBS,190549.00,5.6,3.2,9.3,,,,*49
$PUBX,00,190549.00,1559.35604,S,04802.61521,W,1198.858,G3,6.4,9.3,7.277,359.84,0.005,,1.51,2
$PUBX,03,07,2,-,,,25,000,5,U,095,46,40,004,11,e,141,05,27,000,12,U,078,58,39,064,18,U,292,48
$PUBX,04,190549.00,190922,155149.00,2228,15D,-461103,-6991.103,21*68
$GPDTM,W84,,0.0,N,0.0,E,0.0,W84*6F
$GPRMC,190550.00,A,1559.35477,S,04802.61520,W,4.436,359.85,190922,,,A*6B
$GPVTG,359.85,T,,M,4.436,N,8.216,K,A*37
$GPGGA,190550.00,1559.35477,S,04802.61520,W,1,06,1.51,1210.8,M,-11.7,M,,*4C
$GPGSA,A,3,18,24,05,20,11,12,,,,,,,2.54,1.51,2.05*08
$GPGSV,2,1,08,02,,,24,05,46,095,39,11,05,141,30,12,58,078,39*4E
$GPGSV,2,2,08,18,48,292,37,20,20,130,33,24,18,004,37,31,,,31*44
$GPGLL,1559.35477,S,04802.61520,W,190550.00,A,A*6A
$GPGRS,190550.00,1,-2.2,-4.5,-2.6,-6.9,0.7,-4.9,,,,,,*6B
$GPGST,190550.00,24,,,,5.6,3.2,9.3*51
$GPZDA,190550.00,19,09,2022,00,00*6D
$GPGBS,190550.00,5.6,3.2,9.3,,,,*41
$PUBX,00,190550.00,1559.35477,S,04802.61520,W,1199.016,G3,6.4,9.3,8.216,359.85,0.002,,1.51,2
$PUBX,03,08,2,-,,,24,000,5,U,095,46,39,005,11,e,141,05,30,000,12,U,078,58,39,064,18,U,292,48
$PUBX,04,190550.00,190922,155150.00,2228,15D,-468090,-6986.076,21*6F
$GPDTM,W84,,0.0,N,0.0,E,0.0,W84*6F
$GPRMC,190551.00,A,1559.35335,S,04802.61520,W,4.872,359.71,190922,,,A*6C
$GPVTG,359.71,T,,M,4.872,N,9.024,K,A*32
$GPGGA,190551.00,1559.35335,S,04802.61520,W,1,06,1.51,1211.0,M,-11.7,M,,*45
$GPGSA,A,3,18,24,05,20,11,12,,,,,,,2.54,1.51,2.05*08
$GPGSV,2,1,08,02,,,24,05,46,095,40,11,05,141,33,12,58,078,39*43
$GPGSV,2,2,08,18,48,292,37,20,20,130,33,24,18,004,37,31,,,33*46
$GPGLL,1559.35335,S,04802.61520,W,190551.00,A,A*6A
$GPGRS,190551.00,1,-1.8,-4.1,-2.2,-7.5,-0.1,-4.7,,,,,,*4B
$GPGST,190551.00,24,,,,5.5,3.2,9.2*52
$GPZDA,190551.00,19,09,2022,00,00*6C
$GPGBS,190551.00,5.5,3.2,9.2,,,,*42
$PUBX,00,190551.00,1559.35335,S,04802.61520,W,1199.297,G3,6.4,9.2,9.024,359.71,-0.007,,1.51,
$PUBX,03,08,2,-,,,24,000,5,U,095,46,40,006,11,e,141,05,33,000,12,U,078,58,39,064,18,U,292,48
$PUBX,04,190551.00,190922,155151.00,2228,15D,-475070,-6976.207,21*66
$GPDTM,W84,,0.0,N,0.0,E,0.0,W84*6F
$GPRMC,190552.00,A,1559.35198,S,04802.61522,W,4.933,359.71,190922,,,A*6C
$GPVTG,359.71,T,,M,4.933,N,9.137,K,A*35
$GPGGA,190552.00,1559.35198,S,04802.61522,W,1,06,1.50,1211.1,M,-11.7,M,,*41
$GPGSA,A,3,18,24,05,20,11,12,,,,,,,2.54,1.50,2.05*09
$GPGSV,2,1,08,02,,,25,05,46,095,40,11,05,141,32,12,58,078,39*43
$GPGSV,2,2,08,18,48,292,37,20,20,130,33,24,18,004,38,31,,,34*4E
$GPGLL,1559.35198,S,04802.61522,W,190552.00,A,A*6E
$GPGRS,190552.00,1,-1.8,-4.5,-2.6,-3.9,-1.7,-4.8,,,,,,*48
$GPGST,190552.00,24,,,,5.5,3.2,9.2*51
$GPZDA,190552.00,19,09,2022,00,00*6F
$GPGBS,190552.00,5.5,3.2,9.2,,,,*41
$PUBX,00,190552.00,1559.35198,S,04802.61522,W,1199.327,G3,6.4,9.2,9.137,359.71,-0.007,,1.50,
$PUBX,03,08,2,-,,,25,000,5,U,095,46,40,007,11,e,141,05,32,000,12,U,078,58,39,064,18,U,292,48
$PUBX,04,190552.00,190922,155152.00,2228,15D,-482042,-6969.182,21*6F
$GPDTM,W84,,0.0,N,0.0,E,0.0,W84*6F
$GPRMC,190553.00,A,1559.35052,S,04802.61522,W,5.079,0.04,190922,,,A*61
$GPVTG,0.04,T,,M,5.079,N,9.406,K,A*39
$GPGGA,190553.00,1559.35052,S,04802.61522,W,1,06,1.50,1211.3,M,-11.7,M,,*45
$GPGSA,A,3,18,24,05,20,11,12,,,,,,,2.54,1.50,2.05*09
$GPGSV,2,1,08,02,,,24,05,46,095,39,11,04,141,31,12,58,078,40*40
$GPGSV,2,2,08,18,48,292,37,20,20,130,33,24,18,004,38,31,,,34*4E
$GPGLL,1559.35052,S,04802.61522,W,190553.00,A,A*68
$GPGRS,190553.00,1,-1.2,-3.8,-1.9,-7.8,-1.0,-4.2,,,,,,*4D
$GPGST,190553.00,24,,,,5.4,3.2,9.1*52
$GPZDA,190553.00,19,09,2022,00,00*6E
$GPGBS,190553.00,5.4,3.2,9.1,,,,*42
$PUBX,00,190553.00,1559.35052,S,04802.61522,W,1199.578,G3,6.3,9.1,9.406,0.04,-0.014,,1.50,2.
$PUBX,03,08,2,-,,,24,000,5,U,095,46,39,008,11,e,141,04,31,000,12,U,078,58,40,064,18,U,292,48
$PUBX,04,190553.00,190922,155153.00,2228,15D,-489014,-6976.145,21*62
$GPDTM,W84,,0.0,N,0.0,E,0.0,W84*6F
$GPRMC,190554.00,A,1559.34907,S,04802.61522,W,5.114,0.09,190922,,,A*69
$GPVTG,0.09,T,,M,5.114,N,9.472,K,A*3D
$GPGGA,190554.00,1559.34907,S,04802.61522,W,1,05,1.50,1211.5,M,-11.7,M,,*4F
$GPGSA,A,3,18,24,05,20,12,,,,,,,,2.54,1.50,2.05*09
$GPGSV,2,1,08,02,,,24,05,46,095,39,11,04,141,30,12,57,077,40*41
$GPGSV,2,2,08,18,48,292,37,20,20,130,33,24,18,004,38,31,,,34*4E
$GPGLL,1559.34907,S,04802.61522,W,190554.00,A,A*67
$GPGRS,190554.00,1,-1.2,-3.8,-1.7,-6.1,-4.2,,,,,,,*4E
$GPGST,190554.00,24,,,,5.4,3.2,9.0*54
$GPZDA,190554.00,19,09,2022,00,00*69
$GPGBS,190554.00,5.4,3.2,9.0,,,,*44
$PUBX,00,190554.00,1559.34907,S,04802.61522,W,1199.740,G3,6.3,9.0,9.472,0.09,-0.018,,1.50,2.
$PUBX,03,08,2,-,,,24,000,5,U,095,46,39,009,11,e,141,04,30,000,12,U,077,57,40,064,18,U,292,48
$PUBX,04,190554.00,190922,155154.00,2228,15D,-495995,-6986.324,21*65
$GPDTM,W84,,0.0,N,0.0,E,0.0,W84*6F
$GPRMC,190555.00,A,1559.34763,S,04802.61523,W,5.053,359.89,190922,,,A*60
$GPVTG,359.89,T,,M,5.053,N,9.358,K,A*37
$GPGGA,190555.00,1559.34763,S,04802.61523,W,1,05,1.50,1211.7,M,-11.7,M,,*41
$GPGSA,A,3,18,24,05,20,12,,,,,,,,2.54,1.50,2.05*09
$GPGSV,2,1,08,02,,,25,05,46,095,39,11,04,141,30,12,57,077,39*4E
$GPGSV,2,2,08,18,48,292,38,20,20,130,33,24,18,004,38,31,,,33*46
$GPGLL,1559.34763,S,04802.61523,W,190555.00,A,A*6B
$GPGRS,190555.00,1,-2.0,-3.9,-1.8,-6.0,-4.3,,,,,,,*40
$GPGST,190555.00,24,,,,5.3,3.2,9.0*52
$GPZDA,190555.00,19,09,2022,00,00*68
$GPGBS,190555.00,5.3,3.2,9.0,,,,*42
$PUBX,00,190555.00,1559.34763,S,04802.61523,W,1199.912,G3,6.2,9.0,9.358,359.89,-0.023,,1.50,
$PUBX,03,08,2,-,,,25,000,5,U,095,46,39,010,11,e,141,04,30,000,12,U,077,57,39,064,18,U,292,48
$PUBX,04,190555.00,190922,155155.00,2228,15D,-502986,-6994.433,21*6A
$GPDTM,W84,,0.0,N,0.0,E,0.0,W84*6F
$GPRMC,190556.00,A,1559.34623,S,04802.61522,W,4.989,0.17,190922,,,A*60
$GPVTG,0.17,T,,M,4.989,N,9.240,K,A*38
$GPGGA,190556.00,1559.34623,S,04802.61522,W,1,05,1.50,1211.7,M,-11.7,M,,*46
$GPGSA,A,3,18,24,05,20,12,,,,,,,,2.54,1.50,2.05*09
$GPGSV,2,1,08,02,,,25,05,46,095,39,11,04,141,30,12,57,077,39*4E
$GPGSV,2,2,08,18,48,292,37,20,20,130,32,24,18,004,37,31,,,35*41
$GPGLL,1559.34623,S,04802.61522,W,190556.00,A,A*6C
$GPGRS,190556.00,1,-2.6,-3.5,-2.0,-6.0,-4.2,,,,,,,*43
$GPGST,190556.00,25,,,,5.3,3.2,8.9*58
$GPZDA,190556.00,19,09,2022,00,00*6B
$GPGBS,190556.00,5.3,3.2,8.9,,,,*49
$PUBX,00,190556.00,1559.34623,S,04802.61522,W,1199.999,G3,6.2,8.9,9.240,0.17,-0.024,,1.50,2.
$PUBX,03,08,2,-,,,25,000,5,U,095,46,39,011,11,e,141,04,30,000,12,U,077,57,39,064,18,U,292,48
$PUBX,04,190556.00,190922,155156.00,2228,15D,-509977,-7001.715,21*6C
$GPDTM,W84,,0.0,N,0.0,E,0.0,W84*6F
$GPRMC,190557.00,A,1559.34483,S,04802.61523,W,4.987,0.17,190922,,,A*66
$GPVTG,0.17,T,,M,4.987,N,9.237,K,A*36
$GPGGA,190557.00,1559.34483,S,04802.61523,W,1,05,1.50,1211.8,M,-11.7,M,,*41
$GPGSA,A,3,18,24,05,20,12,,,,,,,,2.54,1.50,2.05*09
$GPGSV,2,1,08,02,,,26,05,46,095,40,11,04,141,30,12,57,077,39*43
$GPGSV,2,2,08,18,48,292,37,20,20,130,32,24,18,004,37,31,,,34*40
$GPGLL,1559.34483,S,04802.61523,W,190557.00,A,A*64
$GPGRS,190557.00,1,-2.4,-3.7,-1.9,-6.1,-4.1,,,,,,,*4A
$GPGST,190557.00,16,,,,5.3,3.2,8.8*58
$GPZDA,190557.00,19,09,2022,00,00*6A
$GPGBS,190557.00,5.3,3.2,8.8,,,,*49
$PUBX,00,190557.00,1559.34483,S,04802.61523,W,1200.051,G3,6.1,8.8,9.237,0.17,-0.037,,1.50,2.
$PUBX,03,08,2,-,,,26,000,5,U,095,46,40,012,11,e,141,04,30,000,12,U,077,57,39,064,18,U,292,48
$PUBX,04,190557.00,190922,155157.00,2228,15D,-516982,-7009.493,21*6D
$GPDTM,W84,,0.0,N,0.0,E,0.0,W84*6F
$GPRMC,190558.00,A,1559.34344,S,04802.61522,W,4.922,0.74,190922,,,A*6E
$GPVTG,0.74,T,,M,4.922,N,9.115,K,A*3F
$GPGGA,190558.00,1559.34344,S,04802.61522,W,1,05,1.50,1211.8,M,-11.7,M,,*43
$GPGSA,A,3,18,24,05,20,12,,,,,,,,2.54,1.50,2.05*09
$GPGSV,2,1,08,02,,,26,05,46,095,38,11,04,141,34,12,57,077,39*48
$GPGSV,2,2,08,18,48,292,37,20,20,130,32,24,18,004,36,31,,,34*41
$GPGLL,1559.34344,S,04802.61522,W,190558.00,A,A*66
$GPGRS,190558.00,1,-2.5,-3.3,-2.1,-6.1,-4.1,,,,,,,*4B
$GPGST,190558.00,17,,,,5.2,3.1,8.7*5B
$GPZDA,190558.00,19,09,2022,00,00*65
$GPGBS,190558.00,5.2,3.1,8.7,,,,*4B
$PUBX,00,190558.00,1559.34344,S,04802.61522,W,1200.069,G3,6.1,8.7,9.115,0.74,-0.045,,1.50,2.
$PUBX,03,08,2,-,,,26,000,5,U,095,46,38,013,11,e,141,04,34,000,12,U,077,57,39,064,18,U,292,48
$PUBX,04,190558.00,190922,155158.00,2228,15D,-523995,-7016.524,21*6E
$GPDTM,W84,,0.0,N,0.0,E,0.0,W84*6F
$GPRMC,190559.00,A,1559.34205,S,04802.61523,W,5.008,1.29,190922,,,A*63
$GPVTG,1.29,T,,M,5.008,N,9.275,K,A*33
$GPGGA,190559.00,1559.34205,S,04802.61523,W,1,05,1.50,1211.9,M,-11.7,M,,*46
$GPGSA,A,3,18,24,05,20,12,,,,,,,,2.54,1.50,2.04*08
$GPGSV,2,1,08,02,,,26,05,46,095,40,11,04,141,33,12,57,077,40*4E
$GPGSV,2,2,08,18,48,292,34,20,20,130,32,24,18,004,37,31,,,34*43
$GPGLL,1559.34205,S,04802.61523,W,190559.00,A,A*62
$GPGRS,190559.00,1,-2.4,-3.4,-2.0,-5.9,-4.3,,,,,,,*44
$GPGST,190559.00,17,,,,5.1,3.1,8.6*58
$GPZDA,190559.00,19,09,2022,00,00*64
$GPGBS,190559.00,5.1,3.1,8.6,,,,*48
$PUBX,00,190559.00,1559.34205,S,04802.61523,W,1200.145,G3,6.0,8.6,9.275,1.29,-0.080,,1.50,2.
$PUBX,03,08,2,-,,,26,000,5,U,095,46,40,014,11,e,141,04,33,000,12,U,077,57,40,064,18,U,292,48
$PUBX,04,190559.00,190922,155159.00,2228,15D,-531015,-7022.078,21*67
$GPDTM,W84,,0.0,N,0.0,E,0.0,W84*6F
$GPRMC,190600.00,A,1559.34065,S,04802.61521,W,5.069,2.14,190922,,,A*60
$GPVTG,2.14,T,,M,5.069,N,9.387,K,A*35
$GPGGA,190600.00,1559.34065,S,04802.61521,W,1,05,1.50,1211.9,M,-11.7,M,,*4F
$GPGSA,A,3,18,24,05,20,12,,,,,,,,2.54,1.50,2.04*08
$GPGSV,2,1,08,02,,,27,05,46,095,40,11,04,141,33,12,57,077,40*4F
$GPGSV,2,2,08,18,48,291,35,20,20,130,31,24,18,004,36,31,,,33*44
$GPGLL,1559.34065,S,04802.61521,W,190600.00,A,A*6B
$GPGRS,190600.00,1,-2.1,-3.4,-2.0,-5.7,-4.0,,,,,,,*43
$GPGST,190600.00,18,,,,5.1,3.1,8.5*5B
$GPZDA,190600.00,19,09,2022,00,00*6B
$GPGBS,190600.00,5.1,3.1,8.5,,,,*44
$PUBX,00,190600.00,1559.34065,S,04802.61521,W,1200.135,G3,5.9,8.5,9.387,2.14,-0.076,,1.50,2.
$PUBX,03,08,2,-,,,27,000,5,U,095,46,40,015,11,e,141,04,33,000,12,U,077,57,40,064,18,U,291,48
$PUBX,04,190600.00,190922,155160.00,2228,15D,-538040,-7027.821,21*6A
$GPDTM,W84,,0.0,N,0.0,E,0.0,W84*6F
$GPRMC,190601.00,A,1559.33921,S,04802.61519,W,5.314,2.04,190922,,,A*6C
$GPVTG,2.04,T,,M,5.314,N,9.841,K,A*3C
$GPGGA,190601.00,1559.33921,S,04802.61519,W,1,05,1.50,1211.9,M,-11.7,M,,*4B
$GPGSA,A,3,18,24,05,20,12,,,,,,,,2.54,1.50,2.04*08
$GPGSV,2,1,08,02,,,27,05,46,095,40,11,04,141,33,12,57,077,40*4F
$GPGSV,2,2,08,18,48,291,35,20,20,130,30,24,18,004,35,31,,,32*47
$GPGLL,1559.33921,S,04802.61519,W,190601.00,A,A*6F
$GPGRS,190601.00,1,-2.0,-3.5,-2.2,-5.2,-3.9,,,,,,,*4B
$GPGST,190601.00,19,,,,5.0,3.1,8.4*5B
$GPZDA,190601.00,19,09,2022,00,00*6A
$GPGBS,190601.00,5.0,3.1,8.4,,,,*45
$PUBX,00,190601.00,1559.33921,S,04802.61519,W,1200.119,G3,5.9,8.4,9.841,2.04,-0.082,,1.50,2.
$PUBX,03,08,2,-,,,27,000,5,U,095,46,40,016,11,e,141,04,33,000,12,U,077,57,40,064,18,U,291,48
$PUBX,04,190601.00,190922,155161.00,2228,15D,-545071,-7034.024,21*6D
$GPDTM,W84,,0.0,N,0.0,E,0.0,W84*6F
$GPRMC,190602.00,A,1559.33768,S,04802.61516,W,5.702,1.98,190922,,,A*66
$GPVTG,1.98,T,,M,5.702,N,10.560,K,A*0F
$GPGGA,190602.00,1559.33768,S,04802.61516,W,1,05,1.50,1211.9,M,-11.7,M,,*44
$GPGSA,A,3,18,24,05,20,12,,,,,,,,2.54,1.50,2.04*08
$GPGSV,2,1,08,02,,,27,05,46,095,40,11,04,141,33,12,57,077,39*41
$GPGSV,2,2,08,18,48,291,35,20,19,131,28,24,18,004,35,31,,,33*44
$GPGLL,1559.33768,S,04802.61516,W,190602.00,A,A*60
$GPGRS,190602.00,1,-1.8,-3.2,-1.6,-4.8,-3.4,,,,,,,*45
$GPGST,190602.00,20,,,,5.1,3.1,8.4*53
$GPZDA,190602.00,19,09,2022,00,00*69
$GPGBS,190602.00,5.1,3.1,8.4,,,,*47
$PUBX,00,190602.00,1559.33768,S,04802.61516,W,1200.108,G3,5.9,8.4,10.560,1.98,-0.080,,1.50,2
$PUBX,03,08,2,-,,,27,000,5,U,095,46,40,017,11,e,141,04,33,000,12,U,077,57,39,064,18,U,291,48
$PUBX,04,190602.00,190922,155162.00,2228,15D,-552106,-7035.132,21*6D
$GPDTM,W84,,0.0,N,0.0,E,0.0,W84*6F
$GPRMC,190603.00,A,1559.33607,S,04802.61515,W,5.803,1.60,190922,,,A*65
$GPVTG,1.60,T,,M,5.803,N,10.747,K,A*01
$GPGGA,190603.00,1559.33607,S,04802.61515,W,1,05,1.50,1211.9,M,-11.7,M,,*4E
$GPGSA,A,3,18,24,05,20,12,,,,,,,,2.54,1.50,2.04*08
$GPGSV,2,1,08,02,,,29,05,46,095,40,11,04,141,32,12,57,077,39*4E
$GPGSV,2,2,08,18,48,291,35,20,19,131,27,24,18,004,35,31,,,34*4C
$GPGLL,1559.33607,S,04802.61515,W,190603.00,A,A*6A
$GPGRS,190603.00,1,-2.4,-4.2,-2.7,-6.3,-4.2,,,,,,,*46
$GPGST,190603.00,20,,,,5.1,3.1,8.5*53
$GPZDA,190603.00,19,09,2022,00,00*68
$GPGBS,190603.00,5.1,3.1,8.5,,,,*47
$PUBX,00,190603.00,1559.33607,S,04802.61515,W,1200.156,G3,5.9,8.5,10.747,1.60,-0.090,,1.50,2
$PUBX,03,08,2,-,,,29,000,5,U,095,46,40,018,11,e,141,04,32,000,12,U,077,57,39,064,18,U,291,48
$PUBX,04,190603.00,190922,155163.00,2228,15D,-559134,-7024.900,21*6E
$GPDTM,W84,,0.0,N,0.0,E,0.0,W84*6F
$GPRMC,190604.00,A,1559.33442,S,04802.61512,W,6.022,1.80,190922,,,A*60
$GPVTG,1.80,T,,M,6.022,N,11.153,K,A*05
$GPGGA,190604.00,1559.33442,S,04802.61512,W,1,05,1.50,1211.9,M,-11.7,M,,*4D
$GPGSA,A,3,18,24,05,20,12,,,,,,,,2.54,1.50,2.04*08
$GPGSV,2,1,08,02,,,29,05,46,095,40,11,04,141,25,12,57,077,39*48
$GPGSV,2,2,08,18,48,291,35,20,19,131,27,24,18,004,35,31,,,33*4B
$GPGLL,1559.33442,S,04802.61512,W,190604.00,A,A*69
$GPGRS,190604.00,1,-2.0,-3.7,-2.2,-6.1,-3.9,,,,,,,*4C
$GPGST,190604.00,20,,,,5.1,3.1,8.5*54
$GPZDA,190604.00,19,09,2022,00,00*6F
$GPGBS,190604.00,5.1,3.1,8.5,,,,*40
$PUBX,00,190604.00,1559.33442,S,04802.61512,W,1200.195,G3,5.9,8.5,11.153,1.80,-0.090,,1.50,2
$PUBX,03,08,2,-,,,29,000,5,U,095,46,40,019,11,e,141,04,25,000,12,U,077,57,39,064,18,U,291,48
$PUBX,04,190604.00,190922,155164.00,2228,15D,-566156,-7019.366,21*62
$GPDTM,W84,,0.0,N,0.0,E,0.0,W84*6F
$GPRMC,190605.00,A,1559.33276,S,04802.61508,W,6.052,2.30,190922,,,A*64
$GPVTG,2.30,T,,M,6.052,N,11.208,K,A*07
$GPGGA,190605.00,1559.33276,S,04802.61508,W,1,05,1.50,1212.0,M,-11.7,M,,*4C
$GPGSA,A,3,18,24,05,20,12,,,,,,,,2.54,1.50,2.04*08
$GPGSV,2,1,08,02,,,29,05,46,095,40,11,04,141,24,12,57,077,39*49
$GPGSV,2,2,08,18,48,291,34,20,19,131,28,24,18,004,35,31,,,33*45
$GPGLL,1559.33276,S,04802.61508,W,190605.00,A,A*62
$GPGRS,190605.00,1,-1.0,-3.1,-1.7,-5.4,-3.4,,,,,,,*45
$GPGST,190605.00,20,,,,5.1,3.2,8.5*56
$GPZDA,190605.00,19,09,2022,00,00*6E
$GPGBS,190605.00,5.1,3.2,8.5,,,,*42
$PUBX,00,190605.00,1559.33276,S,04802.61508,W,1200.266,G3,6.0,8.5,11.208,2.30,-0.106,,1.50,2
$PUBX,03,08,2,-,,,29,000,5,U,095,46,40,020,11,e,141,04,24,000,12,U,077,57,39,064,18,U,291,48
$PUBX,04,190605.00,190922,155165.00,2228,15D,-573179,-7026.314,21*62
$GPDTM,W84,,0.0,N,0.0,E,0.0,W84*6F
$GPRMC,190606.00,A,1559.33112,S,04802.61507,W,5.910,2.06,190922,,,A*60
$GPVTG,2.06,T,,M,5.910,N,10.946,K,A*0E
$GPGGA,190606.00,1559.33112,S,04802.61507,W,1,05,1.50,1212.1,M,-11.7,M,,*40
$GPGSA,A,3,18,24,05,20,12,,,,,,,,2.54,1.50,2.04*08
$GPGSV,2,1,08,02,,,28,05,46,095,40,11,04,141,24,12,57,077,39*48
$GPGSV,2,2,08,18,48,291,34,20,19,131,30,24,18,004,35,31,,,34*4B
$GPGLL,1559.33112,S,04802.61507,W,190606.00,A,A*6F
$GPGRS,190606.00,1,-0.5,-2.8,-1.4,-4.5,-3.0,,,,,,,*4D
$GPGST,190606.00,19,,,,5.1,3.3,8.5*5E
$GPZDA,190606.00,19,09,2022,00,00*6D
$GPGBS,190606.00,5.1,3.3,8.5,,,,*40
$PUBX,00,190606.00,1559.33112,S,04802.61507,W,1200.334,G3,6.1,8.5,10.946,2.06,-0.102,,1.50,2
$PUBX,03,08,2,-,,,28,000,5,U,095,46,40,021,11,e,141,04,24,000,12,U,077,57,39,064,18,U,291,48
$PUBX,04,190606.00,190922,155166.00,2228,15D,-580210,-7034.380,21*6C
$GPDTM,W84,,0.0,N,0.0,E,0.0,W84*6F
$GPRMC,190607.00,A,1559.32959,S,04802.61506,W,5.510,1.28,190922,,,A*65
$GPVTG,1.28,T,,M,5.510,N,10.205,K,A*01
$GPGGA,190607.00,1559.32959,S,04802.61506,W,1,05,1.50,1212.0,M,-11.7,M,,*47
$GPGSA,A,3,18,24,05,20,12,,,,,,,,2.54,1.50,2.04*08
$GPGSV,2,1,08,02,,,28,05,46,095,38,11,04,141,26,12,57,077,39*45
$GPGSV,2,2,08,18,48,291,34,20,19,131,31,24,18,004,35,31,,,29*46
$GPGLL,1559.32959,S,04802.61506,W,190607.00,A,A*69
$GPGRS,190607.00,1,-1.1,-3.5,-1.8,-4.7,-4.1,,,,,,,*4D
$GPGST,190607.00,18,,,,5.1,3.4,8.4*58
$GPZDA,190607.00,19,09,2022,00,00*6C
$GPGBS,190607.00,5.1,3.4,8.4,,,,*47
$PUBX,00,190607.00,1559.32959,S,04802.61506,W,1200.276,G3,6.1,8.4,10.205,1.28,-0.057,,1.50,2
$PUBX,03,08,2,-,,,28,000,5,U,095,46,38,000,11,e,141,04,26,000,12,U,077,57,39,064,18,U,291,48
$PUBX,04,190607.00,190922,155167.00,2228,15D,-587238,-7023.437,21*6C
$GPDTM,W84,,0.0,N,0.0,E,0.0,W84*6F
$GPRMC,190608.00,A,1559.32796,S,04802.61503,W,5.906,1.30,190922,,,A*60
$GPVTG,1.30,T,,M,5.906,N,10.938,K,A*06
$GPGGA,190608.00,1559.32796,S,04802.61503,W,1,05,1.50,1212.1,M,-11.7,M,,*41
$GPGSA,A,3,18,24,05,20,12,,,,,,,,2.53,1.50,2.04*0F
$GPGSV,2,1,08,02,,,27,05,46,095,39,11,04,141,25,12,57,077,39*48
$GPGSV,2,2,08,18,48,291,35,20,19,131,31,24,18,004,36,31,,,33*4F
$GPGLL,1559.32796,S,04802.61503,W,190608.00,A,A*6E
$GPGRS,190608.00,1,-1.6,-3.5,-1.4,-5.5,-4.3,,,,,,,*48
$GPGST,190608.00,17,,,,5.1,3.3,8.3*58
$GPZDA,190608.00,19,09,2022,00,00*63
$GPGBS,190608.00,5.1,3.3,8.3,,,,*48
$PUBX,00,190608.00,1559.32796,S,04802.61503,W,1200.337,G3,6.1,8.3,10.938,1.30,-0.052,,1.50,2
$PUBX,03,08,2,-,,,27,000,5,U,095,46,39,001,11,e,141,04,25,000,12,U,077,57,39,064,18,U,291,48
$PUBX,04,190608.00,190922,155168.00,2228,15D,-594252,-7007.811,21*6C
$GPDTM,W84,,0.0,N,0.0,E,0.0,W84*6F
$GPRMC,190609.00,A,1559.32625,S,04802.61501,W,6.327,1.35,190922,,,A*65
$GPVTG,1.35,T,,M,6.327,N,11.717,K,A*0B
$GPGGA,190609.00,1559.32625,S,04802.61501,W,1,05,1.50,1212.1,M,-11.7,M,,*4B
$GPGSA,A,3,18,24,05,20,12,,,,,,,,2.53,1.50,2.04*0F
$GPGSV,2,1,08,02,,,26,05,46,095,39,11,04,141,27,12,57,077,40*45
$GPGSV,2,2,08,18,48,291,35,20,19,131,29,24,18,004,35,31,,,33*45
$GPGLL,1559.32625,S,04802.61501,W,190609.00,A,A*64
$GPGRS,190609.00,1,-0.4,-2.9,-0.4,-4.5,-3.5,,,,,,,*46
$GPGST,190609.00,19,,,,5.1,3.3,8.3*57
$GPZDA,190609.00,19,09,2022,00,00*62
$GPGBS,190609.00,5.1,3.3,8.3,,,,*49
$PUBX,00,190609.00,1559.32625,S,04802.61501,W,1200.385,G3,6.1,8.3,11.717,1.35,-0.077,,1.50,2
$PUBX,03,08,2,-,,,26,000,5,U,095,46,39,002,11,e,141,04,27,000,12,U,077,57,40,064,18,U,291,48
$PUBX,04,190609.00,190922,155169.00,2228,15D,-601262,-7012.560,21*6F
$GPDTM,W84,,0.0,N,0.0,E,0.0,W84*6F
$GPRMC,190610.00,A,1559.32456,S,04802.61502,W,6.315,1.11,190922,,,A*6F
$GPVTG,1.11,T,,M,6.315,N,11.695,K,A*07
$GPGGA,190610.00,1559.32456,S,04802.61502,W,1,05,1.50,1212.1,M,-11.7,M,,*46
$GPGSA,A,3,18,24,05,20,12,,,,,,,,2.53,1.50,2.04*0F
$GPGSV,2,1,08,02,,,26,05,46,095,40,11,04,141,28,12,57,077,40*44
$GPGSV,2,2,08,18,48,291,35,20,19,131,20,24,18,004,36,31,,,32*4E
$GPGLL,1559.32456,S,04802.61502,W,190610.00,A,A*69
$GPGRS,190610.00,1,0.4,-2.2,0.2,-1.3,-2.6,,,,,,,*42
$GPGST,190610.00,29,,,,5.1,3.4,8.4*5C
$GPZDA,190610.00,19,09,2022,00,00*6A
$GPGBS,190610.00,5.1,3.4,8.4,,,,*41
$PUBX,00,190610.00,1559.32456,S,04802.61502,W,1200.346,G3,6.1,8.4,11.695,1.11,-0.094,,1.50,2
$PUBX,03,08,2,-,,,26,000,5,U,095,46,40,003,11,e,141,04,28,000,12,U,077,57,40,064,18,U,291,48
$PUBX,04,190610.00,190922,155170.00,2228,15D,-608283,-7027.297,21*60
$GPDTM,W84,,0.0,N,0.0,E,0.0,W84*6F
$GPRMC,190611.00,A,1559.32289,S,04802.61501,W,6.128,1.40,190922,,,A*61
$GPVTG,1.40,T,,M,6.128,N,11.350,K,A*03
$GPGGA,190611.00,1559.32289,S,04802.61501,W,1,05,1.50,1212.0,M,-11.7,M,,*41
$GPGSA,A,3,18,24,05,20,12,,,,,,,,2.53,1.50,2.04*0F
$GPGSV,3,1,09,02,,,28,05,46,095,40,11,04,141,29,12,57,077,39*45
$GPGSV,3,2,09,18,48,291,36,20,19,131,28,23,,,31,24,18,004,36*45
$GPGSV,3,3,09,31,,,33*72
$GPGLL,1559.32289,S,04802.61501,W,190611.00,A,A*6F
$GPGRS,190611.00,1,0.7,-2.3,-0.1,-3.5,-2.2,,,,,,,*6F
$GPGST,190611.00,20,,,,5.1,3.4,8.5*55
$GPZDA,190611.00,19,09,2022,00,00*6B
$GPGBS,190611.00,5.1,3.4,8.5,,,,*41
$PUBX,00,190611.00,1559.32289,S,04802.61501,W,1200.299,G3,6.1,8.5,11.350,1.40,-0.061,,1.50,2
$PUBX,03,09,2,-,,,28,000,5,U,095,46,40,004,11,e,141,04,29,000,12,U,077,57,39,064,18,U,291,48
$PUBX,04,190611.00,190922,155171.00,2228,15D,-615315,-7033.655,21*6D
$GPDTM,W84,,0.0,N,0.0,E,0.0,W84*6F
$GPRMC,190612.00,A,1559.32116,S,04802.61498,W,6.270,1.13,190922,,,A*6E
$GPVTG,1.13,T,,M,6.270,N,11.612,K,A*08
$GPGGA,190612.00,1559.32116,S,04802.61498,W,1,05,1.50,1212.2,M,-11.7,M,,*44
$GPGSA,A,3,18,24,05,20,12,,,,,,,,2.53,1.50,2.04*0F
$GPGSV,3,1,09,02,,,28,05,46,095,40,11,04,141,33,12,57,077,38*4F
$GPGSV,3,2,09,18,48,291,36,20,19,131,29,23,,,30,24,18,004,35*46
$GPGSV,3,3,09,31,,,34*75
$GPGLL,1559.32116,S,04802.61498,W,190612.00,A,A*68
$GPGRS,190612.00,1,-0.3,-3.5,-0.1,-4.0,-2.9,,,,,,,*4B
$GPGST,190612.00,19,,,,5.1,3.4,8.5*5C
$GPZDA,190612.00,19,09,2022,00,00*68
$GPGBS,190612.00,5.1,3.4,8.5,,,,*42
$PUBX,00,190612.00,1559.32116,S,04802.61498,W,1200.500,G3,6.1,8.5,11.612,1.13,-0.105,,1.50,2
$PUBX,03,09,2,-,,,28,000,5,U,095,46,40,005,11,e,141,04,33,000,12,U,077,57,38,064,18,U,291,48
$PUBX,04,190612.00,190922,155172.00,2228,15D,-622350,-7036.537,21*6A
$GPDTM,W84,,0.0,N,0.0,E,0.0,W84*6F
$GPRMC,190613.00,A,1559.31948,S,04802.61498,W,6.082,0.81,190922,,,A*6A
$GPVTG,0.81,T,,M,6.082,N,11.265,K,A*09
$GPGGA,190613.00,1559.31948,S,04802.61498,W,1,05,1.50,1212.3,M,-11.7,M,,*44
$GPGSA,A,3,18,24,05,20,12,,,,,,,,2.53,1.50,2.04*0F
$GPGSV,3,1,09,02,,,30,05,46,095,40,11,04,141,29,12,57,077,38*4D
$GPGSV,3,2,09,18,48,291,36,20,19,131,33,23,,,28,24,18,004,35*44
$GPGSV,3,3,09,31,,,33*72
$GPGLL,1559.31948,S,04802.61498,W,190613.00,A,A*69
$GPGRS,190613.00,1,0.1,-3.1,0.0,-3.5,-2.5,,,,,,,*43
$GPGST,190613.00,16,,,,5.1,3.3,8.4*54
$GPZDA,190613.00,19,09,2022,00,00*69
$GPGBS,190613.00,5.1,3.3,8.4,,,,*45
$PUBX,00,190613.00,1559.31948,S,04802.61498,W,1200.548,G3,6.1,8.4,11.265,0.81,-0.065,,1.50,2
$PUBX,03,09,2,-,,,30,000,5,U,095,46,40,006,11,e,141,04,29,000,12,U,077,57,38,064,18,U,291,48
$PUBX,04,190613.00,190922,155173.00,2228,15D,-629388,-7040.279,21*68
$GPDTM,W84,,0.0,N,0.0,E,0.0,W84*6F
$GPRMC,190614.00,A,1559.31771,S,04802.61498,W,6.298,0.36,190922,,,A*6C
$GPVTG,0.36,T,,M,6.298,N,11.664,K,A*09
$GPGGA,190614.00,1559.31771,S,04802.61498,W,1,05,1.50,1212.5,M,-11.7,M,,*41
$GPGSA,A,3,18,24,05,20,12,,,,,,,,2.53,1.50,2.04*0F
$GPGSV,3,1,09,02,,,30,05,46,095,40,11,04,141,28,12,57,077,39*4D
$GPGSV,3,2,09,18,48,291,36,20,19,131,32,23,,,28,24,18,004,35*45
$GPGSV,3,3,09,31,,,33*72
$GPGLL,1559.31771,S,04802.61498,W,190614.00,A,A*6A
$GPGRS,190614.00,1,-1.1,-4.0,-1.3,-3.1,-3.2,,,,,,,*43
$GPGST,190614.00,17,,,,5.0,3.3,8.3*54
$GPZDA,190614.00,19,09,2022,00,00*6E
$GPGBS,190614.00,5.0,3.3,8.3,,,,*44
$PUBX,00,190614.00,1559.31771,S,04802.61498,W,1200.791,G3,6.0,8.3,11.664,0.36,-0.114,,1.50,2
$PUBX,03,09,2,-,,,30,000,5,U,095,46,40,007,11,e,141,04,28,000,12,U,077,57,39,064,18,U,291,48
$PUBX,04,190614.00,190922,155174.00,2228,15D,-636423,-7032.767,21*6F
$GPDTM,W84,,0.0,N,0.0,E,0.0,W84*6F
$GPRMC,190615.00,A,1559.31593,S,04802.61500,W,6.238,359.47,190922,,,A*60
$GPVTG,359.47,T,,M,6.238,N,11.553,K,A*0D
$GPGGA,190615.00,1559.31593,S,04802.61500,W,1,05,1.50,1212.9,M,-11.7,M,,*42
$GPGSA,A,3,18,24,05,20,12,,,,,,,,2.53,1.50,2.04*0F
$GPGSV,3,1,09,02,,,29,05,46,095,40,11,04,141,25,12,57,077,39*48
$GPGSV,3,2,09,18,48,291,37,20,19,131,32,23,,,29,24,18,004,35*45
$GPGSV,3,3,09,31,,,33*72
$GPGLL,1559.31593,S,04802.61500,W,190615.00,A,A*65
$GPGRS,190615.00,1,-1.0,-3.9,-1.0,-4.3,-3.1,,,,,,,*48
$GPGST,190615.00,17,,,,5.0,3.2,8.2*55
$GPZDA,190615.00,19,09,2022,00,00*6F
$GPGBS,190615.00,5.0,3.2,8.2,,,,*45
$PUBX,00,190615.00,1559.31593,S,04802.61500,W,1201.146,G3,5.9,8.2,11.553,359.47,-0.177,,1.50
$PUBX,03,09,2,-,,,29,000,5,U,095,46,40,008,11,e,141,04,25,000,12,U,077,57,39,064,18,U,291,48
$PUBX,04,190615.00,190922,155175.00,2228,15D,-643454,-7029.904,21*6C
$GPDTM,W84,,0.0,N,0.0,E,0.0,W84*6F
$GPRMC,190616.00,A,1559.31418,S,04802.61504,W,6.300,358.92,190922,,,A*66
$GPVTG,358.92,T,,M,6.300,N,11.668,K,A*05
$GPGGA,190616.00,1559.31418,S,04802.61504,W,1,05,1.50,1213.2,M,-11.7,M,,*4D
$GPGSA,A,3,18,24,05,20,12,,,,,,,,2.53,1.50,2.04*0F
$GPGSV,3,1,09,02,,,29,05,46,095,39,11,04,141,25,12,57,077,39*46
$GPGSV,3,2,09,18,48,291,37,20,19,131,32,23,12,345,29,24,18,004,36*77
$GPGSV,3,3,09,31,,,33*72
$GPGLL,1559.31418,S,04802.61504,W,190616.00,A,A*60
$GPGRS,190616.00,1,-0.8,-3.2,-0.3,-3.2,-2.3,,,,,,,*4E
$GPGST,190616.00,16,,,,4.9,3.2,8.2*5F
$GPZDA,190616.00,19,09,2022,00,00*6C
$GPGBS,190616.00,4.9,3.2,8.2,,,,*4E
$PUBX,00,190616.00,1559.31418,S,04802.61504,W,1201.454,G3,5.9,8.2,11.668,358.92,-0.214,,1.50
$PUBX,03,09,2,-,,,29,000,5,U,095,46,39,009,11,e,141,04,25,000,12,U,077,57,39,064,18,U,291,48
$PUBX,04,190616.00,190922,155176.00,2228,15D,-650489,-7039.649,21*69
$GPDTM,W84,,0.0,N,0.0,E,0.0,W84*6F
$GPRMC,190617.00,A,1559.31244,S,04802.61509,W,6.336,358.59,190922,,,A*67
$GPVTG,358.59,T,,M,6.336,N,11.735,K,A*0E
$GPGGA,190617.00,1559.31244,S,04802.61509,W,1,05,1.50,1213.3,M,-11.7,M,,*4F
$GPGSA,A,3,18,24,05,20,12,,,,,,,,2.53,1.50,2.04*0F
$GPGSV,3,1,09,02,,,28,05,46,095,39,11,04,141,23,12,57,077,39*41
$GPGSV,3,2,09,18,48,291,37,20,19,131,32,23,12,345,29,24,18,004,36*77
$GPGSV,3,3,09,31,,,33*72
$GPGLL,1559.31244,S,04802.61509,W,190617.00,A,A*63
$GPGRS,190617.00,1,-0.8,-3.2,0.0,-3.5,-2.0,,,,,,,*65
$GPGST,190617.00,16,,,,4.9,3.1,8.1*5E
$GPZDA,190617.00,19,09,2022,00,00*6D
$GPGBS,190617.00,4.9,3.1,8.1,,,,*4F
$PUBX,00,190617.00,1559.31244,S,04802.61509,W,1201.592,G3,5.8,8.1,11.735,358.59,-0.172,,1.50
$PUBX,03,09,2,-,,,28,000,5,U,095,46,39,010,11,e,141,04,23,000,12,U,077,57,39,064,18,U,291,48
$PUBX,04,190617.00,190922,155177.00,2228,15D,-657536,-7052.348,21*62
$GPDTM,W84,,0.0,N,0.0,E,0.0,W84*6F
$GPRMC,190618.00,A,1559.31068,S,04802.61518,W,6.410,357.28,190922,,,A*6E
$GPVTG,357.28,T,,M,6.410,N,11.870,K,A*0A
$GPGGA,190618.00,1559.31068,S,04802.61518,W,1,05,1.50,1213.5,M,-11.7,M,,*4A
$GPGSA,A,3,18,24,05,20,12,,,,,,,,2.53,1.50,2.04*0F
$GPGSV,3,1,09,02,,,28,05,46,095,39,11,04,141,22,12,57,077,40*4E
$GPGSV,3,2,09,18,48,291,37,20,19,131,32,23,12,345,30,24,18,004,35*7C
$GPGSV,3,3,09,31,,,30*71
$GPGLL,1559.31068,S,04802.61518,W,190618.00,A,A*60
$GPGRS,190618.00,1,-1.3,-3.2,-0.1,-2.8,-2.5,,,,,,,*45
$GPGST,190618.00,17,,,,4.8,3.1,8.1*51
$GPZDA,190618.00,19,09,2022,00,00*62
$GPGBS,190618.00,4.8,3.1,8.1,,,,*41
$PUBX,00,190618.00,1559.31068,S,04802.61518,W,1201.754,G3,5.8,8.1,11.870,357.28,-0.179,,1.50
$PUBX,03,09,2,-,,,28,000,5,U,095,46,39,011,11,e,141,04,22,000,12,U,077,57,40,064,18,U,291,48
$PUBX,04,190618.00,190922,155178.00,2228,15D,-664593,-7061.209,21*69
$GPDTM,W84,,0.0,N,0.0,E,0.0,W84*6F
$GPRMC,190619.00,A,1559.30894,S,04802.61539,W,6.530,354.55,190922,,,A*6C
$GPVTG,354.55,T,,M,6.530,N,12.093,K,A*06
$GPGGA,190619.00,1559.30894,S,04802.61539,W,1,04,3.87,1213.4,M,-11.7,M,,*4A
$GPGSA,A,3,18,24,05,12,,,,,,,,,7.56,3.87,6.49*08
$GPGSV,3,1,09,02,,,27,05,46,095,40,11,04,141,22,12,57,077,39*41
$GPGSV,3,2,09,18,48,291,37,20,19,131,,23,12,345,29,24,18,004,34*74
$GPGSV,3,3,09,31,,,30*71
$GPGLL,1559.30894,S,04802.61539,W,190619.00,A,A*68
$GPGRS,190619.00,1,-1.1,-3.0,-0.4,-2.7,,,,,,,,*4A
$GPGST,190619.00,14,,,,4.9,3.1,8.2*51
$GPZDA,190619.00,19,09,2022,00,00*63
$GPGBS,190619.00,,,,,,,*69
$PUBX,00,190619.00,1559.30894,S,04802.61539,W,1201.665,G3,5.8,8.2,12.093,354.55,-0.130,,3.87
$PUBX,03,09,2,-,,,27,000,5,U,095,46,40,012,11,e,141,04,22,000,12,U,077,57,39,064,18,U,291,48
$PUBX,04,190619.00,190922,155179.00,2228,15D,-671654,-7060.785,21*65
$GPDTM,W84,,0.0,N,0.0,E,0.0,W84*6F
$GPRMC,190620.00,A,1559.30712,S,04802.61576,W,6.799,349.89,190922,,,A*60
$GPVTG,349.89,T,,M,6.799,N,12.592,K,A*0E
$GPGGA,190620.00,1559.30712,S,04802.61576,W,1,05,3.87,1213.5,M,-11.7,M,,*4A
$GPGSA,A,3,18,24,05,20,12,,,,,,,,7.56,3.87,6.49*0A
$GPGSV,3,1,09,02,,,28,05,46,095,39,11,04,141,23,12,57,077,38*40
$GPGSV,3,2,09,18,48,291,37,20,19,131,24,23,12,345,34,24,18,004,34*7E
$GPGSV,3,3,09,31,,,34*75
$GPGLL,1559.30712,S,04802.61576,W,190620.00,A,A*68
$GPGRS,190620.00,1,-1.9,-3.9,-1.2,5.7,-2.8,,,,,,,*65
$GPGST,190620.00,15,,,,5.0,3.0,8.3*52
$GPZDA,190620.00,19,09,2022,00,00*69
$GPGBS,190620.00,,,,,,,*63
$PUBX,00,190620.00,1559.30712,S,04802.61576,W,1201.768,G3,5.8,8.3,12.592,349.89,-0.144,,3.87
$PUBX,03,09,2,-,,,28,000,5,U,095,46,39,013,11,e,141,04,23,000,12,U,077,57,38,064,18,U,291,48
$PUBX,04,190620.00,190922,155180.00,2228,15D,-678712,-7055.797,21*66
$GPDTM,W84,,0.0,N,0.0,E,0.0,W84*6F
$GPRMC,190621.00,A,1559.30541,S,04802.61640,W,6.823,343.76,190922,,,A*67
$GPVTG,343.76,T,,M,6.823,N,12.636,K,A*07
$GPGGA,190621.00,1559.30541,S,04802.61640,W,1,05,1.50,1213.4,M,-11.7,M,,*40
$GPGSA,A,3,18,24,05,20,12,,,,,,,,2.53,1.50,2.04*0F
$GPGSV,3,1,09,02,,,26,05,46,095,39,11,04,141,23,12,57,077,38*4E
$GPGSV,3,2,09,18,48,291,35,20,19,131,25,23,12,345,34,24,18,004,37*7E
$GPGSV,3,3,09,31,,,33*72
$GPGLL,1559.30541,S,04802.61640,W,190621.00,A,A*6B
$GPGRS,190621.00,1,-2.2,-3.6,-1.5,-3.4,-2.6,,,,,,,*42
$GPGST,190621.00,23,,,,5.0,3.0,8.4*51
$GPZDA,190621.00,19,09,2022,00,00*68
$GPGBS,190621.00,5.0,3.0,8.4,,,,*46
$PUBX,00,190621.00,1559.30541,S,04802.61640,W,1201.638,G3,5.9,8.4,12.636,343.76,-0.059,,1.50
$PUBX,03,09,2,-,,,26,000,5,U,095,46,39,014,11,e,141,04,23,000,12,U,077,57,38,064,18,U,291,48
$PUBX,04,190621.00,190922,155181.00,2228,15D,-685767,-7054.512,21*68
$GPDTM,W84,,0.0,N,0.0,E,0.0,W84*6F
$GPRMC,190622.00,A,1559.30370,S,04802.61724,W,6.793,339.89,190922,,,A*6A
$GPVTG,339.89,T,,M,6.793,N,12.581,K,A*01
$GPGGA,190622.00,1559.30370,S,04802.61724,W,1,06,1.50,1213.5,M,-11.7,M,,*46
$GPGSA,A,3,18,24,05,31,20,12,,,,,,,2.53,1.50,2.04*0D
$GPGSV,3,1,09,02,,,26,05,46,095,40,11,04,141,23,12,57,077,38*40
$GPGSV,3,2,09,18,48,291,38,20,19,131,26,23,12,345,34,24,18,004,36*71
$GPGSV,3,3,09,31,13,232,33*43
$GPGLL,1559.30370,S,04802.61724,W,190622.00,A,A*6F
$GPGRS,190622.00,1,-2.2,-3.4,-1.4,-7.0,-5.3,-1.7,,,,,,*45
$GPGST,190622.00,21,,,,5.1,3.1,8.5*51
$GPZDA,190622.00,19,09,2022,00,00*6B
$GPGBS,190622.00,5.1,3.1,8.5,,,,*44
$PUBX,00,190622.00,1559.30370,S,04802.61724,W,1201.764,G3,5.9,8.5,12.581,339.89,-0.057,,1.50
$PUBX,03,09,2,-,,,26,000,5,U,095,46,40,015,11,e,141,04,23,000,12,U,077,57,38,064,18,U,291,48
$PUBX,04,190622.00,190922,155182.00,2228,15D,-692819,-7050.866,21*62
$GPDTM,W84,,0.0,N,0.0,E,0.0,W84*6F
$GPRMC,190623.00,A,1559.30213,S,04802.61830,W,6.845,332.17,190922,,,A*6D
$GPVTG,332.17,T,,M,6.845,N,12.677,K,A*03
$GPGGA,190623.00,1559.30213,S,04802.61830,W,1,06,1.50,1213.4,M,-11.7,M,,*48
$GPGSA,A,3,18,24,05,31,20,12,,,,,,,2.53,1.50,2.04*0D
$GPGSV,3,1,09,02,,,25,05,46,095,32,11,04,141,26,12,57,077,38*43
$GPGSV,3,2,09,18,48,291,39,20,19,131,25,23,12,345,30,24,18,004,28*78
$GPGSV,3,3,09,31,13,232,32*42
$GPGLL,1559.30213,S,04802.61830,W,190623.00,A,A*60
$GPGRS,190623.00,1,-2.8,-3.8,-1.8,-7.9,-5.3,-2.3,,,,,,*40
$GPGST,190623.00,27,,,,5.1,3.0,8.6*54
$GPZDA,190623.00,19,09,2022,00,00*6A
$GPGBS,190623.00,5.1,3.0,8.6,,,,*47
$PUBX,00,190623.00,1559.30213,S,04802.61830,W,1201.671,G3,6.0,8.6,12.677,332.17,-0.017,,1.50
$PUBX,03,09,2,-,,,25,000,5,U,095,46,32,016,11,e,141,04,26,000,12,U,077,57,38,064,18,U,291,48
$PUBX,04,190623.00,190922,155183.00,2228,15D,-699864,-7040.318,21*60
$GPDTM,W84,,0.0,N,0.0,E,0.0,W84*6F
$GPRMC,190624.00,A,1559.30122,S,04802.61973,W,5.957,325.42,190922,,,A*6A
$GPVTG,325.42,T,,M,5.957,N,11.032,K,A*00
$GPGGA,190624.00,1559.30122,S,04802.61973,W,1,06,1.50,1213.8,M,-11.7,M,,*44
$GPGSA,A,3,18,24,05,31,20,12,,,,,,,2.53,1.50,2.04*0D
$GPGSV,3,1,11,02,,,32,05,46,095,32,11,04,141,26,12,57,077,35*41
$GPGSV,3,2,11,15,,,36,18,48,291,32,20,19,131,23,23,12,345,21*4C
$GPGSV,3,3,11,24,18,004,27,25,,,34,31,13,232,33*74
$GPGLL,1559.30122,S,04802.61973,W,190624.00,A,A*60
$GPGRS,190624.00,1,-2.7,-4.6,-1.8,-9.3,-2.8,-2.5,,,,,,*4F
$GPGST,190624.00,34,,,,5.6,3.1,8.9*58
$GPZDA,190624.00,19,09,2022,00,00*6D
$GPGBS,190624.00,5.6,3.1,8.9,,,,*49
$PUBX,00,190624.00,1559.30122,S,04802.61973,W,1202.047,G3,6.4,8.9,11.032,325.42,-0.115,,1.50
